frame,video_time_s,sim_time_s,root_x,root_y,root_z,root_roll,root_pitch,root_yaw,joint_target_abs_mean,joint_error_abs_mean,joint_error_abs_max,joint_velocity_abs_mean,ctrl_abs_mean,root_target_x,root_target_y,root_target_z,root_position_error_m,root_orientation_error_rad,contact_count,fall_proxy
0,0.0,0.2200000000000001,0.00872515522736438,-0.001373886424035478,0.7818526700856716,-0.00015075821809325742,0.02999863913650767,0.03802680316612731,0.30355899984916224,0.03802374378183872,0.3441541734218454,0.1641986096786374,0.30355899984916224,0.0,0.0,0.7965530157089233,0.016947442463876156,0.004092300518585409,8,False
1,0.03333333333333333,0.24000000000000013,0.009982841544338037,-0.0015861850904350762,0.781675099061901,-0.0001264921886295699,0.03075146835972919,0.038167068900269496,0.30667988915252015,0.04556419418266741,0.3719742502830381,0.17870846665216097,0.30667988915252015,0.0,0.0,0.7965502069893818,0.0177729090587589,0.004896430337149727,8,False
2,0.06666666666666667,0.2600000000000001,0.01121907252055644,-0.0018158005134900255,0.7815102652057682,-0.00015190384027169977,0.03184180542554279,0.03838140827076347,0.3096696552289076,0.05277906986414061,0.39775495102592595,0.198709739621055,0.3096696552289076,0.0,0.0,0.7965481398100311,0.018631573306160422,0.006202829351048007,8,False
3,0.1,0.28000000000000014,0.012432006714725021,-0.002062687611891826,0.7813517676955832,-0.0001677681328968586,0.03322630899549288,0.03864904882498311,0.3125247300993592,0.05871918589521931,0.4191559769036788,0.21407050612785022,0.3125247300993592,0.0,0.0,0.7965468343488358,0.019518156385103763,0.007447465789108298,8,False
4,0.13333333333333333,0.30000000000000016,0.013616033526289862,-0.0023108643875423877,0.7812091415473713,-0.0002530804606033601,0.03483467957164051,0.03892556409571402,0.31485530543803025,0.0625268306499151,0.43591913708298047,0.21572357318144927,0.31485530543803025,0.0,0.0,0.7965483779631107,0.02041660705195247,0.008105834198023944,8,False
5,0.16666666666666666,0.3200000000000002,0.014764205551886532,-0.0025586401215057174,0.7810761110249089,-0.0003563454038460702,0.036631280542012395,0.039196674791018585,0.31716773601299075,0.06541415168258972,0.44897259281078106,0.21279027275195095,0.31716773601299075,0.0,0.0,0.7965493338941732,0.021316586989903335,0.008456588165616404,8,False
6,0.2,0.3400000000000002,0.015869810098145865,-0.002800649994608117,0.7809519912465934,-0.00046250726642977757,0.03857621014357216,0.03945400076595593,0.3193585769640333,0.06744938639273466,0.4586183798009522,0.20530640951462092,0.3193585769640333,0.0,0.0,0.7965496108101843,0.022207987233593733,0.008521500010363217,8,False
7,0.23333333333333334,0.3600000000000002,0.01692752105875377,-0.0030318107792295986,0.7808371253037786,-0.0005664692400111832,0.040633659915966264,0.03969118410722186,0.3213747802261507,0.06876370639862614,0.4651842840404441,0.19512790712244582,0.3213747802261507,0.0,0.0,0.7965492332698507,0.02308055788940264,0.008352143341320294,8,False
8,0.26666666666666666,0.3800000000000002,0.017933384244026,-0.003248565611779785,0.780731809556887,-0.0006657606105860365,0.04276706653295194,0.03990566901624778,0.3232149857395848,0.0695164727055412,0.46909963252277076,0.1830172974295467,0.3232149857395848,0.0,0.0,0.7965482656568089,0.023925779657885327,0.007984609732119861,8,False
9,0.3,0.40000000000000024,0.0188845899289766,-0.003448859831620447,0.7806358063856915,-0.000757652867191813,0.04494097404343213,0.04009614493801837,0.32485938085729904,0.06974981438860617,0.47074717046189174,0.16921873252479833,0.32485938085729904,0.0,0.0,0.7965466437201723,0.024737032281125206,0.007459273351079064,8,False
10,0.3333333333333333,0.42000000000000026,0.01978009929484004,-0.0036317762703976246,0.7805487770293581,-0.0008421012289409664,0.047138152766787775,0.04026072287410055,0.32641337683438515,0.06973162023238584,0.470353364503836,0.1605589680229655,0.32641337683438515,0.0,0.0,0.7965454394142983,0.025510573002235557,0.006971524579065941,8,False
11,0.36666666666666664,0.4400000000000003,0.020619309898544,-0.0037974256272602833,0.7804703078618536,-0.0009193053447602663,0.049342469333824475,0.040399422867861016,0.32787824845175095,0.06949669336373958,0.4682740715452234,0.16183223084141016,0.32787824845175095,0.0,0.0,0.7965446110557607,0.02624315186810451,0.006590215683110461,8,False
12,0.4,0.4600000000000003,0.021402022487701015,-0.003946545258320197,0.7803999492631928,-0.0009889281729419201,0.051537831143330465,0.040513389336867524,0.3292400903182136,0.06905829708459887,0.46486363801451813,0.1626686072199718,0.3292400903182136,0.0,0.0,0.796544215461459,0.02693251372147858,0.006380688827703907,8,False
13,0.43333333333333335,0.4800000000000003,0.022128476763856778,-0.0040800775825692226,0.7803374084189852,-0.0010502432718719657,0.053705880542571756,0.040599853397843506,0.3304310565329867,0.06841606858866886,0.4602614684745272,0.16154013499940884,0.3304310565329867,0.0,0.0,0.7965443065277983,0.02757711983041071,0.006413894033557804,8,False
14,0.4666666666666667,0.5000000000000003,0.022799960426267037,-0.004198958496808818,0.7802822259697566,-0.00110404304267507,0.055842858260934505,0.04066209338571517,0.33157264229538763,0.06772930286140556,0.4548713442992838,0.159617384134938,0.33157264229538763,0.0,0.0,0.7965445643278432,0.028176374412082993,0.006752084235744896,8,False
15,0.5,0.5200000000000004,0.023418040930654496,-0.004304218230639056,0.7802339209497625,-0.0011510186204613732,0.057944552999601585,0.04070367179268877,0.3326636367719158,0.0670131391245863,0.4489758970551663,0.157155907212136,0.3326636367719158,0.0,0.0,0.796544999481575,0.028730544951150096,0.00735581079639323,8,False
16,0.5333333333333333,0.5400000000000004,0.02398479585227697,-0.004393333382082203,0.7801921354387974,-0.001190468187635695,0.059994468810262484,0.0407131695215723,0.33321507285182345,0.06621465756682059,0.43966282421759173,0.15084764976189352,0.33321507285182345,0.0,0.0,0.7965461358195689,0.02924034600172561,0.008197065419286222,8,False
17,0.5666666666666667,0.5600000000000004,0.02450349508413647,-0.004464794753089316,0.7801563486361848,-0.0012231355233871233,0.061992342062973896,0.04069549446068774,0.33372420637782735,0.06551725966510413,0.4307088826529326,0.14664088522070007,0.33372420637782735,0.0,0.0,0.7965470865733905,0.02970682451347833,0.009205453289446835,8,False
18,0.6,0.5800000000000004,0.024977209553348725,-0.004520272834904668,0.7801258474027946,-0.0012487512267603744,0.06393747357966294,0.04065677559870897,0.3342286469595431,0.0648637624964452,0.42269631465218804,0.1440653146978467,0.3342286469595431,0.0,0.0,0.7965477195242731,0.03013226166453578,0.010323563014203464,8,False
19,0.6333333333333333,0.6000000000000004,0.02540831168280209,-0.004564794046208308,0.7800997481437045,-0.00126526467810899,0.06582027429388079,0.040598368099981845,0.3347379651417225,0.06435657997096284,0.41691017659986773,0.1409757748968588,0.3347379651417225,0.0,0.0,0.7965474067658252,0.030518908174551232,0.011548144312327034,8,False
20,0.6666666666666666,0.6200000000000004,0.02579969584020161,-0.004603419323732118,0.7800772188936574,-0.0012721814449776383,0.06764018314019979,0.040524881917717866,0.3353140687625774,0.06415591375037343,0.41198934637918994,0.1377796051408271,0.3353140687625774,0.0,0.0,0.7965463580426766,0.03086998675362942,0.012825963217226831,8,False
21,0.7,0.6400000000000005,0.02615428964010545,-0.004639951196737593,0.7800575574899378,-0.001269560953439791,0.06939575403716215,0.04043908622382005,0.33582465945957574,0.0640022194161253,0.407885728394209,0.1345459243530663,0.33582465945957574,0.0,0.0,0.7965443800711685,0.031188427394389685,0.014141534195055885,8,False
22,0.7333333333333333,0.6600000000000005,0.026475195509867516,-0.004677020214200043,0.7800401539341091,-0.0012577132917028317,0.07108768190269775,0.040344489856327465,0.3366223035154932,0.0639526422236849,0.4045416392312533,0.1313381323539386,0.3366223035154932,0.0,0.0,0.7965416852509258,0.03147735055289236,0.015472464088142311,8,False
23,0.7666666666666667,0.6800000000000005,0.026765463863418056,-0.004716200574327031,0.7800245450046237,-0.001237746503645754,0.0727146217280581,0.04024149603255251,0.33740685656984326,0.06398845616936556,0.40172306433282645,0.12828492314251974,0.33740685656984326,0.0,0.0,0.7965382684047079,0.03173958578451512,0.01682599651052173,8,False
24,0.8,0.7000000000000005,0.02702798127897233,-0.004758451692012304,0.7800103160357682,-0.00121101668903461,0.07427275298641699,0.040127787959378,0.33808746205072204,0.0640623238001704,0.3993703464187317,0.12548350248363882,0.33808746205072204,0.0,0.0,0.7965338773079598,0.03197763556366432,0.01821221807259752,8,False
25,0.8333333333333334,0.7200000000000005,0.0272659689651427,-0.004804104159345648,0.7799971123312592,-0.0011791633701985539,0.07576547804729265,0.04000708848136231,0.33871405394081955,0.06416870563946597,0.3974695600103131,0.12278633272183553,0.33871405394081955,0.0,0.0,0.7965293802768988,0.03219471121996151,0.019586457204754885,8,False
26,0.8666666666666667,0.7400000000000005,0.02748249957976099,-0.004853021449955777,0.7799846495589475,-0.0011435019542442417,0.07719582472690703,0.039881877369713215,0.3392874370676692,0.06430628444704173,0.39598882388589884,0.12076317439796372,0.3392874370676692,0.0,0.0,0.7965247636382988,0.03239344813153,0.020946025053009274,8,False
27,0.9,0.7600000000000006,0.027680357487781693,-0.004904944002377157,0.7799726844892322,-0.001105487429836682,0.07856494580002829,0.039752721816775534,0.33978648895588615,0.06446755831960024,0.39486972010161825,0.11904505720705051,0.33978648895588615,0.0,0.0,0.7965199769472492,0.03257622853278005,0.02230124487178602,8,False
28,0.9333333333333333,0.7800000000000006,0.027862052633264363,-0.004959783496171841,0.7799609548539279,-0.0010667817230275785,0.07987344634648626,0.03962173063628958,0.34019600417054846,0.06469088861801897,0.3941504383618901,0.11782431305531231,0.34019600417054846,0.0,0.0,0.7965144946474275,0.032745011031646155,0.023652257285198947,8,False
29,0.9666666666666667,0.8000000000000006,0.028030118759265667,-0.005017323475706069,0.7799492500259403,-0.0010278925067413141,0.08112624333727415,0.039491679549657266,0.3405742518114287,0.06499223976036154,0.3937625637136144,0.11744076785133074,0.3405742518114287,0.0,0.0,0.7965087694155347,0.03290221756476727,0.024971089668858075,8,False
30,1.0,0.8200000000000006,0.028186830443794702,-0.005077184588916368,0.7799374242367051,-0.00098919988218656,0.08232755589187012,0.03936461105597853,0.3409205497025147,0.06537194349961153,0.39365694475182345,0.11702574126403574,0.3409205497025147,0.0,0.0,0.7965027959415801,0.03304981850429632,0.026260907553227093,8,False
31,1.0333333333333334,0.8400000000000006,0.02833370989577678,-0.005139389285858814,0.7799252885333562,-0.0009516405011116827,0.08347698296134026,0.03924085526672258,0.3411740238574305,0.06571675769362098,0.3939568518616774,0.11640779292112552,0.3411740238574305,0.0,0.0,0.7964971649620209,0.03318961798240735,0.02754974857214891,8,False
32,1.0666666666666667,0.8600000000000007,0.028472252905870004,-0.005203751597452454,0.7799128603264214,-0.0009148814736739244,0.084581115796926,0.03912373561711191,0.34138847985624604,0.06608310072575387,0.394483485999775,0.11570087797268797,0.34138847985624604,0.0,0.0,0.7964919279837661,0.03332291230836552,0.028782061327229262,8,False
33,1.1,0.8800000000000007,0.028603535248160426,-0.0052695914847193616,0.7799003300108821,-0.0008778985962018376,0.08564777460599074,0.03901744519046445,0.3415589757249463,0.06622468166410816,0.3951873987856871,0.1121658981990893,0.3415589757249463,0.0,0.0,0.7964872995304371,0.03345064174798275,0.02994097753700666,8,False
34,1.1333333333333333,0.9000000000000007,0.028727594694139578,-0.00533592997842224,0.7798882643822467,-0.0008384836582257469,0.08668766424772197,0.038930170068322785,0.3416125574680977,0.06571141222146008,0.39614231524826926,0.10181162603765857,0.3416125574680977,0.0,0.0,0.7964842221253698,0.03357318509179083,0.030973192090437564,8,False
35,1.1666666666666667,0.9200000000000007,0.028844199170616536,-0.005402212141518583,0.779876267124142,-0.0007978634062123847,0.08769845195083793,0.03885531044073925,0.3417258487347219,0.06553744985745537,0.3971478331079845,0.09494170163174386,0.3417258487347219,0.0,0.0,0.7964795948667888,0.033688632963457525,0.03204797684548294,8,False
36,1.2,0.9400000000000007,0.0289542658134919,-0.005468995607713042,0.7798635168117735,-0.0007599648303720726,0.08866977351543748,0.03877982038525137,0.34258353209921383,0.0660452123587795,0.39818062173400803,0.0953319519044242,0.34258353209921383,0.0,0.0,0.7964715247430355,0.03379692718124463,0.033248289147354254,8,False
37,1.2333333333333334,0.9600000000000007,0.029060176077088544,-0.005537297635027188,0.7798495761845098,-0.0007272697764188468,0.08959734970177773,0.038697173162721504,0.34377106552813236,0.0669262725871809,0.39919772066982895,0.0996291170207189,0.34377106552813236,0.0,0.0,0.7964611978732663,0.03390087937669622,0.0345100957617915,8,False
38,1.2666666666666666,0.9800000000000008,0.02916507768897148,-0.005607759368792952,0.7798346027062508,-0.0006985557756568168,0.09049256068355029,0.03861539283411462,0.3450414961970212,0.06786434608445126,0.4000866003256962,0.10454270049910833,0.3450414961970212,0.0,0.0,0.796451357664138,0.03400461855065651,0.03568721619248859,8,False
39,1.3,1.0000000000000007,0.02927159209884569,-0.005680389182654593,0.779819021168534,-0.0006704080161016285,0.0913749469831474,0.03854930778504141,0.346328717252641,0.06885715189331751,0.400763929279198,0.109658467709801,0.346328717252641,0.0,0.0,0.7964433666592451,0.03411106604147265,0.03670604003775997,8,False
40,1.3333333333333333,1.0200000000000002,0.0293804081303692,-0.00575451654591419,0.7798029399725848,-0.000641969607428004,0.09224652484308517,0.03849608257035041,0.3475980294277413,0.06982592174915936,0.4013472282436552,0.11408785746107952,0.3475980294277413,0.0,0.0,0.7964360614396416,0.03422038409938516,0.03771292019863458,8,False
41,1.3666666666666667,1.0399999999999998,0.029491869910635495,-0.005829369009796287,0.779786356428467,-0.0006135527298921947,0.09310905285729056,0.03845402693181275,0.3488497262185892,0.07073753212510099,0.4018259636740893,0.11794411876684961,0.3488497262185892,0.0,0.0,0.7964294056318916,0.034332782211230796,0.03870959488352467,8,False
42,1.4,1.0599999999999994,0.029606239548641413,-0.005904343931122335,0.779769423666293,-0.0005853041115346816,0.09396417381416144,0.038421819884485654,0.35007187098050985,0.07160973493291165,0.4022175321890351,0.12141010932610148,0.35007187098050985,0.0,0.0,0.7964238277522386,0.03444854002496527,0.03969609307580194,8,False
43,1.4333333333333333,1.079999999999999,0.02972357445804693,-0.005979057208182894,0.7797524346274552,-0.0005576061279239783,0.09481258629921416,0.03839100183901091,0.3512172813690148,0.0724397770895989,0.4024914460750668,0.12431202111157329,0.3512172813690148,0.0,0.0,0.7964199846465232,0.03456786933860358,0.04067849469882292,8,False
44,1.4666666666666666,1.0999999999999985,0.029843744921191954,-0.0060530795492672864,0.7797355092313111,-0.0005309936874552468,0.09565513953129016,0.038358818994831644,0.3523305075497528,0.07322137454202231,0.4026309313551868,0.12699634614616162,0.3523305075497528,0.0,0.0,0.7964168691422733,0.034690046016543186,0.04165624211524917,8,False
45,1.5,1.119999999999998,0.02996663783554399,-0.006125863491771134,0.7797187350952867,-0.0005057500955740001,0.09649242630576396,0.03832245842410433,0.35341091514692724,0.07396199867220023,0.4026408044138603,0.12956334507730646,0.35341091514692724,0.0,0.0,0.7964144955764635,0.034814829785027646,0.04262980477255948,8,False
46,1.5333333333333334,1.1399999999999977,0.030092074457656104,-0.006197096185425994,0.7797024642964214,-0.00048215304794002367,0.09732591834654579,0.03826677586302698,0.3543560796955304,0.07462390271891674,0.40229503543438927,0.13136458520789965,0.3543560796955304,0.0,0.0,0.7964140176773071,0.034942448127335456,0.04358795315973818,8,False
47,1.5666666666666667,1.1599999999999973,0.030219671002003932,-0.006266436038117322,0.7796867776284818,-0.0004607215055807408,0.09815650148550137,0.03819061330043484,0.3552538718321643,0.07523372413337491,0.40172473124646646,0.13280123418129292,0.3552538718321643,0.0,0.0,0.7964139368326999,0.03507173468498644,0.044538914363426836,8,False
48,1.6,1.1799999999999968,0.03034913417956876,-0.006333285337585164,0.7796716018985584,-0.00044147537280774977,0.09898462689548196,0.03809509304705065,0.35611946215341267,0.07582772818184201,0.4009295613241086,0.13385603752057906,0.35611946215341267,0.0,0.0,0.7964136599166887,0.035202042423927084,0.04548408266485901,8,False
49,1.6333333333333333,1.1999999999999964,0.030480270226860517,-0.006397073697274886,0.7796568887930251,-0.00042430143508664713,0.09981094402245827,0.037978678260969415,0.35691364088627364,0.07631954016443615,0.39977754029149515,0.1346213644436879,0.35691364088627364,0.0,0.0,0.7964129791758905,0.035333008708658964,0.04642037772387062,8,False
50,1.6666666666666667,1.219999999999996,0.030612947965264852,-0.006457298832737625,0.7796424793261163,-0.00040886074031459173,0.10063529440018462,0.037843758257535394,0.3576766093891386,0.07674421834462378,0.39842177446233595,0.1358603709725598,0.3576766093891386,0.0,0.0,0.7964117362398347,0.03546438676570523,0.04735626317626756,8,False
51,1.7,1.2399999999999956,0.030747018241442436,-0.006513528156047878,0.7796280503043491,-0.00039426051577624675,0.10145656813046627,0.03769462820614399,0.35840932543525894,0.07707336981048467,0.39684798247169106,0.1367248978390855,0.35840932543525894,0.0,0.0,0.7964093231145948,0.03559581362094841,0.04829885426636217,8,False
52,1.7333333333333334,1.2599999999999951,0.030882596709748036,-0.006565447845172637,0.779613385619675,-0.0003798980711831374,0.10227435987995036,0.03753382191815296,0.3591258647136685,0.07736709971884083,0.3992453132477495,0.13761107991416627,0.3591258647136685,0.0,0.0,0.796406329872879,0.035727653929405426,0.049243137540301914,8,False
53,1.7666666666666666,1.2799999999999947,0.031019829090052884,-0.006612967357705622,0.7795982314834474,-0.00036527718323693404,0.10308899851838492,0.03736592897854067,0.3598312526162681,0.07762014057430433,0.4076244564670345,0.13810219108427277,0.3598312526162681,0.0,0.0,0.7964023156527156,0.035859915008084366,0.050185072120033224,8,False
54,1.8,1.2999999999999943,0.031158517801092443,-0.0066562588071156035,0.7795820790436829,-0.0003494580938691477,0.10390086932021524,0.037200043512511556,0.3605189855725389,0.07776825451124432,0.41593380632959664,0.1378548483267904,0.3605189855725389,0.0,0.0,0.7963959465844594,0.03599211492616302,0.05112277800372057,8,False
55,1.8333333333333333,1.3199999999999938,0.03129873807217664,-0.006695660245777783,0.7795648458989848,-0.00033185473871009355,0.10471130255438232,0.03703958421871051,0.3611986248625721,0.0779271819823342,0.424194554799903,0.13732350250896727,0.3611986248625721,0.0,0.0,0.7963892775017328,0.03612534051583602,0.0520457095547201,8,False
56,1.8666666666666667,1.3399999999999934,0.03144057438477356,-0.0067316656050771416,0.7795465498411356,-0.0003121485297564352,0.10552194262601433,0.03688778974255596,0.36187030869997366,0.07809708530806313,0.43241060221268013,0.13655497239864373,0.36187030869997366,0.0,0.0,0.7963823037582941,0.03625975159110006,0.05295612740537812,8,False
57,1.9,1.359999999999993,0.03158388496553285,-0.0067648950806924535,0.7795271010296875,-0.0002895824543104456,0.10633549771889604,0.03675199795254797,0.36252600510394606,0.07824219623910787,0.4405737942579949,0.1353063176091385,0.36252600510394606,0.0,0.0,0.7963747083477029,0.036395277686582884,0.05384329989219302,8,False
58,1.9333333333333333,1.3799999999999926,0.03172853031261435,-0.0067959973554628655,0.7795067166977309,-0.00026260490298198535,0.10715503253485954,0.03664301788616752,0.3631661970988883,0.07838023148826115,0.448688791494357,0.1335842458472854,0.3631661970988883,0.0,0.0,0.7963683212254785,0.03653268064309165,0.05469765614510065,8,False
59,1.9666666666666666,1.3999999999999921,0.03187429364800742,-0.006825513056257096,0.7794855798568252,-0.00023062342128856437,0.10798191672380482,0.03656312297343122,0.3637986019643969,0.07853971192051215,0.4567666699726537,0.13175881573277745,0.3637986019643969,0.0,0.0,0.7963625456814245,0.036671513016685066,0.05554228192068055,8,False
60,2.0,1.4199999999999917,0.03202092662366266,-0.006853937355441633,0.7794638191951694,-0.00019340995989506842,0.10881719551292571,0.036514798843433456,0.3644230800099535,0.07871664267548849,0.46480967880362495,0.12984435193238716,0.3644230800099535,0.0,0.0,0.7963574029555034,0.03681160413990314,0.05637830079273681,8,False
61,2.033333333333333,1.4399999999999913,0.032168367792533084,-0.006881505513692761,0.7794420655284281,-0.000149404172791909,0.10966387119859956,0.036507752980818015,0.3650357420598089,0.07886830817574066,0.472813771336937,0.12735022535675833,0.3650357420598089,0.0,0.0,0.7963551252350244,0.03695370804198391,0.057180363668106866,8,False
62,2.066666666666667,1.4599999999999909,0.03231640983400771,-0.006908232230737333,0.7794206459434407,-9.831656204506657e-05,0.11052311967154216,0.03654100544362847,0.3656433991717057,0.07903587549055036,0.4807870717932151,0.12488963004369615,0.3656433991717057,0.0,0.0,0.7963542368735927,0.03709681079547036,0.05797863326144953,8,False
63,2.1,1.4799999999999904,0.03246473950249442,-0.006934108345451362,0.779399705047681,-4.098056689416509e-05,0.11139446390403612,0.03660959949696307,0.36624875044592214,0.07922708909986503,0.4887360553767429,0.12255498926891903,0.36624875044592214,0.0,0.0,0.7963545137896039,0.03724046830889815,0.058782625436688156,8,False
64,2.1333333333333333,1.49999999999999,0.032613140649785,-0.006959012329163874,0.7793795814495762,2.2025709886887368e-05,0.11227791652331338,0.036710490708712615,0.36684982866682814,0.07942084591575262,0.4966611014776169,0.12001786268355964,0.36684982866682814,0.0,0.0,0.7963568929309038,0.03738474741202473,0.05958262322100244,8,False
65,2.1666666666666665,1.5199999999999896,0.032761383987782056,-0.006982783220136618,0.7793604452736954,8.99460733777679e-05,0.11317323419157758,0.036838959322016515,0.3674457922256569,0.07963305880598195,0.5045619148595073,0.11745052393386454,0.3674457922256569,0.0,0.0,0.7963604234109212,0.0375288880839677,0.060385272933409985,8,False
66,2.2,1.5399999999999892,0.03290921181111613,-0.007005159743253961,0.7793424051332297,0.00016165681872191227,0.11408023432584784,0.03698763500889434,0.3680289337785882,0.07984618773541835,0.512440580935766,0.11466243110684976,0.3680289337785882,0.0,0.0,0.7963651705425406,0.037672605137991366,0.061185273498045194,8,False
67,2.2333333333333334,1.5599999999999887,0.03305637320669568,-0.007026020498404714,0.7793254694125297,0.0002362021019306893,0.11499791314224811,0.03715242148930269,0.36860634888857124,0.08007412959033137,0.5202905905346098,0.11207193371897567,0.36860634888857124,0.0,0.0,0.7963705031006267,0.037815338042253975,0.061990172111795784,8,False
68,2.2666666666666666,1.5799999999999883,0.03320266938306001,-0.007045344849729584,0.779309610713933,0.000312784824374899,0.11592486462872655,0.037329661153473546,0.369174273421124,0.080306555977078,0.5281114288603256,0.10957439689747678,0.369174273421124,0.0,0.0,0.7963762376250031,0.03795681967721599,0.06280093205644162,8,False
69,2.3,1.5999999999999879,0.03334796445333058,-0.007062913882922826,0.7792948468589165,0.0003901943186615451,0.11685967494128684,0.037513765730154316,0.3697134736975717,0.0805149528640579,0.5359110186568372,0.10658091900350597,0.3697134736975717,0.0,0.0,0.7963826066932593,0.03809699116599915,0.06361399786801265,8,False
70,2.3333333333333335,1.6199999999999875,0.033492221738472036,-0.007078740202161626,0.7792811081985757,0.00046757861048713894,0.11779970511712248,0.037703756048820404,0.3702442162881837,0.08073485686500728,0.5436734607051904,0.10413956626280774,0.3702442162881837,0.0,0.0,0.7963888937221604,0.03823548042290372,0.06444213867167477,8,False
71,2.3666666666666667,1.639999999999987,0.03363550567634501,-0.007093025332035398,0.7792683006595625,0.000544461035093024,0.11874247385637912,0.03789862791902621,0.37076666496354205,0.08096068569372428,0.5513947086608081,0.10191846322856712,0.37076666496354205,0.0,0.0,0.7963950930034663,0.038372397849328055,0.06528255492983898,8,False
72,2.4,1.6599999999999866,0.03377794040507646,-0.007105937250531999,0.7792564007405235,0.0006199664914675221,0.11968407015038435,0.0380970380428493,0.3712691580532675,0.08116520108016198,0.5590794332973432,0.09949886087808271,0.3712691580532675,0.0,0.0,0.7964010664774208,0.038507824721274855,0.06614377979999161,8,False
73,2.433333333333333,1.6799999999999862,0.033990127746239364,-0.007111608980415352,0.7792362461543328,0.0006834896521221351,0.12143891677301863,0.03832354486133323,0.37175860652332005,0.08138920069278739,0.5652461251544787,0.09908384475322315,0.37175860652332005,0.0,0.0,0.7964061550414376,0.038662286027473854,0.06733214095655779,8,False
74,2.466666666666667,1.6999999999999857,0.03454642405538901,-0.007089451032437162,0.7791890373346977,0.000737752006156163,0.12464342752458697,0.038601060516826574,0.37224020729442664,0.08169181131052454,0.5661591932382294,0.09745236151639351,0.37224020729442664,0.0,0.0,0.796410701189912,0.03909682670279675,0.07047002337488298,8,False
75,2.5,1.7199999999999853,0.035276428516549815,-0.007052832628018996,0.7791173572118181,0.0008244288808497443,0.12684754577511012,0.038873401056376475,0.37271382523991414,0.08192342198761526,0.5653676273657962,0.09353846353703255,0.37271382523991414,0.0,0.0,0.7964146571329282,0.03974518246488702,0.07292890236638327,8,False
76,2.533333333333333,1.739999999999985,0.0360034466343146,-0.007016272224886326,0.7790379325186015,0.000930184209118005,0.12812364843385976,0.039127387903353905,0.3731754634791991,0.0820133718855932,0.5645788423622947,0.0863240070740365,0.3731754634791991,0.0,0.0,0.7964151960969768,0.040425609832028545,0.07438701530763726,8,False
77,2.566666666666667,1.7599999999999845,0.03665819144495293,-0.0069874326993679525,0.7789655286834688,0.0010379569445642543,0.12895992659124839,0.0393676857549096,0.37363050866904396,0.08199964926607543,0.564117092970395,0.08038721983943785,0.37363050866904396,0.0,0.0,0.7964137597445125,0.041051183174965304,0.07531970622318476,8,False
78,2.6,1.779999999999984,0.037226268881644,-0.006968522584845468,0.7789029520881522,0.0011394232015259024,0.12962556235283942,0.0395990308166114,0.3740826556485533,0.0819158989181332,0.5638991216090619,0.0744019674575614,0.3740826556485533,0.0,0.0,0.7964109905844011,0.04159895491516982,0.07604557841106042,8,False
79,2.6333333333333333,1.7999999999999836,0.03771117595957082,-0.00695901462248951,0.7788483313970539,0.001231736403259254,0.13020787807854067,0.039821508242184965,0.3745303102875887,0.08177103523528442,0.5638028007256317,0.06918638295031981,0.3745303102875887,0.0,0.0,0.7964061353944724,0.04206944590464813,0.07668908602215646,8,False
80,2.6666666666666665,1.8199999999999832,0.03812002034110183,-0.006957471584519215,0.7788000713505215,0.0013147492610008115,0.13071953959707905,0.040034569383010296,0.37497444724551515,0.08159343057603731,0.5637539404362913,0.06545890833867256,0.37497444724551515,0.0,0.0,0.7964000077980399,0.04246916774147666,0.0772687713506504,8,False
81,2.7,1.8399999999999828,0.038459165633407975,-0.006962341876865334,0.7787575166529002,0.0013888730876633543,0.13115528142041213,0.04023630138832525,0.3754120051078902,0.0813959617445963,0.5637091982063509,0.06265025762942943,0.3754120051078902,0.0,0.0,0.7963929662194709,0.042803991604924305,0.07777752279249234,8,False
82,2.7333333333333334,1.8599999999999823,0.038733489037215844,-0.006972314862956202,0.7787203933041661,0.0014548976737345219,0.1315116172595739,0.04042665189102742,0.3758471141905554,0.08120092106195498,0.5636618933639443,0.06027550273759848,0.3758471141905554,0.0,0.0,0.7963855967489808,0.043078500414635026,0.07820839099180502,8,False
83,2.7666666666666666,1.879999999999982,0.03894686069536469,-0.006986350006950163,0.7786886384403834,0.0015133427825570194,0.131790043752958,0.0406059051841122,0.3762779088162882,0.08101278650444674,0.5636089096085989,0.05818011928631594,0.3762779088162882,0.0,0.0,0.7963784550770885,0.04329624450549782,0.07855908052142331,8,False
84,2.8,1.8999999999999815,0.039103026985100035,-0.007003780875315913,0.778662687712418,0.001563416714665113,0.1319967341067168,0.04077514277470106,0.3766892949184583,0.08081662558212561,0.5635458602378927,0.055966387816009835,0.3766892949184583,0.0,0.0,0.7963740639803404,0.0434612155651933,0.07882231553111327,8,False
85,2.8333333333333335,1.919999999999981,0.03920539351199393,-0.007024271104430659,0.778642498861881,0.001605262850666781,0.1321381366380441,0.040934528728356186,0.37709507206894755,0.08063583440246364,0.5634838568466494,0.05418547246461674,0.37709507206894755,0.0,0.0,0.7963705123931103,0.0435755955005157,0.07901321164185715,8,False
86,2.8666666666666667,1.9399999999999806,0.03925742756794972,-0.007047611528139877,0.7786278852233685,0.0016391452925299298,0.1322210787047291,0.04108440295267991,0.3774953618015965,0.08047069193467786,0.5634242562400484,0.0528005895179213,0.3774953618015965,0.0,0.0,0.7963677776151882,0.043642437166878933,0.07913861887673017,8,False
87,2.9,1.9599999999999802,0.03926304680832914,-0.007073733451305642,0.7786189225687212,0.0016646179150299413,0.13225307083366505,0.04122432147745926,0.3778797965073353,0.08030662493952005,0.5633694604956994,0.051520374436924525,0.3778797965073353,0.0,0.0,0.7963673820208866,0.043665751778127766,0.07919683619097426,8,False
88,2.933333333333333,1.9799999999999798,0.0392261791303938,-0.007102705441938431,0.7786153387931418,0.0016816136615215964,0.1322398318062476,0.0413524716866381,0.37825388811607646,0.08015108240691396,0.5633282901327585,0.050515818099893535,0.37825388811607646,0.0,0.0,0.796368097807623,0.04364868491019393,0.07920325430239428,8,False
89,2.966666666666667,1.9999999999999793,0.03915077346687416,-0.007134641775730917,0.7786167069645478,0.001690364953450471,0.132186386521109,0.04146825611813979,0.37862050565065936,0.08000824476131552,0.5632972409797788,0.049834833036363255,0.37862050565065936,0.0,0.0,0.7963696248281772,0.04359487025031886,0.07916426545457489,8,False
90,3.0,2.019999999999979,0.03904085421640567,-0.007169643561145,0.7786226142462577,0.0016911651836677096,0.13209748818543152,0.04157108365550565,0.3789795285805908,0.07989850542633184,0.5632761786899738,0.04968775929034242,0.3789795285805908,0.0,0.0,0.7963720379534172,0.043508177998132606,0.07908466495376118,8,False
91,3.033333333333333,2.0399999999999787,0.03890041391043844,-0.00720776998093262,0.7786325824235212,0.0016838854946643175,0.1319770372056065,0.04165664619001527,0.3793157609489318,0.07981285344200598,0.5632800964171614,0.049445864704266686,0.3793157609489318,0.0,0.0,0.7963746637437816,0.043392188258649704,0.0789762239345455,8,False
92,3.066666666666667,2.0599999999999783,0.038733340228707516,-0.0072490769028717705,0.7786460914917236,0.001668556218857479,0.13182847405062434,0.04172301149953303,0.3796348177730836,0.07973267354107136,0.563301983973422,0.04911426096474397,0.3796348177730836,0.0,0.0,0.7963773863087252,0.04325065533230129,0.07884114678638227,8,False
93,3.1,2.079999999999978,0.03854333194185642,-0.007293520876869652,0.7786625695906104,0.0016454269459394467,0.13165501231671614,0.04176885684028837,0.379935696312242,0.0796513058033186,0.5633360321703276,0.04874959017100068,0.379935696312242,0.0,0.0,0.7963796411962445,0.04308700249369912,0.07868088941227268,8,False
94,3.1333333333333333,2.0999999999999774,0.03833392727700253,-0.007340943054981807,0.7786814633789637,0.001614593610632231,0.13145966350310598,0.04179186083943047,0.3802132355509156,0.07956453100420856,0.5633857275959688,0.04831669381450957,0.3802132355509156,0.0,0.0,0.7963812955238241,0.04290464974074908,0.07849885731567117,8,False
95,3.1666666666666665,2.119999999999977,0.03810852006390174,-0.007391122416158522,0.7787022547518847,0.001576222657920771,0.1312452695528635,0.04179060758493378,0.38047061649978464,0.07948498940000853,0.5634477713530861,0.047999756435873946,0.38047061649978464,0.0,0.0,0.7963823539377055,0.0427069134724207,0.07829883879875606,8,False
96,3.2,2.1399999999999766,0.03787023532850911,-0.007443659058798006,0.7787242854928035,0.0015296719850128573,0.13101351095323624,0.04175741659756233,0.3806858425209651,0.07937630703690196,0.5635242266464506,0.04760941877978127,0.3806858425209651,0.0,0.0,0.7963814045113816,0.042496321591666227,0.07809737112795646,8,False
97,3.2333333333333334,2.159999999999976,0.03762208182765198,-0.007498218134672126,0.7787470916351196,0.0014752157208900935,0.1307662466745977,0.04169368673825021,0.3808880440778352,0.07927224426975335,0.5636052138059608,0.047245076397323345,0.3808880440778352,0.0,0.0,0.7963798683310935,0.04227636950309998,0.07788409917987839,8,False
98,3.2666666666666666,2.1799999999999757,0.03736696069907212,-0.007554433095863716,0.7787702829759857,0.0014134856199750718,0.13050603181032083,0.04160048509096124,0.3810772003180963,0.07917237439644208,0.5636902366428445,0.046956950483554374,0.3810772003180963,0.0,0.0,0.7963776356127852,0.042049771963340254,0.07766282804325993,8,False
99,3.3,2.1999999999999753,0.037107459909078495,-0.007611746121928964,0.7787931016103122,0.0013435996489150615,0.13023270317424285,0.04147380453043484,0.38121879937652364,0.07904193989124264,0.5637835934619836,0.046654185795550425,0.38121879937652364,0.0,0.0,0.7963716621388306,0.04181785604351152,0.07746617910254584,8,False
100,3.3333333333333335,2.219999999999975,0.03684613324408158,-0.007669804121379355,0.7788151863006644,0.001266325012903444,0.12994731792241776,0.0413202668376028,0.38135716213842785,0.0789266781843868,0.5638772174668475,0.04632454294313405,0.38135716213842785,0.0,0.0,0.7963651597898097,0.04158437704725886,0.07726258301275461,8,False
101,3.3666666666666667,2.2399999999999745,0.03658549159185601,-0.007728269497207828,0.77883630426612,0.0011829658145451076,0.1296525463731084,0.04114495123183775,0.3814923662027702,0.07882510610858667,0.563970872483434,0.04596171582639484,0.3814923662027702,0.0,0.0,0.7963581452921928,0.041351649834233555,0.0770544432172013,8,False
102,3.4,2.259999999999974,0.03632781637191362,-0.007786762900778704,0.7788559843042206,0.0010947356176970048,0.12934967840496503,0.040956466820333166,0.38161652841926463,0.07872399490738607,0.5640648786056348,0.04545775721406511,0.38161652841926463,0.0,0.0,0.7963494026581269,0.04112134923590388,0.07686045061743903,8,False
103,3.433333333333333,2.2799999999999736,0.0360752554416305,-0.007844900174075698,0.7788738848929915,0.0010030463922199265,0.1290409602417836,0.04076141288109573,0.38175165485260254,0.07863034592482701,0.5641570214039302,0.04490282587653153,0.38175165485260254,0.0,0.0,0.7963397783001176,0.04089584274390461,0.07666557215607434,8,False
104,3.466666666666667,2.299999999999973,0.0358298933403985,-0.007902305346068823,0.7788897570458566,0.0009091377220678233,0.12872930390560097,0.04056483519759335,0.38189635793442794,0.07854426628974386,0.5642474050388961,0.04431331969659962,0.38189635793442794,0.0,0.0,0.7963293845244664,0.040677067440059125,0.07647219872609073,8,False
105,3.5,2.3199999999999728,0.03559364929833917,-0.007958649488254836,0.7789033610528894,0.0008140510828755387,0.12841730893735176,0.04037129254153078,0.3820507699853584,0.07846436635498477,0.5643359940089395,0.043693511820222186,0.3820507699853584,0.0,0.0,0.7963182287651606,0.04046677793465045,0.07628341086580119,8,False
106,3.533333333333333,2.3399999999999723,0.03536809632063101,-0.008013608357026346,0.7789144333560163,0.0007195346157784841,0.12810834822929063,0.040187023005919066,0.38224183310218957,0.0783865848141613,0.5644145820468429,0.04300922589568211,0.38224183310218957,0.0,0.0,0.7963062340273358,0.04026642480639699,0.07608547583386834,8,False
107,3.566666666666667,2.359999999999972,0.035154669704178514,-0.008066803997250436,0.7789227737980753,0.0006271627319185887,0.12780636799695874,0.04001660481245367,0.3824659618676721,0.07831235545267073,0.5644842225501903,0.04231358657046239,0.3824659618676721,0.0,0.0,0.796293505183307,0.04007732056751839,0.07588373567639717,8,False
108,3.6,2.3799999999999715,0.034954780181627405,-0.008117936126119517,0.7789284403012858,0.0005381420593517754,0.12751529294524763,0.03986173044815572,0.3827146186339773,0.07825804546724745,0.5645462302425266,0.04161559612697575,0.3827146186339773,0.0,0.0,0.7962811626410963,0.039901097117125604,0.07567695924802163,8,False
109,3.6333333333333333,2.399999999999971,0.03476954241838701,-0.00816681010766307,0.7789315185900246,0.0004535147479998461,0.1272382989914083,0.03972437258902834,0.3829892483365288,0.07822127521735114,0.5646001446203917,0.04091971655544921,0.3829892483365288,0.0,0.0,0.7962692289681637,0.03973869194133966,0.07546778742188354,8,False
110,3.6666666666666665,2.4199999999999706,0.03459973907314203,-0.00821328263363107,0.7789320874519837,0.0003741388269663865,0.12697802604739908,0.03960610741871718,0.38328844431303366,0.07819923484201545,0.5646466887014732,0.04019464784016101,0.38328844431303366,0.0,0.0,0.7962577042972591,0.03959074368472117,0.07525977642595212,8,False
111,3.7,2.43999999999997,0.034446028111001115,-0.008257294660402663,0.7789306653359217,0.00030220639883349863,0.12673894912422032,0.039511052271266105,0.3836151630037684,0.07822417336634914,0.5646806138991973,0.03919044654006172,0.3836151630037684,0.0,0.0,0.7962488034254724,0.03945858466140162,0.07502648851398225,8,False
112,3.7333333333333334,2.4599999999999698,0.03430868894614291,-0.008298721121098092,0.7789274602289276,0.00023788136819189972,0.1265235365067531,0.039437623655751965,0.38394888401576227,0.07825737152241521,0.5647119917220558,0.03817603548107007,0.38394888401576227,0.0,0.0,0.7962405795774906,0.03934148209809842,0.07480628229128646,8,False
113,3.7666666666666666,2.4799999999999693,0.03418770074919789,-0.008337536415466112,0.7789225896167273,0.0001808174408825969,0.12633245198500162,0.039384708733876526,0.3842895139847315,0.07829804887167656,0.5647411558766264,0.03727497967541265,0.3842895139847315,0.0,0.0,0.7962330237263295,0.03923935438275294,0.07460007007482868,8,False
114,3.8,2.499999999999969,0.03408299805706381,-0.008373831148543998,0.7789169889117947,0.00013342620616382632,0.12617062769506293,0.039359550339526254,0.38463472288678974,0.078396139092213,0.5647583160589604,0.03613426388407557,0.38463472288678974,0.0,0.0,0.7962306327703005,0.03915381129623309,0.07434557622708493,8,False
115,3.8333333333333335,2.5199999999999685,0.03399394757272774,-0.008407454778041874,0.778910894065233,9.525198249870858e-05,0.12603975219410235,0.03935800606199877,0.38497891144639756,0.07848518454824871,0.5647758421880656,0.03503790068260236,0.38497891144639756,0.0,0.0,0.7962290150816562,0.03908220690772494,0.07411456560943994,8,False
116,3.8666666666666667,2.539999999999968,0.03391974277523235,-0.008438339439063339,0.7789043381716613,6.505428696673984e-05,0.12593928940689048,0.0393768811960767,0.38532202168080343,0.07856476234959289,0.5647944595087795,0.03414360477858815,0.38532202168080343,0.0,0.0,0.7962281843336229,0.03902377678973558,0.0739062240274451,8,False
117,3.9,2.5599999999999676,0.03385963297365507,-0.008466389856076994,0.7788977577388951,4.242689389099709e-05,0.12587020094995524,0.03941321468296958,0.385660964712385,0.07865256578869731,0.5648122081801615,0.03323854632774439,0.385660964712385,0.0,0.0,0.7962305430314589,0.038978740244889586,0.07369416427800055,8,False
118,3.933333333333333,2.579999999999967,0.03381268134820306,-0.008491461726532609,0.7788913186944035,2.6194680574289054e-05,0.1258321481162296,0.03946102481123943,0.38599224094947765,0.07872458251667647,0.5648323392738217,0.032337780030477034,0.38599224094947765,0.0,0.0,0.796233955231435,0.0389451858489917,0.07350342322929955,8,False
119,3.966666666666667,2.599999999999967,0.03377795163220072,-0.008513504174585613,0.7788850773959609,1.5058794121986611e-05,0.12582418291064504,0.03951496424960153,0.38631517263471965,0.07878165315093401,0.5648553136269782,0.03145562344882478,0.38631517263471965,0.0,0.0,0.7962384650064736,0.038922239099294334,0.07333234615429605,8,False
120,4.0,2.6199999999999664,0.03375457959493202,-0.00853253398794528,0.7788791003025762,7.971495200410555e-06,0.12584526164386906,0.03957081396591284,0.3866303732577062,0.07882519330784524,0.5648808610182322,0.030678437651116528,0.3866303732577062,0.0,0.0,0.7962440106279335,0.038909058008584685,0.07318051862969543,8,False
121,4.033333333333333,2.639999999999966,0.03374187849481243,-0.008548601113254957,0.778873406325641,3.572245105256938e-06,0.12589382078416675,0.039620668604146876,0.3869300100509792,0.0788494894004566,0.5649108342609611,0.02986506597554477,0.3869300100509792,0.0,0.0,0.7962497717022631,0.03890460203245615,0.07305973274494244,8,False
122,4.066666666666666,2.6599999999999655,0.033739347025291,-0.008561831562018922,0.7788679681282503,4.827087199092976e-07,0.12596785652131373,0.03965683853644431,0.38721188096600356,0.078855938497447,0.5649457224973516,0.02903705313126417,0.38721188096600356,0.0,0.0,0.7962557451762176,0.03890842334173063,0.0729687924216742,8,False
123,4.1,2.679999999999965,0.033746453469699865,-0.008572430445085853,0.7788626166111245,-1.9366325102321635e-06,0.12606451300602872,0.03967820323728486,0.3874859253639665,0.07884813012822715,0.5649802819839428,0.02876236872806264,0.3874859253639665,0.0,0.0,0.7962611889786072,0.03891984167602966,0.07290960388649173,8,False
124,4.133333333333334,2.6999999999999647,0.03376263701774246,-0.008580617063256647,0.7788571961892522,-4.072596020431037e-06,0.12618092382472856,0.03968353356218259,0.3877522526498435,0.07882808582961272,0.5650143947175993,0.028469450983641856,0.3877522526498435,0.0,0.0,0.7962661461203561,0.0389385096680706,0.07287918960163682,8,False
125,4.166666666666667,2.7199999999999642,0.03378730866321357,-0.008586608088337578,0.7788515808040198,-6.364826481317697e-06,0.12631416800269193,0.039670993888916005,0.38800957203615183,0.07879654709114266,0.5650475162609807,0.028162050968843385,0.38800957203615183,0.0,0.0,0.7962705372171041,0.038963993229854874,0.07287609058541468,8,False
126,4.2,2.739999999999964,0.033819589910087974,-0.008590626460098304,0.7788452802250558,-8.893072728138812e-06,0.12645980908997603,0.039642414779742695,0.38825849775577115,0.07875114682921372,0.5650687346358366,0.027665638035896375,0.38825849775577115,0.0,0.0,0.7962724290340143,0.038994963424417,0.07291145777159716,8,False
127,4.233333333333333,2.7599999999999634,0.033858653829406754,-0.008592875547449282,0.7788381579619104,-1.1647291475976133e-05,0.1266146771649706,0.039599983149354576,0.38850497567728504,0.0787025179504273,0.5650860915443731,0.027216032353670476,0.38850497567728504,0.0,0.0,0.7962735828949773,0.039031629512027044,0.0729639818620833,8,False
128,4.266666666666667,2.779999999999963,0.03390359096884739,-0.008593492655556104,0.7788301958162648,-1.461465970496746e-05,0.1267758879787804,0.03954531231972089,0.3887489465267787,0.07865148983641745,0.5650988017833223,0.02682169019502947,0.3887489465267787,0.0,0.0,0.7962739784892789,0.03907327173574745,0.07303095455520667,8,False
129,4.3,2.7999999999999625,0.03395291102305757,-0.008592569289926678,0.7788206408590697,-1.7654239523377692e-05,0.12693910336454015,0.03948952393259281,0.3889754302210338,0.07857341401390924,0.5650824949336445,0.026137510461983263,0.3889754302210338,0.0,0.0,0.7962699247096854,0.039117357549467956,0.07312154510554199,8,False
130,4.333333333333333,2.819999999999962,0.03400559480111315,-0.008590127013776266,0.778809511474255,-2.0606310170005096e-05,0.1271027116490073,0.03943576015692895,0.3891984807831925,0.07849408085910276,0.5650602049298116,0.025486006068129615,0.3891984807831925,0.0,0.0,0.7962651990835279,0.03916465031477166,0.07321654526796154,8,False
131,4.366666666666666,2.8399999999999617,0.0340607929044536,-0.008586161788067117,0.7787970205705251,-2.3371198080047357e-05,0.12726503156391777,0.03938726882687598,0.3894186545892659,0.07841533234782563,0.565031998918476,0.024969562531140396,0.3894186545892659,0.0,0.0,0.7962600167981766,0.03921442142008437,0.0733136578668905,8,False
132,4.4,2.8599999999999612,0.03411748248494964,-0.0085807193078289,0.7787831208430647,-2.5451356057080166e-05,0.12742378774115437,0.039355816472136526,0.38962969464899283,0.07833364530349245,0.5649900029295487,0.0244347874574655,0.38962969464899283,0.0,0.0,0.7962533848853844,0.03926537599522452,0.07341715148201616,8,False
133,4.433333333333334,2.879999999999961,0.0341748745546807,-0.008573767670718513,0.7787680511881667,-2.650916333821183e-05,0.1275781995029613,0.03934424818672861,0.389836734897628,0.07831358471895276,0.5649431462510366,0.024032198295633713,0.389836734897628,0.0,0.0,0.7962468307639549,0.03931737050545221,0.07351944523233532,8,False
134,4.466666666666667,2.8999999999999604,0.03423234790895893,-0.008565269075110115,0.7787521370048989,-2.635283039066586e-05,0.12772776918996018,0.039356554838169765,0.39003921157094884,0.07828950623364041,0.5648912199889944,0.023751717755679816,0.39003921157094884,0.0,0.0,0.7962405803739891,0.03936979318285109,0.07362013126531933,8,False
135,4.5,2.91999999999996,0.034289309471102876,-0.008555164412403502,0.7787356217412951,-2.489398865201165e-05,0.12787214845449357,0.03939439768288261,0.3902382041640146,0.07826392463822156,0.5648357336703661,0.02354519189435162,0.3902382041640146,0.0,0.0,0.7962345799518322,0.03942197083922574,0.07371842616240669,8,False
136,4.533333333333333,2.9399999999999595,0.034345197817201994,-0.008543422955207786,0.778718737327824,-2.2239794329963227e-05,0.1280114588372493,0.03945748851752027,0.3904331235242104,0.07823685464180133,0.564775586713695,0.023345785995638805,0.3904331235242104,0.0,0.0,0.7962289354317968,0.039473345203447904,0.07381196128850367,8,False
137,4.566666666666666,2.959999999999959,0.034399508394170795,-0.008530077460235416,0.7787017501726853,-1.845440578682447e-05,0.12814602857994187,0.03954686721293805,0.3906224024384154,0.07820641417383296,0.5647087195431184,0.023273238571963263,0.3906224024384154,0.0,0.0,0.7962237927058757,0.03952342161091275,0.07390051669209523,8,False
138,4.6,2.9799999999999587,0.034451642544100554,-0.008515104014780818,0.7786847315702654,-1.3880746481778762e-05,0.12827650542045824,0.03965688368287474,0.39080774175656474,0.07817862967523728,0.5646366634025504,0.023288787416807198,0.39080774175656474,0.0,0.0,0.7962187203373303,0.0395714550872176,0.0739805216232685,8,False
139,4.633333333333334,2.9999999999999583,0.03450106865872101,-0.008498485010524286,0.7786677336296683,-8.973768624008396e-06,0.12840385979762362,0.039783236199197894,0.39098921170728984,0.07815358988616293,0.564559466422961,0.0232585091595318,0.39098921170728984,0.0,0.0,0.7962137626645825,0.03961695310580919,0.07405269777460984,8,False
140,4.666666666666667,3.019999999999958,0.03454732380693489,-0.008480216818649506,0.7786508116509466,-4.0738012185078876e-06,0.1285290244757373,0.03992166869175812,0.3911652281946467,0.0781299470554197,0.5644745495532629,0.023161693236455273,0.3911652281946467,0.0,0.0,0.7962089759735328,0.03965950317781961,0.07411579968903828,8,False
141,4.7,3.0399999999999574,0.03458997932255586,-0.008460278944055986,0.778634100278977,4.773877839130239e-07,0.12865312905638215,0.0400636915454418,0.39133440079272624,0.07810764041229169,0.5643817216420666,0.022968530763094318,0.39133440079272624,0.0,0.0,0.7962049168839487,0.039698922386330236,0.07416559067710167,8,False
142,4.733333333333333,3.059999999999957,0.03462869612579118,-0.008438700517708805,0.7786176934298412,4.446923524560342e-06,0.12877673154384653,0.04020693394777164,0.39150116203966345,0.07808997638283782,0.5642859141557117,0.02275999316116076,0.39150116203966345,0.0,0.0,0.7962010923632004,0.03973462480090375,0.07421048527621123,8,False
143,4.766666666666667,3.0799999999999566,0.03466323510406211,-0.008415530833239048,0.7786016566237247,7.769524626438012e-06,0.12890012485649843,0.04034892446876855,0.3916654602394381,0.0780761913591431,0.5641872446639739,0.022529019242146932,0.3916654602394381,0.0,0.0,0.7961974924550556,0.039766355640199376,0.07425068266576314,8,False
144,4.8,3.099999999999956,0.0346935787079222,-0.008390666561706034,0.7785865108103881,9.866585967779603e-06,0.12902452273866163,0.04047681939646988,0.3918255944751679,0.07806646550818203,0.56408575699744,0.022149985833634235,0.3918255944751679,0.0,0.0,0.7961963148318845,0.03979484742000215,0.07427404647457253,8,False
145,4.833333333333333,3.1199999999999557,0.03471955332526211,-0.008364101429196323,0.7785724174902614,1.0328168778170215e-05,0.12915001721282013,0.040589585602032595,0.3919845647470769,0.07806197895581826,0.563984576168745,0.02173747426439856,0.3919845647470769,0.0,0.0,0.7961957628583589,0.03981905800270917,0.074294677540914,8,False
146,4.866666666666666,3.1399999999999553,0.03474106369770682,-0.008335905583493858,0.7785594126917432,8.93103906189163e-06,0.12927682455262354,0.04068627262652476,0.3921426299493938,0.07806190421259174,0.5638853249796966,0.02129144742737511,0.3921426299493938,0.0,0.0,0.7961956441800685,0.03983877319594857,0.0743147231112282,8,False
147,4.9,3.159999999999955,0.034758281295820564,-0.008306126926146594,0.7785477232838236,4.840195212337246e-06,0.1294054702855063,0.040760652963690344,0.3922983332597267,0.07806623161350355,0.5637894997046187,0.020739492951518244,0.3922983332597267,0.0,0.0,0.7961966338295714,0.039854325312566954,0.07433197565415525,8,False
148,4.933333333333334,3.1799999999999544,0.034771321809274586,-0.008274930784040607,0.778537293530365,-2.3884238094484266e-06,0.1295355675469208,0.04081253550882235,0.39245392432684245,0.07807278782927501,0.5636950737478347,0.020142605596651063,0.39245392432684245,0.0,0.0,0.796197644586287,0.03986537222820717,0.07435236706497168,8,False
149,4.966666666666667,3.199999999999954,0.03478033492558809,-0.008242541041720453,0.7785279309339043,-1.3225475342014146e-05,0.12966664199820693,0.04084109192106897,0.39261010696067367,0.07808030448227185,0.5636020761134835,0.01955156814397582,0.39261010696067367,0.0,0.0,0.7961983170965997,0.0398719881697022,0.07437849962717741,8,False
150,5.0,3.2199999999999536,0.034785614834611754,-0.00820926077761116,0.778519492970445,-2.777105592860713e-05,0.1297983273410662,0.04084698063182859,0.3927666681205912,0.0780880798340065,0.5635098129442445,0.018970820466629436,0.3927666681205912,0.0,0.0,0.796198758224071,0.03987457816786676,0.07440816266649257,8,False
151,5.033333333333333,3.239999999999953,0.03478743235532887,-0.008175481114079704,0.7785117054501081,-4.5642267853630485e-05,0.12992978235583894,0.04083365296723161,0.3929246365961076,0.07809728780708008,0.563414383954914,0.018449984876648586,0.3929246365961076,0.0,0.0,0.796198490335044,0.03987336098463424,0.07444380833155984,8,False
152,5.066666666666666,3.2599999999999527,0.03478598152460951,-0.008141635136851729,0.7785041087311102,-6.64275519585438e-05,0.13005977195546936,0.04080539447919304,0.393085325125766,0.07810892992124996,0.5633123793307222,0.018030939549287917,0.393085325125766,0.0,0.0,0.7961968683984073,0.03986850439767613,0.0744895984272309,8,False
153,5.1,3.2799999999999523,0.034781671185797024,-0.008108182468368964,0.778496542188768,-8.911154967752573e-05,0.13018762486573524,0.0407666491381791,0.39324257383684513,0.07811795399915081,0.5632058586737931,0.017701102093091198,0.39324257383684513,0.0,0.0,0.7961946285116115,0.03986084233160757,0.0745386612842178,8,False
154,5.133333333333334,3.299999999999952,0.03477489657290778,-0.008075549396306168,0.7784888956095987,-0.00011271535001247599,0.13031243420427302,0.04072125006084252,0.39339643908462446,0.07812380792267615,0.5630945281664823,0.0174018148926229,0.39339643908462446,0.0,0.0,0.796191743328205,0.039850861422324795,0.07459017028992351,8,False
155,5.166666666666667,3.3199999999999514,0.03476592207949433,-0.008044144079426429,0.7784809580938012,-0.00013615473353512458,0.13043309668736128,0.04067446416142377,0.3935445764046038,0.07812614973221163,0.56297609970276,0.017114604191327976,0.3935445764046038,0.0,0.0,0.7961877478257585,0.0398387744536428,0.07464697367705932,8,False
156,5.2,3.339999999999951,0.03475504700058102,-0.008014331692554987,0.7784726481159738,-0.00015817505550076702,0.1305491975127184,0.040630607506594994,0.39367331067308586,0.07810770718758209,0.5628496722717776,0.016913885871557472,0.39367331067308586,0.0,0.0,0.7961831124694416,0.03982516335612869,0.07470276461074761,8,False
157,5.233333333333333,3.3599999999999506,0.03474257688623382,-0.007986355289441758,0.7784639445388911,-0.00017823948442807557,0.13066077264151485,0.04059084294217945,0.3937938319990938,0.07808026860916648,0.562719669073744,0.016764147925331537,0.3937938319990938,0.0,0.0,0.7961782182510818,0.03981053275599333,0.07475573852742537,8,False
158,5.266666666666667,3.37999999999995,0.034728794612268736,-0.007960384156886923,0.778454820048473,-0.00019602710929022554,0.13076814270614076,0.04055639301129139,0.3939059782305056,0.0780450123462579,0.5625862624387278,0.016657590864071085,0.3939059782305056,0.0,0.0,0.7961730755251606,0.039795182371162904,0.07480625300020019,8,False
159,5.3,3.3999999999999497,0.034713959886216866,-0.007936617078569316,0.7784453410883221,-0.00021048274571041858,0.13087213177460957,0.04053162683658748,0.39396723076378154,0.07796485255698285,0.562441746882395,0.016634168053478938,0.39396723076378154,0.0,0.0,0.7961685305714342,0.03977974457537807,0.07484407189042015,8,False
160,5.333333333333333,3.4199999999999493,0.03469825108915707,-0.007915132520932016,0.7784355530979222,-0.00022128074700152747,0.13097347366126008,0.040516632856649984,0.3940090467170894,0.0778738171432289,0.5622930653562268,0.016702534243977482,0.3940090467170894,0.0,0.0,0.7961642536394846,0.03976423677508579,0.07487529415156749,8,False
161,5.366666666666666,3.439999999999949,0.03468185979359575,-0.007895923954379916,0.7784255118986876,-0.0002285273225399595,0.13107327764489016,0.04051081093798823,0.3940352403458155,0.0777788556739224,0.5621414464412805,0.016819160287647482,0.3940352403458155,0.0,0.0,0.7961602581370382,0.03974879922438871,0.07490052675817711,8,False
162,5.4,3.4599999999999485,0.034665043104954704,-0.007878956787901042,0.7784153502128006,-0.00023200751517187484,0.13117296599253173,0.040514718278460794,0.394027078387906,0.07766723203626656,0.5619830065658549,0.01698393330292865,0.394027078387906,0.0,0.0,0.796156912179195,0.039733751541750725,0.0749153722892386,8,False
163,5.433333333333334,3.479999999999948,0.03464803917184798,-0.00786413090407436,0.7784051543359565,-0.00023203111506345478,0.1312736711203767,0.04052806064925027,0.39400149532313056,0.07755078918418541,0.5618213062001736,0.017181162145635944,0.39400149532313056,0.0,0.0,0.7961540304472824,0.03971916045263086,0.07492559673116433,8,False
164,5.466666666666667,3.4999999999999476,0.03463112355699179,-0.007851317086601767,0.7783950558183746,-0.0002294024740264334,0.1313765676542978,0.040550924718585984,0.3939552686369811,0.07742330956426553,0.5616557911826763,0.01762899942051129,0.3939552686369811,0.0,0.0,0.7961518942380535,0.039705303738866354,0.07493020912742429,8,False
165,5.5,3.519999999999947,0.03461452850974427,-0.007840374513927276,0.778385099549351,-0.00022464613659061905,0.1314825623727322,0.04058270246001438,0.39389809208176296,0.07729788385960497,0.5614885780802932,0.018159388627810188,0.39389809208176296,0.0,0.0,0.7961501836245735,0.039692192909306305,0.0749338618821158,8,False
166,5.533333333333333,3.5399999999999467,0.034598501015483146,-0.007831145125585307,0.778375300571572,-0.00021870822354445445,0.13159267008062128,0.0406213610717112,0.39383884336099584,0.07716002111984832,0.5613204217239279,0.018756686086419477,0.39383884336099584,0.0,0.0,0.796148487348068,0.03967980876387872,0.07493691553882044,8,False
167,5.566666666666666,3.5599999999999463,0.03458339478246656,-0.00782343409394549,0.7783657301871981,-0.0002135982145367807,0.13170809744282888,0.040662974832381286,0.39378305580426926,0.07697213260909541,0.5611500782308767,0.019515526262964333,0.39378305580426926,0.0,0.0,0.7961464698171297,0.039668221314878814,0.07493522818128673,8,False
168,5.6,3.579999999999946,0.03456951402407498,-0.007817028186764566,0.7783562956881761,-0.00020967334746201953,0.1318291734916654,0.04070518936383189,0.39370606655788387,0.07679257518216326,0.5609816546347999,0.020265194056033487,0.39370606655788387,0.0,0.0,0.7961444821548886,0.03965785812130376,0.07493805057324421,8,False
169,5.633333333333334,3.5999999999999455,0.03455711388277791,-0.0078117247841469565,0.778346919472644,-0.0002070658760057289,0.13195619717985005,0.040746228539089054,0.39360825482197437,0.07662157971695839,0.5608153055142758,0.020995110403595172,0.39360825482197437,0.0,0.0,0.7961425041833805,0.03964893348004538,0.07494566283378053,8,False
170,5.666666666666667,3.619999999999945,0.03454647313748583,-0.007807311833179139,0.7783375635806541,-0.0002063870157994792,0.13208947056449838,0.040782356565633025,0.39346823507148726,0.07644200244649346,0.5606521323162116,0.021734138157809786,0.39346823507148726,0.0,0.0,0.7961405262118724,0.03964165890593272,0.07495741686588053,8,False
171,5.7,3.6399999999999446,0.03453765195760485,-0.0078036387376370165,0.7783281008539297,-0.00020593214192749813,0.13222814981729475,0.04081258592585896,0.39318610118725944,0.07644313270039124,0.560495496847002,0.02201279429469246,0.39318610118725944,0.0,0.0,0.7961375507586252,0.0396357396794602,0.07496561890637261,8,False
172,5.733333333333333,3.659999999999944,0.03453036724441274,-0.00780074662700336,0.7783185503617612,-0.00020518214225043521,0.1323722355008404,0.04083775006605241,0.3928319488623941,0.07652436221809467,0.5603418942233083,0.022155279358594956,0.3928319488623941,0.0,0.0,0.7961340697942704,0.03963119914284927,0.0749747701261329,8,False
173,5.766666666666667,3.6799999999999438,0.03452422769404872,-0.007798673149441802,0.7783089443236776,-0.0002037507821596269,0.13252112379850428,0.04085809526724761,0.39240449922305654,0.07667725541764846,0.5601905281508157,0.024941732242382504,0.39240449922305654,0.0,0.0,0.7961300742918239,0.03962771050246142,0.07498442634051943,8,False
174,5.8,3.6999999999999433,0.034518218488673855,-0.007796411364309743,0.7782990138781378,-0.0001966828688193537,0.13267297961632718,0.0408798093011306,0.3914975642804055,0.07735871920621674,0.5600362295863834,0.03269450291783617,0.3914975642804055,0.0,0.0,0.7961243503874288,0.03962406450874953,0.07493759270536701,8,False
175,5.833333333333333,3.719999999999943,0.034510569055922195,-0.007792805620722117,0.7782890973479711,-0.00018370532577526168,0.1328298929789596,0.04090663738317438,0.39032410240381166,0.07819368974427056,0.5598732734827291,0.04247593089708594,0.39032410240381166,0.0,0.0,0.796117692190183,0.03961877061262664,0.07486000800637362,8,False
176,5.866666666666666,3.7399999999999425,0.03449956839454522,-0.007786777930971183,0.7782794661711551,-0.00016474650656515295,0.1329931919524006,0.04094291969564622,0.3888428941131309,0.07907666174405775,0.5596859679388402,0.05396349409244077,0.3888428941131309,0.0,0.0,0.7961100176607314,0.03960996502512549,0.07474062387156474,8,False
177,5.9,3.759999999999942,0.03448311438681658,-0.007776800961947704,0.7782701452378207,-0.00013730236016383664,0.13316414698808904,0.040996302241398844,0.3873364186128543,0.08013912298783281,0.5594581216526366,0.06987736763179826,0.3873364186128543,0.0,0.0,0.7961004203836742,0.039595252477151455,0.07453964333207923,8,False
178,5.933333333333334,3.7799999999999416,0.034459056941133,-0.0077615296780980895,0.7782614677598999,-0.00010093868725722074,0.13334763727102436,0.041070748838401575,0.3877896607610503,0.08132743818868958,0.5591897042857192,0.09170131829753916,0.3877896607610503,0.0,0.0,0.7960896689801545,0.03957258085818053,0.07428119371426321,8,False
