frame,video_time_s,sim_time_s,root_x,root_y,root_z,root_roll,root_pitch,root_yaw,joint_target_abs_mean,joint_error_abs_mean,joint_error_abs_max,joint_velocity_abs_mean,ctrl_abs_mean,root_target_x,root_target_y,root_target_z,root_position_error_m,root_orientation_error_rad,contact_count,fall_proxy
0,0.0,0.2200000000000001,0.012712072209722524,-0.010655254966525798,0.7791527202445325,-0.00036305419373594853,0.0008964138205210652,0.04997281474927144,0.14986368717189844,0.07349723306869232,0.49291176449764307,0.22951272871221504,0.14986368717189844,0.0,0.0,0.7735038259168429,0.017347782272532555,0.023101788399723447,6,False
1,0.03333333333333333,0.24000000000000013,0.015022933948419245,-0.009982989113265357,0.7798059697652285,-0.006888889284395021,-0.0012430061985672393,0.12098501443400701,0.22257182471804937,0.1494911299222733,0.6947824489899492,0.5990994900965664,0.22257182471804937,0.0,0.0,0.7838249505487198,0.01814389503046911,0.6207554729369833,6,False
2,0.06666666666666667,0.2600000000000001,0.018067472807582256,-0.009049456016480027,0.7811378642540782,-0.009873026842530306,-0.013702270034098796,0.22035237272006716,0.2708040875083423,0.21732682169565898,1.4255215342858385,0.9722400503522856,0.2708040875083423,0.0,0.0,0.793198940411708,0.023133665185811052,0.8590509822807032,6,False
3,0.1,0.28000000000000014,0.021741815305144387,-0.006650730169256055,0.7811588883902381,-0.0034434804178843943,-0.017869644847599214,0.23211413027156858,0.28161331654957894,0.18699481450013458,1.340853403260891,0.8169502600815014,0.28161331654957894,0.0,0.0,0.7939326229968817,0.0255105248808842,0.14437440133143356,5,False
4,0.13333333333333333,0.30000000000000016,0.023981670077647017,-0.0036180781225279017,0.7801380562859935,-0.007718939052035348,-0.01239413941774182,0.17659514456701778,0.2476795544751202,0.17330826067417493,0.8735503699796695,0.8799530885127851,0.2476795544751202,0.0,0.0,0.7803292202931349,0.02397177430911982,0.48799452448472885,7,False
5,0.16666666666666666,0.3200000000000002,0.024890897766868883,-0.0032398307276197747,0.7800002278692938,-0.014577471034851342,-0.024418255894757122,0.09923408186076957,0.2259984767351744,0.21294258219965637,0.6222842248192522,1.0657129007048345,0.2259984767351744,0.0,0.0,0.7787587359363033,0.02490949954924911,0.7271494001880071,6,False
6,0.2,0.3400000000000002,0.025332869878031808,-0.005142433958156384,0.7799884186151353,-0.02532557858723941,-0.02841027779008658,0.06626160019439893,0.19154923036921256,0.19506117015089094,0.6149990813101474,0.847247833078245,0.19154923036921256,0.0,0.0,0.7875057177606757,0.02676318575956418,0.35896713519292794,6,False
7,0.23333333333333334,0.3600000000000002,0.025224570478758833,-0.007908524910932175,0.779270738063811,-0.03126529883045332,-0.024544073348006897,0.03252747382118321,0.20800879512379383,0.15227302071780635,0.5014606474037905,0.6662745117510773,0.20800879512379383,0.0,0.0,0.7834122210785509,0.026587862780483265,0.3139132833700476,5,False
8,0.26666666666666666,0.3800000000000002,0.024901960056033293,-0.011131690671538597,0.7781058584114388,-0.027673499490007882,-0.021851159777659956,0.010554054891650863,0.25699728428518137,0.15132781329790884,0.6586622334521868,0.6218749910564014,0.25699728428518137,0.0,0.0,0.7839363253810986,0.027610382577335946,0.20635271488689064,4,False
9,0.3,0.40000000000000024,0.02426214252739623,-0.014273885113118803,0.77683554427676,-0.01786660066652251,-0.021401232131680444,-0.0001386026400448248,0.2932578382433984,0.16931549882316393,0.6226171100310705,0.6865276796403955,0.2932578382433984,0.0,0.0,0.7951768914815128,0.033319429253537626,0.1533826434815241,5,False
10,0.3333333333333333,0.42000000000000026,0.022126293670065383,-0.016782581110119203,0.776050850688961,-0.0035350503552909703,-0.01831150406999829,-0.003339449839102285,0.24451959160548697,0.13425090679883572,0.5031090946701919,0.5838207185935709,0.24451959160548697,0.0,0.0,0.7849964298006255,0.02940208669026053,0.1685588478563796,9,False
11,0.36666666666666664,0.4400000000000003,0.018779952042795155,-0.017186051779796385,0.7764147828312923,0.011923298722551028,-0.012476400452276368,-0.006130843436007096,0.24011555663448172,0.17250005077384606,0.8051232272736227,0.7890847571943846,0.24011555663448172,0.0,0.0,0.7869900925121482,0.028208392502962094,0.13485591822904616,3,False
12,0.4,0.4600000000000003,0.014526407112158704,-0.01501396161557604,0.7766263725211195,0.025564031739833824,-0.01484355955966243,-0.012944413831703914,0.2617242802881247,0.1802223908696653,0.5879463456045737,0.6923417000461974,0.2617242802881247,0.0,0.0,0.8055619526075208,0.036557361786973545,0.10563505649341684,7,False
13,0.43333333333333335,0.4800000000000003,0.010657728710937332,-0.011890854346189918,0.7770897309990045,0.024310884663288998,-0.019307013692504316,0.007505789281560701,0.2196217415048457,0.18520532372698148,0.566392480908765,0.7607055190787828,0.2196217415048457,0.0,0.0,0.7769090427273443,0.017057968583189507,0.1748717270492501,7,False
14,0.4666666666666667,0.5000000000000003,0.008775592763757674,-0.010384667997307537,0.779503733717688,0.016101719128211713,-0.01805743725084529,0.033372170326427676,0.2487253816343695,0.19877616666093198,1.0212322407762255,0.844218053650867,0.2487253816343695,0.0,0.0,0.7631676004863712,0.021041513020369818,0.26248125826204355,5,False
15,0.5,0.5200000000000004,0.007017731740766428,-0.010512260069247888,0.7806914098648449,0.003602361117946691,-0.014396342124043835,0.04640207316850852,0.2795964082723139,0.17687740266986365,0.6778705963830853,0.6932085884431977,0.2795964082723139,0.0,0.0,0.7900248474382982,0.01588980775214857,0.19203375110389628,5,False
16,0.5333333333333333,0.5400000000000004,0.004756756081024733,-0.01159747109050524,0.7801706909492926,0.004795387755500544,-0.006622064874378002,0.035667861917985426,0.27736764431883704,0.12882349015520672,0.6716676305195663,0.39635211618772126,0.27736764431883704,0.0,0.0,0.7803885386035571,0.012557101197200203,0.16129095175985023,4,False
17,0.5666666666666667,0.5600000000000004,0.002326856303295618,-0.012398907218055482,0.7793823608676684,0.011508658215822809,0.00192630184411237,0.021470085791743802,0.2731633445846079,0.13613888369954594,0.7106791772712738,0.49430133424080097,0.2731633445846079,0.0,0.0,0.7763022567011298,0.012956291047346974,0.1700293898586414,7,False
18,0.6,0.5800000000000004,0.00016510442085342417,-0.01309353894961194,0.7793943643399599,0.017014354483160448,0.011579190275951022,0.023116874043358493,0.2688416997131118,0.14773788447772834,0.7241233491714792,0.5698719543164071,0.2688416997131118,0.0,0.0,0.7854573132820174,0.014311266748708069,0.15299035966391278,5,False
19,0.6333333333333333,0.6000000000000004,-0.002709362221796561,-0.013299588174485361,0.7783401575312302,0.025285402726632978,0.03287409132187861,-0.017563760582022313,0.25193804580635465,0.18733368540564668,0.7894574297712479,0.7587278583816167,0.25193804580635465,0.0,0.0,0.7427941394581798,0.03832948608887575,0.4183292028665871,4,False
20,0.6666666666666666,0.6200000000000004,-0.006088512325891169,-0.013738807871347401,0.7766850291581149,0.038688424969273834,0.06302388438014445,-0.09953344453792447,0.3076865044145677,0.2456466544186595,1.2413486508162688,1.2292986615968453,0.3076865044145677,0.0,0.0,0.7316042205886816,0.04774876473999786,0.7564377782055312,4,False
21,0.7,0.6400000000000005,-0.00891409718343645,-0.01485966641006798,0.7753519448708287,0.04017741860230748,0.0841699788107523,-0.13834220142831405,0.3007846660805266,0.19973788528725792,0.7579594562308567,1.1433058497604693,0.3007846660805266,0.0,0.0,0.7838148897147419,0.01861342990188284,0.37967190366932074,5,False
22,0.7333333333333333,0.6600000000000005,-0.010038845440885664,-0.016764618662501465,0.7756222492096947,0.03152947321041042,0.08393867478302681,-0.1481323572240585,0.3230117077959422,0.17880245649201318,0.7556879158736947,0.8339192023412856,0.3230117077959422,0.0,0.0,0.8009217981048253,0.03169766870608089,0.11444954933701483,4,False
23,0.7666666666666667,0.6800000000000005,-0.009406256897712214,-0.01968014869033117,0.7766097229613782,0.017890943588244106,0.06966893100542108,-0.15660556723612545,0.32323720853796867,0.21942221749696356,0.7866525928340871,0.9187490686699213,0.32323720853796867,0.0,0.0,0.7989999672404515,0.03104158348388037,0.21539494427808392,4,False
24,0.8,0.7000000000000005,-0.0074586521703561785,-0.022842864279873386,0.7767968134512644,0.009051996487161753,0.07343398366479469,-0.1882032739453743,0.2852725606159057,0.17466163648353622,0.7538222719066593,0.8576146626330811,0.2852725606159057,0.0,0.0,0.7821247865359477,0.02406958368116226,0.29307994980680896,4,False
25,0.8333333333333334,0.7200000000000005,-0.006752902061748966,-0.026451141617657378,0.7766434548664319,0.003707059737120569,0.07144804524156935,-0.16742465938025838,0.28785664219726537,0.18153647713110901,0.7546529608515896,0.8093841845964661,0.28785664219726537,0.0,0.0,0.7831478250776809,0.027188281065197776,0.1494024083159307,5,False
26,0.8666666666666667,0.7400000000000005,-0.007674967697807914,-0.029823626391096817,0.7766364093127393,0.0031716092454773296,0.06246058324498799,-0.14454072432866807,0.29321233175196715,0.26608518016162425,0.7499694485077761,1.024940968162597,0.29321233175196715,0.0,0.0,0.7851201969254982,0.031161256998397686,0.17173672009701238,6,False
27,0.9,0.7600000000000006,-0.008972221836430844,-0.03229632254342362,0.7760142010616815,0.002177638656390667,0.052561872984894044,-0.2268641980697509,0.2968989088271159,0.2332669284885556,0.7563536678540203,0.9534536262363574,0.2968989088271159,0.0,0.0,0.7952387388511316,0.037925423391329864,0.7455027006390036,3,False
28,0.9333333333333333,0.7800000000000006,-0.010448265869603098,-0.034103327285583976,0.774288508303627,0.008553986752969199,0.049963228619272014,-0.2589128966243735,0.31808003755289294,0.18450054770308483,0.7630175131180632,0.7375340657938563,0.31808003755289294,0.0,0.0,0.787186575484638,0.03739640408382976,0.3014054826235965,4,False
29,0.9666666666666667,0.8000000000000006,-0.011254834971367454,-0.034579333309079696,0.7729623362355866,0.009130808359381123,0.04039615860394282,-0.22618281942671348,0.3260760028370639,0.16014936572336994,0.7665993639149482,0.7139814944664036,0.3260760028370639,0.0,0.0,0.784021899390123,0.03787629673189646,0.2713898430400917,5,False
30,1.0,0.8200000000000006,-0.011248226218989785,-0.0359493539775415,0.7739826777740665,0.0028377668465590783,0.01743370159247863,-0.17420536482559312,0.3021231027806455,0.18365455951577692,0.7618352617025783,1.0640797937751316,0.3021231027806455,0.0,0.0,0.7970374442670196,0.044026770640823165,0.4718923198825595,5,False
31,1.0333333333333334,0.8400000000000006,-0.009951326820966904,-0.03758266551611532,0.7746963552085815,-0.001688572014548767,0.009060394155822788,-0.14450250192888203,0.33390527306314793,0.15633094683830248,0.7480718800906893,0.7627574944951959,0.33390527306314793,0.0,0.0,0.7990042947880713,0.045703562070583535,0.28506732521532674,7,False
32,1.0666666666666667,0.8600000000000007,-0.007727377334072016,-0.03848748504724798,0.7748718293945606,-0.006187096254509845,0.016937807179054323,-0.13845792263845566,0.3179114557007324,0.16200592808643458,0.739849141153514,0.55644275867813,0.3179114557007324,0.0,0.0,0.7898659663809994,0.04198272657472134,0.12810748838880945,6,False
33,1.1,0.8800000000000007,-0.005990198421116312,-0.039413216541799065,0.7753665923247166,-0.01399718573423199,0.026578278278257667,-0.13066085022172583,0.2796768661335045,0.1940968490190626,0.7400684591769127,0.668955823672071,0.2796768661335045,0.0,0.0,0.7608090505668856,0.04220433314548946,0.20397616869223012,6,False
34,1.1333333333333333,0.9000000000000007,-0.00518571993452395,-0.040219552382664274,0.7754257381268206,-0.01706746398186334,0.02693909199043724,-0.12542206586351715,0.2725900268212442,0.1623684102131199,0.7427442968418744,0.4989359643429048,0.2725900268212442,0.0,0.0,0.7763034513164129,0.04042669116117174,0.07313845480926266,6,False
35,1.1666666666666667,0.9200000000000007,-0.00424278612762234,-0.040456824858950385,0.7747583434936269,-0.013401928872680713,0.05691744159923863,-0.14745548033242128,0.32352121380144394,0.1854216408456918,0.7429889648776669,0.7704854520705284,0.32352121380144394,0.0,0.0,0.7110838097037117,0.07563104858125456,0.3168636319205549,7,False
36,1.2,0.9400000000000007,-0.007628903750607259,-0.04147463240454893,0.7736023067884189,-0.005731163257669219,0.11041588139327284,-0.1943622905592777,0.3943094128272912,0.2407017838663939,0.7442004669832657,1.2894632132983763,0.3943094128272912,0.0,0.0,0.45423316638021294,0.3221550279048497,0.8997888578792,7,False
37,1.2333333333333334,0.9600000000000007,-0.013032973862320102,-0.04187954897357906,0.7732900047711273,0.004671734870059224,0.18342198472675988,-0.21561902915454895,0.43740932199147653,0.281081980108122,0.7864875902257004,2.077029595720288,0.43740932199147653,0.0,0.0,0.6360514952088374,0.14434527594280636,0.9578020906915151,4,False
38,1.2666666666666666,0.9800000000000008,-0.017521055890514732,-0.04203200630061102,0.772877983139313,0.013820479781463422,0.21605040106151288,-0.20773585767845532,0.36826459854098104,0.1867595359339819,0.697108470225999,1.204666567535433,0.36826459854098104,0.0,0.0,0.7999866925371371,0.052618156837816614,0.2954436642570917,3,False
39,1.3,1.0000000000000007,-0.020569136833516417,-0.04208286361769792,0.7740838323371001,0.018857556713348933,0.19563653621412144,-0.18659217732811187,0.29424119027370105,0.20275350052139482,0.6909912066205681,0.9711593056760536,0.29424119027370105,0.0,0.0,0.7872265669339962,0.048566166177085625,0.21619390705402028,6,False
40,1.3333333333333333,1.0200000000000002,-0.023131344013044015,-0.042012331834610464,0.7761989413361706,0.02410477835707717,0.1631835766770473,-0.10177727244111624,0.308937989922335,0.238128844061162,0.6861745606451979,1.3833495794203101,0.308937989922335,0.0,0.0,0.7750919537252632,0.04770588401104687,0.7601194314871461,4,False
41,1.3666666666666667,1.0399999999999998,-0.025625161593257333,-0.04255681797999991,0.77811347673067,0.027935386375225392,0.1278173567615628,0.02798539375747889,0.3514304386019994,0.2502382022729633,0.7336509635707724,1.5973439324106076,0.3514304386019994,0.0,0.0,0.7667654955544101,0.05038155823873409,1.1506870646068958,2,False
42,1.4,1.0599999999999994,-0.026562295049222806,-0.04317874363419841,0.7782162928237645,0.04117624975052054,0.10415788275099136,0.07939783294283624,0.3636763436237327,0.2512858044610229,0.833251321311354,1.3523244857305998,0.3636763436237327,0.0,0.0,0.770098664350185,0.051210250617385725,0.4756863179107877,3,False
43,1.4333333333333333,1.079999999999999,-0.02651821821952114,-0.04336239104148652,0.7778975288282683,0.055317609626595016,0.09491920882900241,0.1516187318440253,0.40642691048492946,0.24466424627362948,0.8451152180873212,1.465872607178486,0.40642691048492946,0.0,0.0,0.77441463851771,0.05103947687235339,0.6278674062085187,4,False
44,1.4666666666666666,1.0999999999999985,-0.02730534358405604,-0.04288461911055026,0.7799499844630162,0.05423825103243634,0.08060477652055972,0.24642810998236947,0.3858493458015124,0.243140561676085,0.7528008273744642,1.3999863241027817,0.3858493458015124,0.0,0.0,0.7726607630074084,0.0512286520789047,0.8854848728116888,6,False
45,1.5,1.119999999999998,-0.027322459055778296,-0.04185119424774973,0.781171781876331,0.051181793035738644,0.06647236330319922,0.2831385310417647,0.3799253859627053,0.24439994991687505,1.1042555842189785,1.0402490549989372,0.3799253859627053,0.0,0.0,0.7601187755769421,0.05446854943583663,0.32327389654680555,5,False
46,1.5333333333333334,1.1399999999999977,-0.026464771349812198,-0.040792968135062495,0.7817729371074467,0.045325744988093865,0.0522415537201608,0.2653645582155557,0.3382259802904459,0.21289668614790197,0.6108624727226968,0.9334557416073529,0.3382259802904459,0.0,0.0,0.7744392168240527,0.04948871299252887,0.1681046752720922,5,False
47,1.5666666666666667,1.1599999999999973,-0.024483949028196998,-0.040398361174026405,0.7819584874779998,0.04456888336491584,0.05263332965819073,0.25250486336546224,0.35400566209733536,0.18303979433680742,0.6024561004477024,0.7480563046328316,0.35400566209733536,0.0,0.0,0.7885275879237269,0.04802436898464743,0.08721281221372992,6,False
48,1.6,1.1799999999999968,-0.022306799147725796,-0.039280339389479106,0.7819603546510325,0.037621742298396835,0.06362583811898166,0.22222281307501668,0.3675472865471059,0.2180021809488455,0.7600246093653293,0.9867172282639051,0.3675472865471059,0.0,0.0,0.7876852635599808,0.0460243588066723,0.24660318239130927,4,False
49,1.6333333333333333,1.1999999999999964,-0.020047155503812822,-0.03803192180163526,0.780909283035055,0.025666968943941708,0.07304589439624419,0.18779917125687626,0.34446656291352457,0.24030724532981435,0.9767725077988746,1.1918614804704992,0.34446656291352457,0.0,0.0,0.7831189333504949,0.04349493669869859,0.2620089384757729,3,False
50,1.6666666666666667,1.219999999999996,-0.017968102395676352,-0.03707284152894521,0.7790240958533948,0.010765405259037112,0.07811328691109684,0.16444846087424667,0.3612443232672186,0.23691167481095163,0.8853940771937927,1.3358701348740196,0.3612443232672186,0.0,0.0,0.7815149484639168,0.04168802730415546,0.1895581000565183,5,False
51,1.7,1.2399999999999956,-0.016787693548587685,-0.03650533317971883,0.7774763028446409,-0.0005112462728612123,0.07294094888837871,0.1529302536759979,0.36054165179324044,0.21885095784844003,0.6899004067246783,1.0159998576491147,0.36054165179324044,0.0,0.0,0.7791029772352916,0.040463001524608876,0.19933484658657694,4,False
52,1.7333333333333334,1.2599999999999951,-0.015952911311228876,-0.03709621763384415,0.7767745707779867,-0.007032458402103112,0.06517513174607611,0.1532955487566801,0.32781783548183424,0.19542663309623232,0.6529654548845537,0.8079689391704256,0.32781783548183424,0.0,0.0,0.7814139939493623,0.04044842691711791,0.13682105731365046,7,False
53,1.7666666666666666,1.2799999999999947,-0.01494527130142234,-0.03892164281656814,0.7767884316089081,-0.01085972329202958,0.06084330005467327,0.1595380360319661,0.31856132927660685,0.19382855545332892,0.6377043412983832,0.8425679417773889,0.31856132927660685,0.0,0.0,0.787604696267061,0.04269306852779553,0.09717680429039989,5,False
54,1.8,1.2999999999999943,-0.013469932095145486,-0.040972279840485376,0.7764660089995026,-0.017658912276300037,0.06760152087355321,0.15172969277936174,0.33665366003967384,0.2024420928055414,0.6444589854934855,0.7946513658644562,0.33665366003967384,0.0,0.0,0.8000840683899775,0.048747351100406934,0.06699950596073075,5,False
55,1.8333333333333333,1.3199999999999938,-0.01184023992166839,-0.043357564001500974,0.7764406470652162,-0.022565121351655112,0.0750234468321119,0.14832599345859293,0.3564618898521682,0.21959077105515476,0.7808807192948731,0.8614193377057764,0.3564618898521682,0.0,0.0,0.7960300809104601,0.04863663236692246,0.04532327629791662,6,False
56,1.8666666666666667,1.3399999999999934,-0.010402898501084671,-0.04563420649900275,0.7768813389144138,-0.02290196898797317,0.07861893745464354,0.17230830121239668,0.38057784019742763,0.19430772701336013,0.658045334748105,0.7752288855680763,0.38057784019742763,0.0,0.0,0.7878624222338204,0.04768304228995083,0.2636120844735304,5,False
57,1.9,1.359999999999993,-0.009607238393053389,-0.047743257166840386,0.7769210939215407,-0.022976018247270334,0.07468866528139288,0.24755210171793085,0.37543799894066404,0.15499015384590012,0.6074022491263067,0.7403956229629457,0.37543799894066404,0.0,0.0,0.7768114768979453,0.04828582763268799,0.6734043030298782,6,False
58,1.9333333333333333,1.3799999999999926,-0.010260960228159581,-0.04903576187751587,0.7785059547471357,-0.020721853500849877,0.06396224089429586,0.2911887978953815,0.3935868977554351,0.18242615454319785,0.5944267071308778,0.8048850131115991,0.3935868977554351,0.0,0.0,0.7855715864510512,0.05041495584042787,0.3746614098132948,8,False
59,1.9666666666666666,1.3999999999999921,-0.011064876746952827,-0.0482147519915569,0.7792964346615997,-0.013063679598595826,0.05852488587264348,0.2629229337714252,0.37777233030689195,0.17152368382759606,0.5969446771484488,0.5327911146455362,0.37777233030689195,0.0,0.0,0.7866607333663637,0.050326195483003565,0.2631830205806049,7,False
60,2.0,1.4199999999999917,-0.011692020978608301,-0.046757817278099585,0.7789072081603124,-0.00949382133077548,0.04305498748841069,0.2386254759900663,0.37395217306254336,0.171987935261775,0.6069807996376313,0.6479186728098767,0.37395217306254336,0.0,0.0,0.7500821961524645,0.056557366258612296,0.2661241832473578,5,False
61,2.033333333333333,1.4399999999999913,-0.011891163950183683,-0.0447047283726113,0.77817544585029,-0.01157427735217492,0.03146830286454812,0.2078716410156081,0.30271960938328424,0.19712913616845376,0.8017353849043243,0.9670643084303736,0.30271960938328424,0.0,0.0,0.764429281308614,0.048767109533443195,0.2931243534980385,5,False
62,2.066666666666667,1.4599999999999909,-0.011800720443942632,-0.04237122576032304,0.7782178209196355,-0.011345109718591756,0.031257316772995404,0.18967657035899074,0.30089526016022494,0.21949515858357976,0.8295322616679648,0.8937172361226583,0.30089526016022494,0.0,0.0,0.7887830583824308,0.04578725629120541,0.23104301708475494,5,False
63,2.1,1.4799999999999904,-0.013303861718848307,-0.03994841084154561,0.7788903712595937,-0.011781563216174106,0.024835710367010034,0.22335730006755874,0.31005693015006175,0.2377556630567283,0.9255964562340829,1.3077504377896172,0.31005693015006175,0.0,0.0,0.7863228657125872,0.043295965824451894,0.3136658313598292,4,False
64,2.1333333333333333,1.49999999999999,-0.015446326711967334,-0.037589337959738275,0.7796202921617885,-0.009504884573874106,0.014442128769712778,0.2524559889139511,0.3210835870129347,0.18772948254004773,0.5867290284782047,0.8551719985176017,0.3210835870129347,0.0,0.0,0.7859716421087326,0.04147019591798413,0.28102317378022657,6,False
65,2.1666666666666665,1.5199999999999896,-0.0178928944394117,-0.03514617595274444,0.7793630709641657,0.005511809887297715,0.013479174373316248,0.20973506081674367,0.3163195149349438,0.1977150882749875,0.893017715964943,0.8075552487316918,0.3163195149349438,0.0,0.0,0.7846131818172567,0.03998124090735183,0.3582073885858614,5,False
66,2.2,1.5399999999999892,-0.02020998998247031,-0.032414894806935636,0.7787074908329125,0.01812155409497431,0.020980169792844634,0.17414527452723122,0.3743340383573436,0.22483817256283603,0.7816573574280042,0.8872548029767009,0.3743340383573436,0.0,0.0,0.7863715859878706,0.039176553724050565,0.31962024904620506,5,False
67,2.2333333333333334,1.5599999999999887,-0.023019249004416986,-0.029921285491763507,0.7795095934269302,0.024882059533086278,0.015322409582819382,0.2100420245718808,0.3670189179101915,0.17433089455369277,0.604489475450946,0.6561178599612612,0.3670189179101915,0.0,0.0,0.7935277388065811,0.040496898228427954,0.3047258502519498,5,False
68,2.2666666666666666,1.5799999999999883,-0.026185810331810184,-0.027438706394961352,0.7808496667970618,0.015277010655789222,-0.003422867013040105,0.3231033660738735,0.32217465112758875,0.16653028987802554,0.5768377058952658,1.0431784112309166,0.32217465112758875,0.0,0.0,0.7766999054030445,0.03809699940113781,0.9572312143951238,3,False
69,2.3,1.5999999999999879,-0.027764257589697024,-0.024100463431559537,0.7800602213202119,-0.0008742225724402357,-0.006809002348405182,0.3953793139434646,0.3333235115021286,0.16495407299485618,0.5522893992684151,0.8004576405812366,0.3333235115021286,0.0,0.0,0.6695387640632913,0.1167447012074136,0.6585413667006897,6,False
70,2.3333333333333335,1.6199999999999875,-0.02950398208646842,-0.020560914977579402,0.7798723310512401,-0.015931811247739416,-0.011546614792479528,0.47347732049816105,0.3708889331772038,0.18316329541720833,0.8652370767740879,0.9929596860260321,0.3708889331772038,0.0,0.0,0.6987015719343832,0.08880709846627881,0.6760869949384408,6,False
71,2.3666666666666667,1.639999999999987,-0.03127099785578167,-0.01707730166575057,0.7803509980676938,-0.022082696359822965,-0.015305773334630268,0.5573370957834883,0.38103865573015705,0.2451762332433588,0.762512500120812,1.3196660738153174,0.38103865573015705,0.0,0.0,0.7686305770516686,0.037574821028001346,0.6694540543228575,4,False
72,2.4,1.6599999999999866,-0.03353194725729966,-0.01194261395701028,0.7809469069590899,-0.024788815853271525,-0.017916783096926216,0.5869776043766746,0.4615623648243532,0.29501187088197806,1.1539403976815814,1.6367301171413926,0.4615623648243532,0.0,0.0,0.7758654985750528,0.03589671504128804,0.20569453335653887,6,False
73,2.433333333333333,1.6799999999999862,-0.03578136396679045,-0.006910497040388283,0.781844344913561,-0.01749929120860002,-0.020565252430322433,0.5700837565688566,0.4690144334708142,0.26439199897811005,1.4236269819939698,1.5638303887724485,0.4690144334708142,0.0,0.0,0.7827747359138473,0.036142667156935655,0.1829773198119534,6,False
74,2.466666666666667,1.6999999999999857,-0.03831899314819244,-0.002379461591434022,0.781810798343065,-0.0033238437160315153,-0.01741016828900915,0.5250261336827539,0.4552301961976062,0.25117999269054175,1.4034726529026884,1.4453209830184421,0.4552301961976062,0.0,0.0,0.78285790123248,0.0378064100669211,0.38973622321882867,4,False
75,2.5,1.7199999999999853,-0.04046920134665715,0.0018267884839091573,0.7803916749701525,0.00982990065311324,-0.001012477692659171,0.4512102625870965,0.42665591033380107,0.2443391161401618,1.297551864172179,1.5322845890458239,0.42665591033380107,0.0,0.0,0.7809498474269823,0.03995527765899281,0.6043394063143063,5,False
76,2.533333333333333,1.739999999999985,-0.042367659072463947,0.004254595780626165,0.7794534509686444,0.01426704468462696,0.0014505442996828853,0.3955071089129235,0.384231100620677,0.20792040499553177,1.1220752346984046,1.2733964344434534,0.384231100620677,0.0,0.0,0.779977927074645,0.04218574161003916,0.4604020563767572,8,False
77,2.566666666666667,1.7599999999999845,-0.04436381959515298,0.004856723467392277,0.77990098265307,0.015575927198089524,-0.010670202016658144,0.36638234254820495,0.3990205628918618,0.23099781848786038,0.9322173064599294,1.2244348445155195,0.3990205628918618,0.0,0.0,0.7796984877184091,0.04404775602091329,0.23872136601665195,4,False
78,2.6,1.779999999999984,-0.046458026781930735,0.0049911031282914515,0.7788801388417677,0.02590534620094495,-0.01942960651089186,0.33951148499458406,0.4647847102611168,0.2707346113354844,0.9132116258492804,1.2855763162457814,0.4647847102611168,0.0,0.0,0.7799744651735846,0.0462341065354718,0.20071262147914098,4,False
79,2.6333333333333333,1.7999999999999836,-0.04844037051589627,0.005012347185950896,0.7775035614481666,0.04154407142486785,-0.02217089876399908,0.3114240881284767,0.47640978136761736,0.3161948637791512,0.8709505561690805,1.4306834307692444,0.47640978136761736,0.0,0.0,0.7839302584803023,0.04858851564984851,0.2048862621935967,7,False
80,2.6666666666666665,1.8199999999999832,-0.04988484071246356,0.004078507574000054,0.7773401744070518,0.05029288935756859,-0.017919572749379394,0.27983032668023666,0.45250680685614186,0.25405996040678147,0.7459501568088558,1.50655426807461,0.45250680685614186,0.0,0.0,0.7971841584631468,0.05353950211331436,0.2581395057012359,7,False
81,2.7,1.8399999999999828,-0.05107777609138892,0.002087081163699212,0.7771564468048056,0.06010552771947076,-0.016466600097298594,0.25368378982515555,0.4897199502935564,0.22139287999702864,0.6821610384374138,1.1894796400752852,0.4897199502935564,0.0,0.0,0.7958341673668651,0.05419461279649332,0.22631605960239318,6,False
82,2.7333333333333334,1.8599999999999823,-0.05208981960053104,0.0004548812991329338,0.777439197515175,0.06549378195091833,-0.0172717179172133,0.2395176107407325,0.48150214396013413,0.22986188693610293,0.8826850061053175,0.9521182192157148,0.48150214396013413,0.0,0.0,0.7980841634639786,0.05587809701777331,0.14717243220731988,5,False
83,2.7666666666666666,1.879999999999982,-0.05206361600749166,-0.0017421090129526567,0.7774774145322458,0.053213594036831034,-0.0165733810381912,0.22887491520125222,0.45475081176117743,0.24230166841082607,0.911335841752549,1.204033763157762,0.45475081176117743,0.0,0.0,0.7881208963493349,0.05324948063558539,0.06353051774213858,6,False
84,2.8,1.8999999999999815,-0.051388767094400885,-0.005375261835080277,0.7775148208442433,0.047318421838470445,-0.012672806505640708,0.19861638378370874,0.42638947644586256,0.1995356923841275,0.5785043351063498,0.9436979431699135,0.42638947644586256,0.0,0.0,0.7611071996899361,0.05431505910736728,0.23233407054944158,6,False
85,2.8333333333333335,1.919999999999981,-0.049994044295021946,-0.009142756567239911,0.777263111999794,0.044239967292529464,-0.005499926022080578,0.15993427469619514,0.4715397433989935,0.19696881483298495,0.5629052605924096,0.9125196684598625,0.4715397433989935,0.0,0.0,0.7700993081881289,0.05155200142426131,0.3540942776294045,6,False
86,2.8666666666666667,1.9399999999999806,-0.04779516146517307,-0.01267656369997338,0.7773249436927332,0.03733042714427127,0.002862619313467718,0.13250715952312758,0.48421235077437885,0.1878602701897344,0.5909646236646913,0.7860660560593818,0.48421235077437885,0.0,0.0,0.796661468938306,0.05343100415927986,0.2796982763278562,6,False
87,2.9,1.9599999999999802,-0.046265370368350885,-0.016004841589090876,0.775973399150969,0.04015100292738095,0.007109768612662713,0.07040155985949229,0.46752870150686054,0.2275296647934469,0.7728976096987024,0.8563505558357533,0.46752870150686054,0.0,0.0,0.8017927309319093,0.05511076111879103,0.5259657412451031,4,False
88,2.933333333333333,1.9799999999999798,-0.04647500008394142,-0.019630651902915252,0.7727729961170271,0.05732309005930973,0.007500304062527225,-0.00863341226117102,0.49827516261580346,0.25061256369068086,1.266247032945631,1.134044967799051,0.49827516261580346,0.0,0.0,0.7894450715069729,0.05228935168003395,0.6723628418483508,2,False
89,2.966666666666667,1.9999999999999793,-0.047616886524987474,-0.023928260565811883,0.7684532210207593,0.07205405240934727,0.002033176480085517,-0.044800857527213994,0.5091389094678737,0.2565242947378507,1.744894552930801,1.262053482496844,0.5091389094678737,0.0,0.0,0.777444848136938,0.053183917871634845,0.2882373791133826,5,False
90,3.0,2.019999999999979,-0.04813106255077918,-0.029407079326038504,0.765740540063577,0.08370940892496678,-0.000931369186715729,-0.05876196013849415,0.5530111340301384,0.29325547636668126,2.317841359641817,1.2440592171661202,0.5530111340301384,0.0,0.0,0.7866966035336386,0.05918508853344517,0.11781697396750489,4,False
91,3.033333333333333,2.0399999999999787,-0.048165136889689084,-0.03482237081709278,0.7634309401881899,0.08414368539373264,0.004542053668778716,-0.06676603007606707,0.5517343658483697,0.28193714874838993,2.222897676291403,1.190558226890131,0.5517343658483697,0.0,0.0,0.7822277255155877,0.06151958167518712,0.13417930485535134,4,False
92,3.066666666666667,2.0599999999999783,-0.04745710032686993,-0.03970737623958716,0.7626850913222728,0.07697291943609347,0.007412417161697876,-0.06673406056290412,0.5332712121597656,0.3196346750488415,2.00191130825512,1.4140015989906256,0.5332712121597656,0.0,0.0,0.7697378444025677,0.061847709873761404,0.16642634559913563,7,False
93,3.1,2.079999999999978,-0.046017627513620755,-0.04329228331145694,0.7629647997821408,0.0725026452304122,0.0014082978055080177,-0.0545368919818458,0.5421845149239178,0.2600542943880584,1.8336464689271048,1.1755654486527645,0.5421845149239178,0.0,0.0,0.7945266251988653,0.07054048151945737,0.14666315857554826,7,False
94,3.1333333333333333,2.0999999999999774,-0.04327231190009395,-0.04549076777755145,0.7641102551853528,0.06589956380984006,0.0010814443973352272,-0.03575531863622775,0.5446632240417908,0.2509364339678846,1.6978608169547105,1.1137199933009414,0.5446632240417908,0.0,0.0,0.796754138635652,0.07111441554678659,0.17126989643482085,6,False
95,3.1666666666666665,2.119999999999977,-0.03925390810131175,-0.047052658036123525,0.765760532609779,0.046765476946260626,0.012959987127704216,-0.01843341430485932,0.5282274720553413,0.26491333599184647,1.5743867982152806,1.294263458687891,0.5282274720553413,0.0,0.0,0.7800223019953552,0.06329814319217181,0.2292962270426895,7,False
96,3.2,2.1399999999999766,-0.03690071878593825,-0.04872885192205545,0.7668612978953203,0.03535877363247659,0.017257112138641128,-0.01478231991250183,0.5309665289960093,0.23382808819384546,1.4760933051095713,0.7510551395158513,0.5309665289960093,0.0,0.0,0.7772481158424422,0.061988596321152695,0.1800803406960791,6,False
97,3.2333333333333334,2.159999999999976,-0.035537669050008845,-0.04967011044478393,0.7672791362561996,0.030329007958111494,0.017665034122580303,-0.020900774732431873,0.5210657421106449,0.23773274371246425,1.3869636787731119,0.7806529307899467,0.5210657421106449,0.0,0.0,0.7830398823372178,0.06317642956491586,0.09256108708991283,5,False
98,3.2666666666666666,2.1799999999999757,-0.03473678466952714,-0.049442215851706155,0.7674164425067885,0.0351029647424957,0.009194225236059702,-0.022106429086382218,0.5350528681989041,0.23261531147652145,1.3081731149415523,0.8949286033666951,0.5350528681989041,0.0,0.0,0.7922933633099628,0.06565851816139012,0.0830079965692959,5,False
99,3.3,2.1999999999999753,-0.034121714426831026,-0.047277593374346914,0.768015659556627,0.04415023961172259,0.004579587174094955,-0.007257112993871528,0.5246718452821673,0.23149436561992479,1.254138791046105,0.9059455590312433,0.5246718452821673,0.0,0.0,0.7914882662871,0.06357493286005038,0.11580844722257432,3,False
100,3.3333333333333335,2.219999999999975,-0.03354707113118002,-0.04309556043584606,0.7681207173214436,0.04770096837961978,-0.0009043867778438535,0.014502370288994516,0.49850337629466723,0.2408978044579601,1.184367382360124,0.8580195773038282,0.49850337629466723,0.0,0.0,0.7910561044940316,0.060211481339620794,0.1921975350210691,8,False
101,3.3666666666666667,2.2399999999999745,-0.032489863333711545,-0.03862621345104246,0.7698415798602528,0.04393246236387232,-0.0074127985295863695,0.0364964832112543,0.5138232377859286,0.22054831477947412,1.136614669015641,0.7126483141616712,0.5138232377859286,0.0,0.0,0.7901907288358875,0.0555538899434138,0.21935839709190494,8,False
102,3.4,2.259999999999974,-0.03161741357919123,-0.03470249675312104,0.7717303645105614,0.03559719920432854,-0.00961872577630966,0.043677585476149625,0.5585222745638039,0.22071269945505137,1.0690038188064936,0.7381460189053797,0.5585222745638039,0.0,0.0,0.7844406483412073,0.04952298800517816,0.13880292626515167,7,False
103,3.433333333333333,2.2799999999999736,-0.0307209691725331,-0.032037962936027904,0.7736356944151386,0.022129993356182716,-0.004612831145043327,0.049325895770256346,0.5455137827934319,0.23250981421900824,0.9878194583023188,0.9597984871637869,0.5455137827934319,0.0,0.0,0.7849701337531221,0.0464421460349015,0.17803642390411767,4,False
104,3.466666666666667,2.299999999999973,-0.029885945070547707,-0.030713246600879016,0.7751303329302893,0.010127961325521743,0.007667482042291555,0.06607230311167028,0.5168499668784838,0.20695528431632743,0.9128386155239947,0.8616938421219729,0.5168499668784838,0.0,0.0,0.7950178880731582,0.047653704371278666,0.20471068460758052,4,False
105,3.5,2.3199999999999728,-0.029933085950340395,-0.0298925779193435,0.7751561872566416,0.012916107897415435,0.021396260661962506,0.04787857471179318,0.4858723808875725,0.19404829038062682,0.8410632220271981,0.6970216765616095,0.4858723808875725,0.0,0.0,0.7810627880505183,0.04279783185178225,0.27849003261628663,4,False
106,3.533333333333333,2.3399999999999723,-0.03228047265820609,-0.027602182247087756,0.7734521229562425,0.023939463424694583,0.02879934947651891,-0.005436530611385998,0.49325677275526403,0.26168776187055215,0.8104318159208401,0.8779598821438696,0.49325677275526403,0.0,0.0,0.7775833305967679,0.0424353565573903,0.5603449227812496,7,False
107,3.566666666666667,2.359999999999972,-0.03584364596820655,-0.025025011723262592,0.7719548278661669,0.042766032045954284,0.03066517222242348,-0.02626114441832646,0.5819809074321227,0.27178152406677514,0.9035787036561319,1.1608621667523458,0.5819809074321227,0.0,0.0,0.78169121512639,0.04441041105815263,0.2722982809788444,8,False
108,3.6,2.3799999999999715,-0.03843719533224078,-0.022509047521199078,0.7712515724233646,0.0584675872713869,0.03528959512438868,-0.031717993308573736,0.6076194452002693,0.24388472154219173,1.1081235215704073,1.0323908152929056,0.6076194452002693,0.0,0.0,0.7878573994941912,0.04736913986307991,0.10275330935491353,7,False
109,3.6333333333333333,2.399999999999971,-0.04050406785376427,-0.01963539336109489,0.7711813429021117,0.06145724216879,0.03229918578849254,-0.07864253691811018,0.5643540682062932,0.2673749052297735,0.9397065209371427,1.2885282986998932,0.5643540682062932,0.0,0.0,0.7914008546839906,0.049219348588905046,0.4273623567536086,5,False
110,3.6666666666666665,2.4199999999999706,-0.04293620074856058,-0.017543321914582806,0.7700140902459081,0.06529551326788817,0.031918787763485654,-0.17908927912147568,0.5436739960173391,0.2755175435042494,0.8004360673201332,1.3637958957212333,0.5436739960173391,0.0,0.0,0.7894880879652578,0.04971310800048629,0.8876179308534882,6,False
111,3.7,2.43999999999997,-0.045872866896898706,-0.016740743791589307,0.7682074825807614,0.07336856761054036,0.02799201605041373,-0.2243313738831511,0.57183759787317,0.21739353879016374,0.6716123572969372,0.9016037900431775,0.57183759787317,0.0,0.0,0.7792238591737276,0.04937483152946517,0.43010881026429615,5,False
112,3.7333333333333334,2.4599999999999698,-0.0474709615258471,-0.01600837223160463,0.7664435155380128,0.07588416669435175,0.020638023302925648,-0.22703814631659452,0.6053173574557629,0.18615346691648335,0.651056495481,0.8181092577735218,0.6053173574557629,0.0,0.0,0.7854709563626507,0.05327276917469096,0.06083775839058799,5,False
113,3.7666666666666666,2.4799999999999693,-0.047429557212759266,-0.015534085140012243,0.7652792534041017,0.07072450250200062,0.007425858613826897,-0.2018232602696553,0.6281860106797811,0.22187491302210632,0.6682251904560568,0.8131730274280429,0.6281860106797811,0.0,0.0,0.803224697088926,0.06265777265878515,0.2666153637283275,5,False
114,3.8,2.499999999999969,-0.04661907358408815,-0.015680660766549115,0.7645588554788592,0.06044884993524927,0.004125560890359171,-0.18884412669245798,0.6531530814595221,0.23106605392825144,0.7120007819798727,0.9292529496987172,0.6531530814595221,0.0,0.0,0.7887118158931342,0.054957148910348134,0.1974250934134115,6,False
115,3.8333333333333335,2.5199999999999685,-0.04561511434358303,-0.017363576134343858,0.7653373732972052,0.05445617714165604,0.004982174712568451,-0.17420247684809081,0.6541622696087587,0.23711140804929554,0.720832980913245,0.9522059240158994,0.6541622696087587,0.0,0.0,0.7877049399387165,0.05387386513036,0.19991239127713423,8,False
116,3.8666666666666667,2.539999999999968,-0.04393634631847224,-0.0195565606419204,0.766319786353703,0.055290592283957565,-0.001180727347557008,-0.14189939634794338,0.6226635487637823,0.22420516225614423,0.7125554181964896,0.9207020397843985,0.6226635487637823,0.0,0.0,0.7906515533642292,0.054285712421387335,0.2984945428333272,5,False
117,3.9,2.5599999999999676,-0.04155255468017555,-0.020654448856815305,0.7668212045535447,0.05419547274852909,-0.010629332133057785,-0.1248545984747178,0.5823350213244738,0.2038232428257033,0.6593936465243262,0.8331049955674372,0.5823350213244738,0.0,0.0,0.7917012926586926,0.05312111207123068,0.17047615535081734,7,False
118,3.933333333333333,2.579999999999967,-0.03923533630233342,-0.020900723462608555,0.767103053351632,0.05526062447243276,-0.017549870829861036,-0.1160419105190624,0.5768637343026116,0.19914631477649736,0.6564436660731611,0.8559231995293494,0.5768637343026116,0.0,0.0,0.7931815184471778,0.05196144071626407,0.0876776416368874,7,False
119,3.966666666666667,2.599999999999967,-0.03794036850597313,-0.02019313008374369,0.7671617548646589,0.06201807625805514,-0.023136958882279117,-0.10454801531707048,0.5981579299182165,0.2192371929351713,0.6514373546453643,0.8326769800426939,0.5981579299182165,0.0,0.0,0.795219081644488,0.05166443908451659,0.10399676199610514,7,False
120,4.0,2.6199999999999664,-0.03704513860339675,-0.01770906918788372,0.7666399672075708,0.06552201426588601,-0.02072687855690434,-0.11975390016872506,0.6106887149419407,0.22323950333469392,0.7064308183663401,0.7461534428289747,0.6106887149419407,0.0,0.0,0.7896495486590115,0.04740836066691599,0.19431484099388158,8,False
121,4.033333333333333,2.639999999999966,-0.03629878411076424,-0.014443233889346126,0.7659475863187878,0.07117814582238959,-0.010346332649468451,-0.16262393432406924,0.6152917097852559,0.23158713914586815,0.66934574545763,0.9493879087386635,0.6152917097852559,0.0,0.0,0.7804053543106602,0.042046735815571605,0.4047184787248331,8,False
122,4.066666666666666,2.6599999999999655,-0.03565871241232443,-0.011735562526122902,0.7652543192174779,0.07446642506833627,-0.0005316299670654848,-0.18691105311951972,0.6632060214952058,0.23422676987886015,0.7667439225775158,0.9851694353223291,0.6632060214952058,0.0,0.0,0.7772039601351203,0.039726530922726405,0.29392984568522396,9,False
123,4.1,2.679999999999965,-0.03496698074772348,-0.010251859727411517,0.7653534141982415,0.07966750302883328,0.0058097478898408595,-0.17779033490781357,0.6775727422512303,0.2013348779204499,0.8001649070466211,0.7222459523317937,0.6775727422512303,0.0,0.0,0.7832570279293352,0.04086317944286624,0.09607416821665801,8,False
124,4.133333333333334,2.6999999999999647,-0.03402655308303765,-0.008696193990598743,0.7653918665452134,0.08097916579608946,0.01179169870067479,-0.15152258494786938,0.633848308249405,0.1820426726807965,0.6591035170553865,0.6682629322244072,0.633848308249405,0.0,0.0,0.7890597829114138,0.042601924387437845,0.15584574123572364,7,False
125,4.166666666666667,2.7199999999999642,-0.032373472359889854,-0.00781299974089848,0.7661956833858264,0.06488775958407193,0.017021455989211412,-0.12869335370674054,0.608414816970945,0.1964503378291015,0.6170100551848103,0.6564728693663435,0.608414816970945,0.0,0.0,0.7921055354315127,0.04279346304187508,0.24915872652851107,9,False
126,4.2,2.739999999999964,-0.031353458111025835,-0.00827977888734056,0.7676097708942842,0.0589344131772663,0.01625415946746626,-0.11234831857069318,0.6143224716013264,0.16660506378228115,0.6190249484732909,0.4741969297642761,0.6143224716013264,0.0,0.0,0.8019592834334612,0.04756575352567227,0.10394256119455074,8,False
127,4.233333333333333,2.7599999999999634,-0.03102998342019772,-0.008722974562659858,0.7683642765354662,0.05982737432959303,0.008062545362749186,-0.099152460669316,0.6291348202040983,0.17547012643791682,0.6241722678617546,0.6287717290436201,0.6291348202040983,0.0,0.0,0.7989462720358115,0.04455209449072823,0.10713070932264893,7,False
128,4.266666666666667,2.779999999999963,-0.03030848408232013,-0.008646842098125275,0.7684226460290143,0.05242255188491364,0.0034553776097469295,-0.08848938858788047,0.6030993241244547,0.18488750938422627,0.7409322358887795,0.6697972740020447,0.6030993241244547,0.0,0.0,0.7819639914916978,0.03448987826704016,0.07573023365142519,9,False
129,4.3,2.7999999999999625,-0.030157809110551652,-0.008943778047179171,0.7689098350552469,0.05166036537754375,-0.0005943563806187881,-0.06373588351725532,0.6069977352577993,0.18899074380290895,0.6397648759066629,0.6764749010738715,0.6069977352577993,0.0,0.0,0.7871959793417014,0.03645547355713124,0.19206143156319788,9,False
130,4.333333333333333,2.819999999999962,-0.030567519437118097,-0.008726323784398114,0.7692689327614691,0.050206885235758905,-0.001521546677973934,-0.04343373609390135,0.6354361888647174,0.17523097360253556,0.6209090054009796,0.6357958379123066,0.6354361888647174,0.0,0.0,0.7863689509354321,0.03595895280698297,0.1724408753151609,8,False
131,4.366666666666666,2.8399999999999617,-0.030840812363673257,-0.00850267278068392,0.7697061984122757,0.03587419341578925,-0.0020869198477197633,-0.053851885849886726,0.6073047899876785,0.16033819820219816,0.5904884395203746,0.44469745373357705,0.6073047899876785,0.0,0.0,0.7777705810225647,0.03288172471495111,0.1431214221932684,7,False
132,4.4,2.8599999999999612,-0.03145234750489488,-0.009585117840747798,0.7701536961032673,0.02035356449135392,-0.004383719336241449,-0.048742662321569874,0.594095789526888,0.1724106125795044,0.5983489630035808,0.592627081422833,0.594095789526888,0.0,0.0,0.7793328442899987,0.03399688495857758,0.09060050671637376,8,False
133,4.433333333333334,2.879999999999961,-0.03150631616067535,-0.012284957225461524,0.7715396213635024,0.006670985689708173,-0.004008681682376689,-0.029582329103312124,0.5889296861363981,0.17135549455769766,0.612673962379291,0.6368464161561017,0.5889296861363981,0.0,0.0,0.7831099533743985,0.03563419551151608,0.1919492365894323,8,False
134,4.466666666666667,2.8999999999999604,-0.03132494644384212,-0.01567756107399662,0.7728440917648083,-0.007985113158319145,0.004617182154227296,-0.002032676192519746,0.5891994057456812,0.16341499135766993,0.6219020136311836,0.6287468169293985,0.5891994057456812,0.0,0.0,0.7887773607070421,0.03830716645860992,0.31415250460602495,8,False
135,4.5,2.91999999999996,-0.031024310921201278,-0.019554385094002126,0.7736223286039134,-0.018696116421301003,0.01661900856271839,0.024347912394999057,0.6190606903503645,0.16751694779538562,0.6225901454871452,0.4456401809514579,0.6190606903503645,0.0,0.0,0.7887654134394829,0.03930081286138245,0.2504310490004964,7,False
136,4.533333333333333,2.9399999999999595,-0.03127128881095352,-0.02248330929913829,0.7731081451950387,-0.023988196780508272,0.023952553130856785,0.03890782888627912,0.5711805936969185,0.18856253617832586,0.6848643892017108,0.6653832153864327,0.5711805936969185,0.0,0.0,0.7895643792049399,0.04143652467008988,0.1361500085696996,7,False
137,4.566666666666666,2.959999999999959,-0.03249617814232091,-0.022726475949881846,0.7718399976121875,-0.018670991879436886,0.020223780242453072,0.025451443293255462,0.5616039444920539,0.20938799011878675,0.8061379375623762,0.7333689866662993,0.5616039444920539,0.0,0.0,0.7891425480036944,0.04292189476631127,0.19975234302756786,7,False
138,4.6,2.9799999999999587,-0.03403588812636244,-0.02190658430445039,0.7710966801819139,-0.004326579824654618,0.016721423091330324,0.029306357615151175,0.5776348597281087,0.19653268044938194,0.5877471462307228,0.6695014470145987,0.5776348597281087,0.0,0.0,0.7941596012642721,0.046343611131358285,0.10328442430843299,9,False
139,4.633333333333334,2.9999999999999583,-0.03562736731529602,-0.020990875184920012,0.770663516690355,0.008783710871230602,0.01224679445503344,0.04337805327884271,0.6207378527103031,0.17609243435920405,0.58311266159298,0.5788087993579957,0.6207378527103031,0.0,0.0,0.7914964313485989,0.04606245484376749,0.1457840616375967,8,False
140,4.666666666666667,3.019999999999958,-0.03623042271408331,-0.021160921112102958,0.771323699772841,0.002951126778992944,0.006686298929405861,0.05729391950261449,0.6376174575812037,0.17156161960815436,0.5889613944987226,0.5762059689809165,0.6376174575812037,0.0,0.0,0.7718839035796042,0.04180288966481801,0.15007192894727633,8,False
141,4.7,3.0399999999999574,-0.036415731683101825,-0.022087809701914103,0.7715937581417166,-0.003105379566084839,0.0016135496475935447,0.050949072459514994,0.6075830112317061,0.17115300931475996,0.5932017235380374,0.5963145298249961,0.6075830112317061,0.0,0.0,0.7801307574271763,0.0432533186787874,0.06666996618446767,7,False
142,4.733333333333333,3.059999999999957,-0.03693770614857312,-0.02333980895018269,0.7713671276656332,4.5027863761745886e-05,-0.004395410377918416,0.041131225727686516,0.5694734219792571,0.1443447075099285,0.5962554400417357,0.3471782473340925,0.5694734219792571,0.0,0.0,0.7909738083329276,0.04759278616190745,0.1190905463639232,8,False
143,4.766666666666667,3.0799999999999566,-0.03775099852138812,-0.02428521834316005,0.7709064662239103,0.008710917005322541,-0.014678561111325249,0.053429093954579815,0.5979366639037748,0.1885942348176142,0.6136554834621053,0.5764636068563591,0.5979366639037748,0.0,0.0,0.8023051771004563,0.0544868487635451,0.0970525244854483,7,False
144,4.8,3.099999999999956,-0.03859910167950481,-0.024300080985222235,0.769582103815651,0.016656342295566846,-0.01906382998179181,0.06780673347205124,0.602516035852595,0.1625485117933707,0.5557758484509923,0.41536274453144845,0.602516035852595,0.0,0.0,0.7877818633057272,0.048858706336559525,0.11117745469040707,7,False
145,4.833333333333333,3.1199999999999557,-0.039041868892172066,-0.024190535801787167,0.7687608488506348,0.020763114378957837,-0.020920249163879308,0.07543864770292458,0.6037497323717864,0.15446169973287607,0.5748974502676812,0.5034004542730359,0.6037497323717864,0.0,0.0,0.7822230238342545,0.04777474286951511,0.10654127066048834,8,False
146,4.866666666666666,3.1399999999999553,-0.038586128405347815,-0.024399586314981427,0.7690952582546781,0.01698954290704363,-0.028941533957802492,0.06792710904420965,0.5980684959231088,0.17440543046909357,0.5992104062077479,0.5282345369823974,0.5980684959231088,0.0,0.0,0.8032651442449076,0.057122329067298284,0.07287588585006094,8,False
147,4.9,3.159999999999955,-0.037889239077324666,-0.024811286301713628,0.76922444246811,0.007935258032853483,-0.03967997460399192,0.04482655672848779,0.5769552210440388,0.17740145212624675,0.6232123793591864,0.5365462834968514,0.5769552210440388,0.0,0.0,0.7984533260195029,0.05392573663775719,0.23123406680203226,8,False
148,4.933333333333334,3.1799999999999544,-0.03755321952659091,-0.02572830691214938,0.7693908591171162,0.0003118118348929435,-0.05028282129584326,0.014212718859379317,0.546613038082967,0.17452282571244468,0.6398155396612883,0.5284401963436733,0.546613038082967,0.0,0.0,0.7916743219996819,0.05057794210930597,0.3152399514045039,7,False
149,4.966666666666667,3.199999999999954,-0.038380086498160486,-0.02694862021619407,0.768775258942469,0.005275381787094254,-0.0577599553646525,-0.00854205220948991,0.5938963360039814,0.15803586717665186,0.6160224225512221,0.43748295460522607,0.5938963360039814,0.0,0.0,0.7900735682982384,0.0510746537808559,0.22197139941219424,6,False
150,5.0,3.2199999999999536,-0.039673640014570424,-0.02759132853282491,0.7667680338318396,0.005793408735024911,-0.05394313553502964,-0.03340053521635353,0.5821503151116884,0.16850796037204135,0.6008885837194308,0.43178081833053467,0.5821503151116884,0.0,0.0,0.776327081370149,0.048757280039605125,0.28085464085212797,7,False
151,5.033333333333333,3.239999999999953,-0.04136502506515281,-0.028845641185230874,0.764921114482853,0.0061241391737157985,-0.039690816882046315,-0.029312901913980487,0.6135942159463219,0.22967411260950127,0.841630975291108,0.851533494747083,0.6135942159463219,0.0,0.0,0.7442501491418841,0.05408966627953504,0.24229809985194903,8,False
152,5.066666666666666,3.2599999999999527,-0.04259716398016372,-0.03029093968952968,0.7654048893436232,0.007239238757118821,-0.022208776689770917,0.016809741332038778,0.6138215863780709,0.25419222025596055,0.9291941602393576,1.1463664716609252,0.6138215863780709,0.0,0.0,0.6790811144321686,0.10057070264498053,0.46092163219758614,9,False
153,5.1,3.2799999999999523,-0.042562269237048325,-0.028844653980644362,0.7668413997203488,0.004177319573408778,-0.011679557014081991,0.08390091593890785,0.6025594505115438,0.21716189133349614,0.8295554855859192,1.1485251525847577,0.6025594505115438,0.0,0.0,0.7441746425266137,0.05643313820911922,0.5581716821570825,7,False
154,5.133333333333334,3.299999999999952,-0.04195765169599231,-0.02654288027594026,0.7675744508815241,0.00526432931243864,-0.006953762773610234,0.0919798364415882,0.639929797190651,0.19060877398890333,0.7040751556230157,0.820708999178759,0.639929797190651,0.0,0.0,0.8050740022506644,0.06256805114796117,0.09223515898836346,8,False
155,5.166666666666667,3.3199999999999514,-0.04162485385189984,-0.024689646964113608,0.7670336925788199,0.0018681584865194063,-0.00905265640083703,0.08209517158375683,0.646031050514613,0.1736936707384368,0.8120775049473489,0.5968761918230578,0.646031050514613,0.0,0.0,0.7946071020009873,0.05580992435746571,0.09981362121247984,7,False
156,5.2,3.339999999999951,-0.041948374212270906,-0.02333649681362991,0.7657490991089505,0.007372832195400682,-0.009601091324745624,0.04248646115070257,0.6520828286572733,0.22562175766358383,0.7724665005538358,0.8975392889949491,0.6520828286572733,0.0,0.0,0.7830546823245563,0.05092196326705582,0.33365591003831846,7,False
157,5.233333333333333,3.3599999999999506,-0.04342419559906763,-0.02225512929352444,0.7638839382094017,0.022957225166419334,-0.0049412118283785195,-0.021565299943153364,0.6291991822766936,0.2504842433293462,0.9345981367627302,1.0285599369131504,0.6291991822766936,0.0,0.0,0.7723850863438023,0.049143873352957314,0.5593544387975113,7,False
158,5.266666666666667,3.37999999999995,-0.04506540451193629,-0.021445129569092596,0.7621836000306069,0.03802467575773643,-0.0011094858201142613,-0.03359396562214663,0.6474572899112482,0.22273362192648227,0.6471931504669257,0.9499470559067531,0.6474572899112482,0.0,0.0,0.7735781066198576,0.05092160146417427,0.16311400162331458,6,False
159,5.3,3.3999999999999497,-0.04706639547691651,-0.020514329679648145,0.7597072889485623,0.06678903373500678,0.005724397765194553,-0.08170731898423744,0.6391405813088676,0.2777414396911876,0.6612537727125045,1.094814622679079,0.6391405813088676,0.0,0.0,0.7702619939353075,0.051913841491208666,0.45511818306527835,6,False
160,5.333333333333333,3.4199999999999493,-0.049959131574855424,-0.019118046099486703,0.7553183177738321,0.0967098172929726,0.015748709680041245,-0.19170709322235088,0.6272177223661201,0.2571482674691401,0.7543355815630133,1.060814374957717,0.6272177223661201,0.0,0.0,0.7727207206092461,0.055276288496847216,0.9559612819544832,6,False
161,5.366666666666666,3.439999999999949,-0.0527766183812281,-0.017290530393971267,0.750542866290423,0.11372290877532464,0.012175189257619866,-0.2602372809495896,0.6447550958061983,0.20939338874340585,0.6425037457220799,0.8695221880932201,0.6447550958061983,0.0,0.0,0.7744045512855462,0.05964259288888236,0.5773608875484516,7,False
162,5.4,3.4599999999999485,-0.05361647416372124,-0.016138140152589624,0.7473787895995884,0.11724404105678607,0.0028640728818283756,-0.27971145645020495,0.6709658684294979,0.200564988457003,0.6797629011795018,0.8572454415233511,0.6709658684294979,0.0,0.0,0.7878626190436441,0.06870006927923479,0.15734530128875232,5,False
163,5.433333333333334,3.479999999999948,-0.05297898113221705,-0.016341251969543242,0.7459867605807812,0.11306477716053162,-0.004205654074624483,-0.2747909005726563,0.7063423825947636,0.22212899192922125,0.7349962367472334,0.7696751261844166,0.7063423825947636,0.0,0.0,0.7931365827334024,0.07274964790865958,0.07251682566581306,8,False
164,5.466666666666667,3.4999999999999476,-0.052199148753859025,-0.016800531284786323,0.7455450435151444,0.10447003766718804,-0.01584329280324137,-0.27418576634558933,0.6688394013217405,0.21927505355698196,0.7688224777491994,0.7207338001134377,0.6688394013217405,0.0,0.0,0.7856039245887972,0.06800056452461223,0.0828118415080344,6,False
165,5.5,3.519999999999947,-0.05129070802464657,-0.017113128190525337,0.7454543304432852,0.09267637861342871,-0.024529384329294416,-0.2722013793372988,0.6819205546176117,0.19790401429662788,0.7532082822225052,0.5952966108526359,0.6819205546176117,0.0,0.0,0.7835012752945749,0.06628267477811069,0.09823390494599336,6,False
166,5.533333333333333,3.5399999999999467,-0.05013194788688274,-0.017339866583569556,0.7449763502403267,0.08392716904686655,-0.025732810355976302,-0.2668223380932644,0.651011077769226,0.19231003790915147,0.7657930370144321,0.6552249591548777,0.651011077769226,0.0,0.0,0.779182677215752,0.06328015106594037,0.16686366876937672,3,False
167,5.566666666666666,3.5599999999999463,-0.049650330488292385,-0.017656919227333204,0.7446665273653393,0.08697527333563676,-0.023568267369178282,-0.26319486882866466,0.6523822239623092,0.21148456669332708,0.7793487465746112,0.701422179275377,0.6523822239623092,0.0,0.0,0.7727532426675747,0.0597826949015389,0.1952343384879825,3,False
168,5.6,3.579999999999946,-0.04936931287079514,-0.017432602924185154,0.7450955026188538,0.09370069459562198,-0.024608940576550022,-0.25905313459002727,0.6121469631697019,0.2333361131309516,0.7670309804681428,1.079772490096409,0.6121469631697019,0.0,0.0,0.7747881248035342,0.06039593835862504,0.14914178233874054,2,False
169,5.633333333333334,3.5999999999999455,-0.04723280257885481,-0.01649401606277756,0.7456292945090364,0.08386246282297653,-0.021263433186733627,-0.2548450957506015,0.6240907995718505,0.22416407037635103,0.7298435674795382,0.8831975800987901,0.6240907995718505,0.0,0.0,0.7825276254726888,0.06278965037755777,0.12518657233005523,7,False
170,5.666666666666667,3.619999999999945,-0.04430099764983894,-0.016249434517871163,0.7464920250789208,0.07373098105015292,-0.009850325882872338,-0.24504535958590637,0.6010736221495464,0.2333120999626929,0.7253042423275862,0.9599669702529706,0.6010736221495464,0.0,0.0,0.7943680244885241,0.06776099803441202,0.16921070135180116,7,False
171,5.7,3.6399999999999446,-0.042725746659894565,-0.01636005225012049,0.7475465048370821,0.07069781230565034,-0.008325152901157318,-0.20485535020014609,0.6272928884954826,0.17753484927423005,0.7295403201350834,0.7232724710020121,0.6272928884954826,0.0,0.0,0.785839490728025,0.06009755132994502,0.3592698822798397,7,False
172,5.733333333333333,3.659999999999944,-0.04123643157596315,-0.01654542974779824,0.749165536252788,0.07206166325284619,-0.01135991448759186,-0.1394823974143353,0.6249716978647261,0.21331965152517146,0.7301122282708274,0.9086047404304244,0.6249716978647261,0.0,0.0,0.770815008765942,0.04995755654521142,0.5806308444356885,8,False
173,5.766666666666667,3.6799999999999438,-0.03931368702240129,-0.015674986618088502,0.7512324568185269,0.0746458182158374,-0.009182104136131268,-0.10337967898365664,0.61403290190058,0.20611581265024895,0.7230078737095375,0.7553326154433871,0.61403290190058,0.0,0.0,0.7823238362208231,0.05333718508935816,0.32282848065274594,7,False
174,5.8,3.6999999999999433,-0.03727978546104086,-0.01379945026509307,0.7532197933987261,0.07075732314707138,-0.0032397625247529726,-0.0884330807018405,0.6055950748188468,0.1901033751886111,0.7104430305182919,0.6426184546045888,0.6055950748188468,0.0,0.0,0.7871622159699532,0.0530176471716047,0.15183820392516387,7,False
175,5.833333333333333,3.719999999999943,-0.03561616200305401,-0.011838085427451057,0.7544170721858972,0.05866522387290138,0.0011793486787069827,-0.08421071954157151,0.619104772433582,0.1850236614408115,0.7002082522937281,0.6061000011246253,0.619104772433582,0.0,0.0,0.7892884668432419,0.05173060925702313,0.09277522868357148,6,False
176,5.866666666666666,3.7399999999999425,-0.035501042188111925,-0.00869964683097433,0.7548549896720008,0.05943477443447439,0.0012505031257818932,-0.07835673773987237,0.6236254191466446,0.19629391606884958,0.6984375098004649,0.5699862722282293,0.6236254191466446,0.0,0.0,0.7946504561679929,0.05421317115409517,0.08280176305695985,6,False
177,5.9,3.759999999999942,-0.03603232177494679,-0.005216236640107792,0.7541223206307085,0.06677515353336688,0.011042912314438009,-0.10923145034811267,0.5983719829844978,0.22705216027259745,0.7038345025667727,0.6938350010164956,0.5983719829844978,0.0,0.0,0.7201088914699907,0.04995322235758434,0.31096884226208515,6,False
178,5.933333333333334,3.7799999999999416,-0.037869573494442935,-0.0020359855605571195,0.7516551905355299,0.08231215893923599,0.019842617604516555,-0.16607255831546683,0.6567213698919296,0.24973984326842738,0.7327401967264159,0.9008268251480067,0.6567213698919296,0.0,0.0,0.6492190674247695,0.10976436176317425,0.613281802296086,6,False
179,5.966666666666667,3.799999999999941,-0.039450644561369284,0.0006074320173272991,0.7493758943164076,0.09149931695619783,0.020730328415938644,-0.17814586918534145,0.6385296113073857,0.22469634366280938,0.8036053011905172,1.0052406151574018,0.6385296113073857,0.0,0.0,0.7389856882122401,0.040644788278888185,0.25430895548388427,6,False
