frame,video_time_s,sim_time_s,root_x,root_y,root_z,root_roll,root_pitch,root_yaw,joint_target_abs_mean,joint_error_abs_mean,joint_error_abs_max,joint_velocity_abs_mean,ctrl_abs_mean,root_target_z,root_position_error_m,root_orientation_error_rad,contact_count,fall_proxy
0,0.0,0.2200000000000001,0.01685647757190175,-0.04488832140011925,0.07363265064650498,2.6036887078368744,-1.048848072586414,2.5525026574817433,0.16889677357877175,0.16140592030835493,0.8399874139673293,5.921376114630002,0.16889677357877175,0.05123699828982353,0.05076567372137575,0.442713352719186,2,True
1,0.03333333333333333,0.24000000000000013,0.00545492845337457,-0.052860357032105135,0.08707438027192788,-2.442897791361634,-0.7223511759200354,1.0956235721971688,0.1937000572124695,0.22060476273332338,1.1073664824966027,7.580719383211361,0.1937000572124695,0.0516510009765625,0.05902187233642395,0.6385158301335742,4,True
2,0.06666666666666667,0.2600000000000001,0.03018305809639575,-0.04773866719207005,0.13248983324041824,-1.8336676270389627,-0.9342594193737783,-0.2419663348429342,0.195647974682773,0.285436395697813,0.9802846121495838,14.429549279346263,0.195647974682773,0.052117399871349335,0.08225239641628343,0.9024910875945967,2,True
3,0.1,0.28000000000000014,0.0434985485129099,-0.03031932582857804,0.17585684925118356,-0.4532167832084804,-1.0241849562791312,-1.6877677761915169,0.22404866240467458,0.3299977761505944,1.490418870191546,7.552810399174359,0.22404866240467458,0.05260999873280525,0.1302702844112321,1.110619279981262,1,True
4,0.13333333333333333,0.30000000000000016,0.03199143947599353,-0.012068966712634487,0.14575426001325253,-3.0344554621762634,-1.1327050223250559,1.3477560529264019,0.2262693650249164,0.26491526033029933,1.1533201079610078,13.635706942882166,0.2262693650249164,0.05321719869971275,0.11104123438626681,0.39155667893017354,0,True
5,0.16666666666666666,0.3200000000000002,0.000963690077758211,-0.017207230540788706,0.16244352822389393,-2.5251609013831864,-0.09777922047545205,0.74722884349764,0.2181788287934937,0.38034300444886565,1.4925075643952002,9.492583106199257,0.2181788287934937,0.05381060019135475,0.0990321392320953,1.1835082272906947,1,True
6,0.2,0.3400000000000002,-0.006292639326066023,0.005524213632450156,0.20737104074736468,-2.5296213963425522,0.32030487137073604,0.08786861629017206,0.21196134174803405,0.3894039566968192,1.9437313085553463,7.660949965575606,0.21196134174803405,0.054376401007175446,0.1461481858973011,1.9699511634222029,5,True
7,0.23333333333333334,0.3600000000000002,0.020721642971119895,0.0015841009430999353,0.20824878337234368,-2.434906794190745,-0.3817614314195387,-0.44197253391024377,0.21895443215093274,0.32783263236147187,1.4009041395792385,7.572462973894009,0.21895443215093274,0.05438140034675598,0.1564535586384184,1.905338806955973,0,True
8,0.26666666666666666,0.3800000000000002,0.06166032261723223,0.02825147641914056,0.20278845471933818,-2.1623522525354373,-0.9626136597542361,-0.6338805997498157,0.21280563468862415,0.32923194115229587,1.576268460767567,7.637996227639218,0.21280563468862415,0.05410600081086159,0.1584925922472776,1.640211534881042,0,True
9,0.3,0.40000000000000024,0.11459224632126142,0.053988348340574914,0.1867083933694354,2.4137154978260575,-1.4350267120896636,1.6344870508770584,0.20052824622311524,0.35141228994433393,1.6592385502274298,9.412977846641887,0.20052824622311524,0.05283519998192787,0.1800577907744536,1.0299227249275695,2,True
10,0.3333333333333333,0.42000000000000026,0.18521803786117425,0.0033018052329011685,0.16366233609427672,2.41537993146211,-0.8284688580257262,2.0771705873487343,0.20352798694310192,0.35664018522664376,1.456142275916105,8.53555948823787,0.20352798694310192,0.05138780176639557,0.20148775484917383,0.6996587106331487,1,True
11,0.36666666666666664,0.4400000000000003,0.2504840615248084,-0.06121589686937258,0.20108328611284193,2.8483152870111352,-0.4201859922217119,2.2907395027301702,0.21829229749929907,0.38288825065132565,1.5997480734441547,9.079784968646582,0.21829229749929907,0.049587201327085495,0.270836835654752,0.952521306615087,1,True
12,0.4,0.4600000000000003,0.30101159400015687,-0.054808966865370456,0.26617393581314786,3.0863327342457705,-0.238616872410463,2.658017627740691,0.2164086634006178,0.4269476566381519,1.7187254925537117,3.8627281201316874,0.2164086634006178,0.048002999275922775,0.35436033858559296,1.3562629161639759,19,True
13,0.43333333333333335,0.4800000000000003,0.32526678286621225,-0.030832398242461045,0.3252587697990287,3.075791850194282,-0.1290212534670567,-3.094615590769846,0.22310646428455747,0.4391872836551869,1.6360432010137478,3.9920299136962334,0.22310646428455747,0.04652699828147888,0.4124909155168588,1.7323775490499365,11,True
14,0.4666666666666667,0.5000000000000003,0.31605256439048507,0.00841891211154483,0.39241713335711137,2.6223126059468136,0.11552514772161622,-2.293297310379588,0.2400631550973823,0.4366110718439579,1.6844593964509404,8.717711735050052,0.2400631550973823,0.04608960077166557,0.4547031507874098,2.1642106327431914,1,True
15,0.5,0.5200000000000004,0.2916173880902543,0.02564504133277924,0.46168408604802585,1.7483783163078683,0.2852665727285076,-1.93200645484361,0.2656318369749276,0.4635582085014534,2.365840038793279,9.039278948040993,0.2656318369749276,0.04587579891085625,0.4971182505491141,2.2371470522358883,0,True
16,0.5333333333333333,0.5400000000000004,0.31698073569002827,-0.01269142681004414,0.43654166526772026,2.047503467592259,-0.08115778797379729,-1.7920047800995027,0.29365560920575623,0.45591270466637074,2.349312589655435,12.881345432706093,0.29365560920575623,0.04610919952392578,0.500692269120041,2.1800118116737486,0,True
17,0.5666666666666667,0.5600000000000004,0.3739901881047761,0.0007485715482699485,0.4396514099257374,2.4639045217514353,-0.6622498150711155,-1.885690997596915,0.31291468863062916,0.45220715377169324,2.335348197999486,9.760975107231419,0.31291468863062916,0.046448200941085815,0.517649452382903,2.0882974016613063,4,True
18,0.6,0.5800000000000004,0.41585490115752427,0.12374849776199782,0.4934446372698972,-2.186710795126983,-1.0027740382394428,3.1300706898647395,0.332438896952853,0.511919808296942,3.0037066261105982,13.122809321191939,0.332438896952853,0.04684000089764595,0.5979180294640464,2.219376756936479,0,True
19,0.6333333333333333,0.6000000000000004,0.3192661748991539,0.3301377839456295,0.5083534363597406,-1.3290476366084751,0.18242523371227468,2.5021938412446314,0.3382042128595246,0.5689740725598661,3.356648506966745,17.460102107182692,0.3382042128595246,0.04712500050663948,0.6512474284643921,2.5749381632453545,3,True
20,0.6666666666666666,0.6200000000000004,0.15775628735654926,0.39815612070298306,0.42603475129364937,-1.5661693230806988,1.0294930967174172,2.5424102597331273,0.3392556096867859,0.7650533020612534,3.894862212979766,12.290265379092851,0.3392556096867859,0.04738239943981171,0.5914830087746986,2.7525418254008716,1,True
21,0.7,0.6400000000000005,0.09490743720657414,0.38154097712223767,0.4171132835002488,-1.1506096906476506,0.7995659469678792,-2.6348510798384397,0.3260647536957844,0.748978230967661,3.4542666205240433,11.888592236640712,0.3260647536957844,0.04758460074663162,0.5458690785756769,3.075356812076673,1,True
22,0.7333333333333333,0.6600000000000005,0.09406060221895922,0.40672002863854567,0.427878281350085,-0.8746089665067507,0.10810033194805682,-1.4609911188912257,0.31628928991728955,0.680943666018437,2.934594651106418,8.627286907980087,0.31628928991728955,0.04772479832172394,0.5552595825525526,2.262023589942443,0,True
23,0.7666666666666667,0.6800000000000005,0.07851936184434742,0.48162840291546494,0.45791111586317773,-1.0064745720711945,-0.31482810244899323,-0.5607591670370958,0.3026501879554004,0.6479155173934913,2.872117020109258,8.08389029241912,0.3026501879554004,0.04783400148153305,0.618213032563949,1.4261054376750855,1,False
24,0.8,0.7000000000000005,0.02408542595074839,0.58816425311537,0.4724643880384739,-1.1951773395906264,-0.2010082471527093,0.14713616027377166,0.30619038070532656,0.6806774813856082,3.231992456654849,4.855352122695723,0.30619038070532656,0.04792160168290138,0.7121493084349318,1.3133247744434426,0,False
25,0.8333333333333334,0.7200000000000005,-0.06485196484932312,0.6446727601947077,0.45037932770904204,-1.2137947053444094,0.05910390213865964,0.3559935780924872,0.30354496031659123,0.6506886737655914,3.28293120174661,7.017320375443438,0.30354496031659123,0.04801519960165024,0.7652313753958205,1.5967118543691419,0,True
26,0.8666666666666667,0.7400000000000005,-0.1263530714129666,0.6571185292576941,0.42616037326245937,-1.2754799888544075,0.17913256744082784,0.3444280614612198,0.31430939380351297,0.6412221494593574,3.2907699223068576,6.8770921078365,0.31430939380351297,0.04812080040574074,0.77582859576271,1.7210051715631876,0,True
27,0.9,0.7600000000000006,-0.15765182816144072,0.6812066699176973,0.40448979767066073,-1.424344482533292,0.30093326466379927,0.4284279580943067,0.31966508137648186,0.6240954558114029,2.864668847903194,6.20256899588347,0.31966508137648186,0.048248399049043655,0.7875001413283091,1.8156928270833195,0,True
28,0.9333333333333333,0.7800000000000006,-0.19441408991489448,0.7344291322832643,0.3849439004800981,-1.4391169365664225,0.4309587420329793,0.7494777482787078,0.32563505741892784,0.5533614630137962,2.4046153008957765,5.530478571636694,0.32563505741892784,0.04838699847459793,0.8272879802310794,1.9204163478903933,0,True
29,0.9666666666666667,0.8000000000000006,-0.23614618253204023,0.7793225183133923,0.3720965956042467,-1.2032729994697537,0.5966105383531801,1.141723202013087,0.32727459100730544,0.4774979297875498,2.013158598161451,6.552515343225586,0.32727459100730544,0.04856700077652931,0.8790155870417271,2.190972291593379,9,True
30,1.0,0.8200000000000006,-0.26618106525765484,0.7977695257991487,0.35821394606753443,-1.103634588469064,0.7166990847105539,1.297775361152013,0.3402522409311998,0.4246149039601214,1.575012326098336,5.547083282439612,0.3402522409311998,0.048752401024103165,0.9054155225132194,2.4444657937233893,4,True
31,1.0333333333333334,0.8400000000000006,-0.2962523736141052,0.7825234219027586,0.3179358068318621,-1.5175481835041846,0.4376833999441631,1.3352397939276364,0.35337159519914013,0.4049708246183776,1.6204608364624662,8.93391348167912,0.35337159519914013,0.04894860088825226,0.9004560661569959,2.177500615062901,1,True
32,1.0666666666666667,0.8600000000000007,-0.31094205156679616,0.7342468216726573,0.30406174951974335,-1.323451174411553,0.04468302998046202,1.8812743886072245,0.3650535990836948,0.434346556526506,1.685773611553025,6.0049453728499635,0.3650535990836948,0.049120400100946426,0.8596508647525782,2.1279357549835702,3,True
33,1.1,0.8800000000000007,-0.30287176323774945,0.7024003873471325,0.29711031238202407,-1.023464258742822,0.17990962338585859,1.9194671648935107,0.37812669884284766,0.3926127629076608,1.348751655216481,7.217068239360037,0.37812669884284766,0.04927999898791313,0.8250503382126214,2.452066436162195,0,True
34,1.1333333333333333,0.9000000000000007,-0.3030849744779227,0.6798128720676268,0.23246510799786374,-1.6037927685319164,0.15240538234344056,1.5060726797280577,0.39010279361310896,0.36124612495635283,1.6221353174125603,9.936626858297398,0.39010279361310896,0.04938020184636116,0.7926292973310503,2.096108572456232,1,True
35,1.1666666666666667,0.9200000000000007,-0.26742163961723725,0.6668918799577801,0.1711284758080652,-1.7834038903119742,-0.7221878223808368,1.8100581880497515,0.40361238625059415,0.42011993714741147,2.249744477005714,6.747963575889893,0.40361238625059415,0.04946859925985336,0.7521569953636945,1.4901865930282006,1,True
36,1.2,0.9400000000000007,-0.20685380599944664,0.6367891981249808,0.15754711689030337,-1.551559576304316,-0.8234602233220264,2.22113644318063,0.41939602534772075,0.4354561437308531,2.1101440550740045,8.667856090079548,0.41939602534772075,0.04953340068459511,0.7061728088627696,1.9165887284369647,2,True
37,1.2333333333333334,0.9600000000000007,-0.17625440820252558,0.606253755566468,0.15242776886730372,-1.6804472799779921,-0.4254978984350065,2.1413120840163287,0.4354089515487088,0.38048918365190054,1.9224832092126714,8.44512308652942,0.4354089515487088,0.04958539828658104,0.6612676618052706,2.069899673008777,9,True
38,1.2666666666666666,0.9800000000000008,-0.17377912579509552,0.5952863090415779,0.1276005596153646,-2.327435626721425,-0.5004573511777117,2.0463922392296854,0.4464612423529889,0.4261206572440899,2.1166878981836224,6.932630331238796,0.4464612423529889,0.04963099956512451,0.6413748812795053,1.4445632332995684,9,True
39,1.3,1.0000000000000007,-0.1726094229055782,0.5845949480637428,0.12725238332323813,-2.4819334298614963,-0.6710479317044693,2.241850699311631,0.46214506180259995,0.4143635776727438,2.377048692061253,3.7887621934538953,0.46214506180259995,0.04965920001268387,0.6319179599705549,1.2809466204581705,0,True
40,1.3333333333333333,1.0200000000000002,-0.17158117645142207,0.5730968807041301,0.13452890866169906,-2.3886150470928724,-0.7463656106482489,2.3965108969485365,0.4828411918917234,0.3757342640456531,2.3813108836336894,4.463556099243207,0.4828411918917234,0.04967980086803436,0.6218616432974041,1.4222321926796377,0,True
41,1.3666666666666667,1.0399999999999998,-0.17856932369334677,0.555348064387047,0.1480838327196001,-2.2097145958393023,-0.7238726460965793,2.3835855622856634,0.5032557609586356,0.3257656080234134,2.207874106532117,4.32586184791254,0.5032557609586356,0.049685198813676834,0.6107966684217654,1.595923045792992,0,True
42,1.4,1.0599999999999994,-0.1917106224924855,0.5256965578070847,0.16285307459337636,-2.1461899094725005,-0.6888788204736739,2.300246592813449,0.5227861892181486,0.303418853175177,2.009886101091468,3.1843096312399988,0.5227861892181486,0.04969180002808571,0.5930419145627549,1.6239530415424346,0,True
43,1.4333333333333333,1.079999999999999,-0.19489655038918752,0.49234078528442704,0.18407266085926707,-2.2041179789915017,-0.7695407165455352,2.2931513184307826,0.5361003381256658,0.2868334220006271,1.9574884037218179,2.1038528877944414,0.5361003381256658,0.049699001014232635,0.5686250171367913,1.5508531101732717,1,True
44,1.4666666666666666,1.0999999999999985,-0.18493926187501014,0.4614015515908085,0.21021394068141538,-2.415863915509126,-0.9232937122478989,2.4757354994755554,0.5476566019710561,0.2814984302441179,2.041478102712338,2.5867358317967546,0.5476566019710561,0.04971640184521675,0.5449176090069803,1.4756357176428962,1,True
45,1.5,1.119999999999998,-0.1722176855361,0.42951352976857105,0.23321715219781455,-2.79965402826383,-1.0597827346324977,2.9511051654818043,0.5583663258431064,0.2700706386878556,2.1639912485800434,2.8675483597809532,0.5583663258431064,0.0497342012822628,0.5203265108826276,1.5088253738073485,1,True
46,1.5333333333333334,1.1399999999999977,-0.16377122668476413,0.39409219967277415,0.2577280276757934,3.126590947089247,-1.1183162763883217,-2.8753850169518187,0.5708529889929207,0.26366024517771486,2.137892413042147,2.063334148914484,0.5708529889929207,0.04975280165672302,0.49638366969437,1.6370578160025242,7,True
47,1.5666666666666667,1.1599999999999973,-0.15703979217014863,0.35913992572036013,0.27943590370356775,2.677672517837611,-1.0974024588836682,-2.4859574091875762,0.5819719722522038,0.2532773321053515,2.0744427098906892,1.87037707970622,0.5819719722522038,0.049780599772930145,0.47520107593326805,1.6307651108842698,1,True
48,1.6,1.1799999999999968,-0.1474249283611437,0.32008276540383057,0.3003376317291062,2.2239113493335836,-0.9660116547016206,-2.057458937812073,0.5895824535677548,0.2524900247893184,2.0537354305620314,1.8825024109280142,0.5895824535677548,0.04981299862265587,0.4537243559614099,1.6418417535693823,0,True
49,1.6333333333333333,1.1999999999999964,-0.13398826281611181,0.2717081074962172,0.3183646535401648,1.973481905690096,-0.8177437164296618,-1.791503426731079,0.5974665981793436,0.24758807801608737,1.9614493844095722,1.5854840851683323,0.5974665981793436,0.049851998686790466,0.4267692042292739,1.738123452495035,0,True
50,1.6666666666666667,1.219999999999996,-0.11659778401624636,0.2204485724998644,0.3285892618548973,1.79268878967313,-0.6925394778366061,-1.6893351868388133,0.6022568723570337,0.23259867695239309,1.8354419408915001,2.731306608436977,0.6022568723570337,0.0498926006257534,0.39509846660837833,1.7582941550554254,4,True
51,1.7,1.2399999999999956,-0.09702351127874474,0.1766415882026019,0.337593240475369,1.6482979695146331,-0.6515259561526382,-1.7231621376538548,0.6093539089130561,0.2132259487192497,1.6851711549111206,4.220510162732508,0.6093539089130561,0.04993639886379242,0.3675144233273248,1.6873121553445614,4,True
52,1.7333333333333334,1.2599999999999951,-0.07464079851963963,0.13468429541986637,0.34774763086983507,1.4784060244580526,-0.617681859694928,-1.7457095157839033,0.6107399384752745,0.2406811172002212,1.5826288184892503,3.5600524933412707,0.6107399384752745,0.04997580125927925,0.34992843901354914,1.5450803996108158,2,True
53,1.7666666666666666,1.2799999999999947,-0.04743709302943668,0.08566820222332729,0.34307507415441,1.391903369041146,-0.6353251412079615,-1.7472469907432342,0.6130702619276087,0.2490259375642032,1.4097928020520856,3.1228590198709734,0.6130702619276087,0.05001299828290939,0.32438523541029946,1.4962245126800846,0,True
54,1.8,1.2999999999999943,-0.017851789578788007,0.03482028411066402,0.32036510211475877,1.2745427341120807,-0.7774433791209506,-1.8286869230539196,0.6136769554698935,0.2326102174660867,1.2794478126961328,3.5299388801818563,0.6136769554698935,0.05004420131444931,0.28655374301662984,1.3092122326691813,12,True
55,1.8333333333333333,1.3199999999999938,0.009248877715723022,-0.010729348521131185,0.29568385223863064,1.0193854571292136,-0.8626972934600146,-1.848250814540545,0.6092565511279864,0.24042883130308457,1.2599281138168126,2.82477685153464,0.6092565511279864,0.050074800848960876,0.2517690227901149,1.0576147400424032,3,True
56,1.8666666666666667,1.3399999999999934,0.03261975474358499,-0.045554108965220094,0.27611547282974613,0.8343210866843277,-0.7691156862694403,-1.823596047056731,0.6077126564875559,0.2574035399197086,1.321946987628695,2.891825299217075,0.6077126564875559,0.05010420083999634,0.23268905524746913,1.0264203633319393,1,True
57,1.9,1.359999999999993,0.0559265727135019,-0.07212153892882397,0.2568502494914168,0.6427606252784624,-0.8020760085359694,-1.79634012361855,0.6094429607974605,0.27184238754657014,1.2094419279060167,1.8485456764543704,0.6094429607974605,0.050128400325775146,0.2193512037465289,0.987355277070481,0,True
58,1.9333333333333333,1.3799999999999926,0.08051903161203094,-0.0969277459050727,0.24759237371617504,0.4487127544102009,-0.6750948033929599,-1.772126541468346,0.603805207361866,0.2672205787962683,1.188079788405641,2.1754056161524544,0.603805207361866,0.05014999955892563,0.22256209040595382,1.033300592526709,3,True
59,1.9666666666666666,1.3999999999999921,0.09962396194884181,-0.11811016581617356,0.2274799487679113,0.3884033645417866,-0.6454833118137788,-1.81347127820443,0.6015611732991636,0.26278258245923686,1.070980584180665,2.52971937477386,0.6015611732991636,0.050169799476861954,0.2226512318231354,1.1069586780655454,3,True
60,2.0,1.4199999999999917,0.11069932113699316,-0.13917028295196907,0.20795045966894243,0.25429678327248195,-0.6234344904825828,-1.817292088259138,0.5966108847667806,0.25421215414664555,0.9286922280900982,2.084226339368493,0.5966108847667806,0.050186000764369965,0.22230054783127895,1.1233515433036594,2,True
61,2.033333333333333,1.4399999999999913,0.11499562332611547,-0.1528489396482611,0.1850474799707011,0.17498320037782256,-0.6902680663118818,-1.8145527077297519,0.5918183117434902,0.25065498797434543,0.9157634049930732,3.1029374973030572,0.5918183117434902,0.05019500106573105,0.2191865886085177,1.116188812660223,1,True
62,2.066666666666667,1.4599999999999909,0.11739006136505412,-0.1620717540037919,0.16794374784278512,-0.03454204244346049,-0.7616231635164242,-1.7219051264532539,0.5821575682129648,0.23843815375938954,0.9592737005065084,2.441868818606745,0.5821575682129648,0.05020679906010628,0.2147927057645901,1.0479959355725557,2,True
63,2.1,1.4799999999999904,0.11482863850993319,-0.16466747817469002,0.15382390262682366,-0.15102700330288418,-0.8734600244385105,-1.6476283061093517,0.5757998519448743,0.225669046855824,0.9509073825541858,2.9384178640615346,0.5757998519448743,0.050220001488924026,0.21026701521904045,1.0015248763052198,2,True
64,2.1333333333333333,1.49999999999999,0.11440117169479792,-0.16518897805032018,0.14418573044770133,-0.3963462326461116,-0.9904009607793369,-1.4641730822387709,0.5756472539920832,0.22591285081707765,0.887585703364938,2.2968280283174805,0.5756472539920832,0.050243400037288666,0.20409929508350214,0.8935534185021075,1,True
65,2.1666666666666665,1.5199999999999896,0.11155400192363203,-0.16160219139388401,0.13856022579042518,-0.5737066136555012,-1.1105897846707962,-1.2920573162352893,0.5706837193732239,0.22174390670820926,0.8681304730145185,2.2112975014372953,0.5706837193732239,0.05027259886264801,0.19894634637993927,0.8136940576390538,1,True
66,2.2,1.5399999999999892,0.10929815769408732,-0.15419827452758575,0.1351172225884523,-1.0624433782398086,-1.2522467554564265,-0.7866199348539404,0.5686040147869381,0.2329016665764645,0.8469234191180736,2.5711542870745157,0.5686040147869381,0.050313398241996765,0.1902904433587309,0.663360488303162,1,True
67,2.2333333333333334,1.5599999999999887,0.11327726443087788,-0.14906991009249226,0.1419093549900944,-1.4857691560827382,-1.273736630339209,-0.38305366076779496,0.5692602472403967,0.23661255886704785,0.9438418004625317,2.0762506657577706,0.5692602472403967,0.05035980045795441,0.1889284390299876,0.5983236986590468,1,True
68,2.2666666666666666,1.5799999999999883,0.12281689755739278,-0.14146163380199428,0.14858794126759314,-1.4524813678830957,-1.2988463376474357,-0.44664026720620126,0.5682103340095576,0.22088250975515059,0.9409249537263868,2.4621102328111495,0.5682103340095576,0.05040900036692619,0.19272298522085843,0.6156671913665424,3,True
69,2.3,1.5999999999999879,0.13088307500647167,-0.13729722757686627,0.14417761217040373,-1.161895179994468,-1.3793942025729442,-0.7416350950173731,0.5666683370245722,0.2056005097553294,0.9206203545185101,2.7481391442092664,0.5666683370245722,0.050453998148441315,0.19321748695372803,0.6177984618038247,4,True
70,2.3333333333333335,1.6199999999999875,0.1321696595159881,-0.14283590242692942,0.12851438298994636,-1.1003938507016413,-1.4576607911622423,-0.7672473041546414,0.5686484796284665,0.20301669191039723,0.968801412422583,1.8629051822969234,0.5686484796284665,0.05049600079655647,0.19084286022279373,0.5769474629628979,3,True
71,2.3666666666666667,1.639999999999987,0.13392662354430368,-0.14713420772734798,0.11031716103788104,-2.029406822307649,-1.3657402787786568,0.1669838754688846,0.5643227809641328,0.22270773585551737,1.0853134307318673,2.240540860546384,0.5643227809641328,0.05053199827671051,0.18803593662072896,0.5196891730668609,5,True
72,2.4,1.6599999999999866,0.13733974925941458,-0.14597646822424246,0.10579506483619076,-1.917337560663101,-1.345203833486609,0.026534212304712586,0.5669521900845125,0.21937264753295238,1.0512941048072824,1.4766109666073168,0.5669521900845125,0.050567999482154846,0.18803604153689815,0.5659408813604286,3,True
73,2.433333333333333,1.6799999999999862,0.13353435879118034,-0.14164193898178568,0.09590777208688063,-2.312506775937294,-1.4869915625737147,0.5190485397337116,0.5646915075065914,0.20741436927189702,1.0328564541129301,1.7654033064351116,0.5646915075065914,0.05060400068759918,0.18160158563873116,0.4811327364098061,1,True
74,2.466666666666667,1.6999999999999857,0.13546912716663767,-0.14159168541372086,0.08301501363499367,-2.538979482396386,-1.385042666198114,0.7790808834205506,0.5589617009310914,0.21215704264154275,1.0739698174911352,1.8882707679434223,0.5589617009310914,0.05068020150065422,0.1781386993210932,0.4031768662181756,1,True
75,2.5,1.7199999999999853,0.13907566785078246,-0.13951503736231546,0.08055506932221246,-2.370910356394997,-1.3725176136398158,0.6030184438319097,0.5548894900310021,0.19768203781350233,1.0162820975097482,1.175236047909263,0.5548894900310021,0.05080980062484741,0.179027734023335,0.42207041001970624,3,True
76,2.533333333333333,1.739999999999985,0.14037659611382902,-0.13694406105949566,0.08025981205013129,2.5823570914188294,-1.5135039371049197,2.006122723547397,0.5540131653016779,0.1775512461578477,1.020574654320967,2.880118567999655,0.5540131653016779,0.05104620009660721,0.17807462813751407,0.37891580201112895,3,True
77,2.566666666666667,1.7599999999999845,0.14541423285510016,-0.1361821049159188,0.08104669442876167,1.72117994257004,-1.3815096598042502,2.985041284412065,0.5495631686450453,0.18464581962850452,1.0727599930968714,1.2308283864803595,0.5495631686450453,0.05123100057244301,0.18268625371452551,0.3677499145746715,3,True
78,2.6,1.779999999999984,0.15286579636862058,-0.1327966541490231,0.08011272349121794,2.098986489411715,-1.3858029112226666,2.669458026180614,0.551658664116976,0.18346145000543929,1.06378090174478,1.954296561414215,0.551658664116976,0.05138999968767166,0.18930808925060738,0.3231149938265635,3,True
79,2.6333333333333333,1.7999999999999836,0.1608372814490433,-0.12724628204847105,0.08426003810487842,2.9613776037915143,-1.4476045620039377,1.775977470704965,0.552001651382717,0.18198791663386682,1.0326928570213547,2.011090291971372,0.552001651382717,0.05048760026693344,0.19149301740536342,0.2173689082811684,0,True
80,2.6666666666666665,1.8199999999999832,0.1654671198441943,-0.12006185849408761,0.09225108476063394,1.5766142705096373,-1.4619907970974184,-3.1027435621434623,0.5475406517851023,0.16403135672841399,1.0128480158517335,2.366945529064903,0.5475406517851023,0.04979480057954788,0.1937981063002561,0.27412135172302426,2,True
81,2.7,1.8399999999999828,0.16114062766341025,-0.11179802735639552,0.08048563584188116,2.279173341955843,-1.3980356554739528,2.604691187819182,0.541841090874881,0.19849131763765057,1.0692445560220096,2.916720555096859,0.541841090874881,0.049521200358867645,0.18487894244012543,0.28409463238637994,3,True
82,2.7333333333333334,1.8599999999999823,0.16373203133299086,-0.1045220396438396,0.07638973713081983,-2.5378016977970526,-1.351735187642911,1.0495390031622287,0.5496872940298557,0.20742015326606664,1.0468424697366587,3.326001532165605,0.5496872940298557,0.049372799694538116,0.1783506979544011,0.10159702489779004,4,True
83,2.7666666666666666,1.879999999999982,0.16505403862286466,-0.095001033873104,0.07982262529355655,1.2148604490580979,-1.4147150767311154,-2.676893403905401,0.5520599178644233,0.16449348056831747,1.091465902269446,5.507119761217315,0.5520599178644233,0.04928699880838394,0.17890290360644684,0.26746311491843955,2,True
84,2.8,1.8999999999999815,0.15362296651267374,-0.08766198242358744,0.06646614777783091,2.5071669104281704,-1.3995219331713258,2.4912479153662677,0.5526383522319746,0.2103860273933309,1.1137249585227373,4.252358428590006,0.5526383522319746,0.04925220087170601,0.1618946329566951,0.30967490406423526,4,True
85,2.8333333333333335,1.919999999999981,0.16086483201285875,-0.080754325336098,0.08494284456938926,-2.1237565551909157,-1.4114429504800161,0.6661211143620857,0.552655950370905,0.20688006136819276,1.005083458531758,4.190236881999953,0.552655950370905,0.04922400042414665,0.16255083581313418,0.08444851048871521,3,True
86,2.8666666666666667,1.9399999999999806,0.15730667323612663,-0.07158374148531808,0.08958588807974721,1.2226070111041722,-1.3245110291914362,-2.560465132499571,0.5448053061461379,0.1660932021602772,1.0826240351731473,4.866589748379415,0.5448053061461379,0.049208998680114746,0.1643423407469603,0.3750117010378522,4,True
87,2.9,1.9599999999999802,0.1492867296398355,-0.06420574741638432,0.07145134228439252,-2.696861090294276,-1.316410564092611,1.3961092105639064,0.5419646117258505,0.2152547189196218,1.088349568560945,7.223846955628291,0.5419646117258505,0.049204401671886444,0.14647308285389382,0.1691658822309928,3,True
88,2.933333333333333,1.9799999999999798,0.15754819315864915,-0.05273434204926259,0.08733832515393415,-1.4565090793204192,-1.4959311412717904,-0.024055659710001356,0.5378830930623877,0.19439933269804677,1.0324493143791758,6.17550836640821,0.5378830930623877,0.049205001443624496,0.1511439015803449,0.1705063844146555,4,True
89,2.966666666666667,1.9999999999999793,0.14546709576759065,-0.04531875196120174,0.06754574505592942,2.137017449774971,-1.3728238439399227,2.897107539964341,0.5308413897462807,0.17952740657507368,1.1277789730179149,4.412429896507822,0.5308413897462807,0.04921159893274307,0.14005320692867262,0.3363055839458419,0,True
90,3.0,2.019999999999979,0.14234195041621175,-0.03794189048905124,0.07312603599142938,-2.382194141417171,-1.190071313213165,1.0024042328336478,0.5274243990999415,0.22685400676541503,1.0994164105947024,5.479524309082317,0.5274243990999415,0.04921939969062805,0.12899795632394526,0.1744942126797566,4,True
91,3.033333333333333,2.0399999999999787,0.1461392558327664,-0.02234743180747475,0.08734379848664656,-3.0091063105483653,-1.5405936619250793,1.5920902227200513,0.5212804480365968,0.18788352410503134,0.9502514354232263,5.60735023872511,0.5212804480365968,0.04922959953546524,0.13667032150480043,0.14500511883647893,1,True
92,3.066666666666667,2.0599999999999783,0.13375683835569357,-0.014890737431577934,0.07076053496167414,-3.05570498854696,-1.2976972436798873,1.8123289546214016,0.5145767413273648,0.1921564540598333,0.9717230932853218,4.598069471995687,0.5145767413273648,0.04923899844288826,0.12169900783077843,0.1954930583215184,1,True
93,3.1,2.079999999999978,0.1299709332909793,-0.0036238143285079946,0.0845016752069937,-2.4615999968042486,-1.2098846806966688,1.0955247327252042,0.5081083724397887,0.1956050141741416,1.096169769622363,3.0910183848351496,0.5081083724397887,0.049247998744249344,0.11620265645100446,0.21032413735103664,2,True
94,3.1333333333333333,2.0999999999999774,0.12658005472268385,0.010287255963553383,0.08907713330249475,3.113154680199384,-1.384669832844981,1.8736615264804082,0.5068844251662303,0.1679854235717238,0.8909423574148936,3.56827497660625,0.5068844251662303,0.04926300048828125,0.12007960495176981,0.05091542074408077,0,True
95,3.1666666666666665,2.119999999999977,0.1146597836796083,0.016152628819138735,0.0824171210141635,-2.773854998002369,-1.1883736607261193,1.5596316165824582,0.5028850613440714,0.17655356724500137,0.8544409165071272,3.655393159340126,0.5028850613440714,0.049278199672698975,0.10747936602605852,0.23884649645645306,3,True
96,3.2,2.1399999999999766,0.11593196699565046,0.029002004382526807,0.0958408146245872,-2.3785702544441363,-1.2678792139488566,0.9908030511317725,0.5024821851560012,0.17645324072979987,0.9534346358030247,4.125952220160203,0.5024821851560012,0.04929380118846893,0.11195339981971911,0.21053953118003543,2,True
97,3.2333333333333334,2.159999999999976,0.11194224981036335,0.036241229250556554,0.0853432713481998,2.805670052706496,-1.3426273027255107,2.2713426332590196,0.5012980814036093,0.15545199020279846,0.8590847227584355,4.4164891115034886,0.5012980814036093,0.049316998571157455,0.11533491188170984,0.17322565652521602,0,True
98,3.2666666666666666,2.1799999999999757,0.10199792151058451,0.03852391168230615,0.07837411184236104,-2.5689902718865265,-1.1149746240837446,1.3264013428589723,0.4999655797979912,0.1690124227884102,0.8756458370005578,5.581761154995398,0.4999655797979912,0.04934399947524071,0.10146257608614334,0.29136610966409393,2,True
99,3.3,2.1999999999999753,0.1087566386837026,0.052220252198054484,0.09002974114762059,-2.4769372458717904,-1.4401422316468386,1.0741174360939258,0.495309131237526,0.19299536645655427,0.8350167641695743,5.907464325401567,0.495309131237526,0.04937940090894699,0.1158361117274669,0.13843222079243223,3,True
100,3.3333333333333335,2.219999999999975,0.1020074951185165,0.05236369289493827,0.06638472076405282,2.9375608513808884,-1.2582503010609833,2.224594972547634,0.49837465137740494,0.16090098603685027,0.9300451445240219,4.375815489230014,0.49837465137740494,0.04941299930214882,0.10985314798442292,0.3056921375966152,1,True
101,3.3666666666666667,2.2399999999999745,0.09976880827825971,0.05604685928445459,0.07708592029059651,-2.420217740569683,-1.1119333254037063,1.069487362907773,0.502474269270438,0.18630690852768964,0.9511758091593534,6.258391655620781,0.502474269270438,0.04944299906492233,0.10497834986945646,0.30455208807704975,2,True
102,3.4,2.259999999999974,0.10716820157500243,0.06372906371360608,0.08636147762005733,2.4755738802057623,-1.4745359774007958,2.4351910746755934,0.5039391781459956,0.21514663690882688,1.166068152480338,6.997959122971005,0.5039391781459956,0.0494690015912056,0.12427128197014127,0.1307569266725887,0,True
103,3.433333333333333,2.2799999999999736,0.09950756893931027,0.05866240626551536,0.0657329824611961,-3.1005419330492945,-1.1726051107303008,1.9611530323924034,0.5024282284679363,0.17961331060186272,1.046048208667567,5.238383762157781,0.5024282284679363,0.04949299991130829,0.11194377141468131,0.32968782170868854,2,True
104,3.466666666666667,2.299999999999973,0.10046075506574127,0.06432393588831757,0.08724705449831285,-2.423889631676321,-1.14587636435486,0.9651541329278579,0.5028626908029239,0.20520109912863366,1.478550617542013,6.566432492503766,0.5028626908029239,0.049531400203704834,0.11176586001657793,0.3066985086868055,1,True
105,3.5,2.3199999999999728,0.10403687566214762,0.06490530149483263,0.09240248513872597,2.8795997169383685,-1.4187201245000283,1.9837638211331559,0.5017999520761184,0.2232572346304317,1.6355453815834045,5.461855035324413,0.5017999520761184,0.049572400748729706,0.12602639723695544,0.14908553140503494,0,True
106,3.533333333333333,2.3399999999999723,0.09393981879323265,0.055423292756811196,0.07127785478656434,-2.94146817164611,-1.079051609313312,1.7163918351978842,0.5059775929581156,0.1899665584504633,1.172187358788616,5.089761016232897,0.5059775929581156,0.04961860179901123,0.10874478829490244,0.3005044025652416,1,True
107,3.566666666666667,2.359999999999972,0.08687441542160504,0.059051560945029336,0.08641349331264511,-2.4362793596556265,-1.0383074853156875,0.9313379485969283,0.5079307679688372,0.21509919380821052,1.607415819905273,4.665946952669307,0.5079307679688372,0.049670398235321045,0.10361857674450034,0.4007222698396332,3,True
108,3.6,2.3799999999999715,0.07902300783232001,0.06160277610833371,0.0898144303982958,-2.5132577129786466,-1.2977908616276845,0.9848399306668179,0.5103633388247587,0.2303480772449882,1.6492443883827164,4.064905350138428,0.5103633388247587,0.0497249998152256,0.10701940125387484,0.25582609356209113,0,True
109,3.6333333333333333,2.399999999999971,0.06620956137843743,0.05844843883309658,0.07337057006187385,-2.732714566171877,-1.1304357506915588,1.359538899076051,0.5112433972562649,0.2058780715032051,1.1709615977859764,3.766922677793532,0.5112433972562649,0.04979339987039566,0.09261068016793013,0.2013062634465323,2,True
110,3.6666666666666665,2.4199999999999706,0.05937849587601518,0.06177544021485316,0.07710191736363803,-2.43890240304762,-1.060678307155873,0.9212153944207124,0.5139372308988395,0.1934586590046317,1.2663407743071893,3.3049677122553494,0.5139372308988395,0.0498615987598896,0.0874068761923075,0.3670462576218826,1,True
111,3.7,2.43999999999997,0.06158443299029014,0.0697485141482151,0.08090332246885779,-2.4664549274721534,-1.3657999671662044,0.9125886347440415,0.5122890512832625,0.20352748946221533,1.237772607412443,4.206102248876802,0.5122890512832625,0.04992939904332161,0.09902968313664402,0.25995009841002925,1,True
112,3.7333333333333334,2.4599999999999698,0.05662107941675408,0.06790749685731787,0.0676083338567416,-2.926383469061255,-1.2236900224225982,1.569958876108447,0.5121041751852694,0.17962839749636925,0.8674496293160228,3.426535522664559,0.5121041751852694,0.049997199326753616,0.0931607267270033,0.13956749199782362,2,True
113,3.7666666666666666,2.4799999999999693,0.05432792122594161,0.06891050905784409,0.07451251733136209,-2.5678843212456024,-1.1158453244720048,1.0957626379909642,0.5136360694076166,0.17126846746116306,0.8455620330833022,3.565956486995839,0.5136360694076166,0.05006499961018562,0.09148008393059874,0.28561572085636733,5,True
114,3.8,2.499999999999969,0.061226955029176286,0.07715318901677923,0.09114980015865412,-2.6724320396439247,-1.456710291733346,1.1333414537162305,0.5140091196061803,0.18062311341547546,0.8998139042392637,5.589381026923764,0.5140091196061803,0.05013459920883179,0.10688733680540437,0.22933983336174152,1,True
115,3.8333333333333335,2.5199999999999685,0.05539431152573366,0.07149292649178293,0.07393975489335271,2.9140675707887906,-1.2332514206401148,2.09853230163315,0.5121373133139443,0.18180958328596192,0.8661986571623882,4.8379513462519705,0.5121373133139443,0.05020400136709213,0.10177523665329974,0.23040148947570693,1,True
116,3.8666666666666667,2.539999999999968,0.04817684467325105,0.06530429638384434,0.07041112128053835,-2.582666856331945,-1.088311231375958,1.1098387708134123,0.5120290168570073,0.174396457163042,0.9173262608825818,6.693923674842266,0.5120290168570073,0.050273001194000244,0.08736288362051423,0.3069478220852974,4,True
117,3.9,2.5599999999999676,0.0603248168647452,0.0693948974393836,0.09476936549894205,-0.4289360663619456,-1.424459981389769,-1.2533652371393003,0.514042215240604,0.21317320131473397,1.3404587055844877,6.826701328419586,0.514042215240604,0.05034159868955612,0.1022513565800328,0.421413718297889,9,True
118,3.933333333333333,2.579999999999967,0.05758619278746261,0.059896629231838125,0.06100129222426195,2.389041449143749,-1.3080240657385394,2.5631390788119255,0.5142051223107427,0.2058740538716337,0.9290519212112405,7.427644800168801,0.5142051223107427,0.05040999874472618,0.09139638074758347,0.3470311535279166,0,True
119,3.966666666666667,2.599999999999967,0.04900848389472242,0.04842226318389279,0.05608097725352469,-2.5791006211266394,-1.076911444904611,1.0545168578726247,0.5154270123072294,0.20453274085390127,1.1775873127523653,7.776419774317002,0.5154270123072294,0.050477199256420135,0.0730732897537051,0.2890047571122657,1,True
120,4.0,2.6199999999999664,0.05746069756088023,0.04215530796932079,0.0825211633155475,-1.4695750953889108,-1.4203757258507248,-0.28663477440255225,0.5121457769811867,0.25033020669475925,1.8510118122534887,6.742929102190361,0.5121457769811867,0.050544001162052155,0.07609571257773788,0.4573426950906462,0,True
121,4.033333333333333,2.639999999999966,0.04804811208509744,0.03508228189693586,0.06221513785933189,2.993459424835801,-1.3217237725118522,1.84686968833431,0.509775352508878,0.24591236389648638,1.3095597540300776,5.986529932863833,0.509775352508878,0.050609998404979706,0.06234196981873639,0.22916297044751818,3,True
122,4.066666666666666,2.6599999999999655,0.037699477480486805,0.02850280649091918,0.07372014586256288,-2.635911175010242,-1.0189396068857497,1.1867698858205316,0.5115101006192059,0.22134629968025857,1.2767556766518875,5.002815393776424,0.5115101006192059,0.05067479982972145,0.053061243238189074,0.3153233098977943,4,True
123,4.1,2.679999999999965,0.04191610138140588,0.03363376986019947,0.09985348432572139,-2.268991045388897,-1.1931282647902333,0.577928618985731,0.5123034729900997,0.21830858022724917,1.7475944285779725,5.41489287983196,0.5123034729900997,0.05073900148272514,0.0677307495069178,0.415820347665724,1,True
124,4.133333333333334,2.6999999999999647,0.04137000665922812,0.03588866661174376,0.09569488566293816,-2.8928912617862355,-1.3431049120970528,1.355564516521252,0.5133107166992017,0.2168386069448222,1.4827588504660993,5.069334420463912,0.5133107166992017,0.05080080032348633,0.07632045185454382,0.25652533511622244,0,True
125,4.166666666666667,2.7199999999999642,0.03238637830734613,0.0316740909506954,0.08219490391536478,-2.676686822031543,-0.9598698722696598,1.2519776123170918,0.5158961084758832,0.20211001041449858,1.0422948147563855,4.379285314725223,0.5158961084758832,0.050861600786447525,0.06006085039494706,0.3457949412361479,4,True
126,4.2,2.739999999999964,0.03751033844829008,0.03820382280860034,0.10286638861732642,-2.2601069856973592,-1.0351058274503755,0.5244136482527978,0.5198944261049404,0.21119352827237614,1.5981777570391418,6.792628807406178,0.5198944261049404,0.05092040076851845,0.0698000047810162,0.5356042377897774,2,True
127,4.233333333333333,2.7599999999999634,0.03961756672224073,0.04227913584465125,0.10577340214189905,-2.1831326956230748,-1.4711195325273843,0.5481472709787921,0.5144258985367418,0.22107457779941941,1.5136465325013833,7.048295666798195,0.5144258985367418,0.05097559839487076,0.0876204050831638,0.4122584376611347,0,True
128,4.266666666666667,2.779999999999963,0.026308329691353,0.03243458730409187,0.07200527248866123,-2.7509491043855583,-0.9749102987689253,1.3684907717471646,0.5112352736057828,0.20807099292961942,1.1567546268345732,6.545201876999306,0.5112352736057828,0.05102900043129921,0.05922474715025314,0.2830084278937367,2,True
129,4.3,2.7999999999999625,0.02599552085349395,0.02837919195946117,0.08525545805021717,-2.3571470139595854,-0.7818187375444895,0.583912283181793,0.5138609208759092,0.20453946622866728,1.4718677563090024,8.710518327900258,0.5138609208759092,0.051072798669338226,0.05193667316871515,0.7063006610565785,2,True
130,4.333333333333333,2.819999999999962,0.04023912204920605,0.035529796213273894,0.10430859445587051,-1.4852610620247322,-1.1987094364792712,-0.4942594257379679,0.5125977483312848,0.23750076498530803,2.075415636817002,6.3112461076741,0.5125977483312848,0.0511137992143631,0.0778611217240342,0.7686796240473891,8,True
131,4.366666666666666,2.8399999999999617,0.029288402171785473,0.024435428310052333,0.060764941521644855,-2.7333722198501804,-1.0526183116193915,1.166941546563285,0.5128470467975415,0.20419871878801987,1.2780485946849203,10.034433893706337,0.5128470467975415,0.05114920064806938,0.053678569419609405,0.33653148507207203,3,True
132,4.4,2.8599999999999612,0.01242345932457776,0.0037216225549172757,0.07484219652876294,-2.4926411669478727,-0.35230891032181344,1.0215853838924405,0.5114101791339325,0.22143403545901433,1.4006847447172117,6.862398191664053,0.5114101791339325,0.05117740109562874,0.028704182520173635,0.8752871453266136,6,True
133,4.433333333333334,2.879999999999961,0.0225976068586209,0.00925924163103651,0.12405677036805854,-2.4058843002819175,-0.3252200540631977,0.38712930316185384,0.509452059814491,0.2557774115566508,1.7634886963926102,6.97174029524035,0.509452059814491,0.05120199918746948,0.06721275415194371,1.2392231712913153,6,True
134,4.466666666666667,2.8999999999999604,0.030895791085874858,0.030016602467558218,0.146580744942883,-2.1706143823362485,-0.7407343004625258,-0.021833145860588665,0.5090067646931914,0.24827684784894444,1.8792688264685034,7.323251871401241,0.5090067646931914,0.05121460184454918,0.10161796312625783,1.1476753569375746,0,True
135,4.5,2.91999999999996,0.017450603209759497,0.03280113950060244,0.14058290307602642,-2.454005084770364,-0.8720690400445325,0.6991610767198255,0.5078693601868906,0.21683118568594092,1.2326522009938525,8.61354389589972,0.5078693601868906,0.05122679844498634,0.10666495525963823,0.7195961495914714,0,True
136,4.533333333333333,2.9399999999999595,-0.007375870840293833,0.01724885866056825,0.16646705461507244,-2.3189539183145444,-0.21763727639385436,1.0671634082312256,0.506636679448834,0.23210068513964993,1.065925130426203,6.940220656033194,0.506636679448834,0.051238201558589935,0.11364095687846211,0.9625472191248291,1,True
137,4.566666666666666,2.959999999999959,-0.002796896637537844,0.013982980874532668,0.2118286867480839,-2.356888071045305,0.155401457417886,0.5616030178619698,0.5063598083087293,0.2628368876318745,1.2129979271638567,7.742958674833608,0.5063598083087293,0.0512503981590271,0.1580552482803088,1.573553974729703,1,True
138,4.6,2.9799999999999587,0.03179179302726724,0.023155817036425094,0.23048756151695224,-2.282327581483059,-0.46280572449683177,-0.12304680171079199,0.5061486866555692,0.25814430175556896,2.053831107462983,7.621138236871505,0.5061486866555692,0.051263000816106796,0.18073058713866758,1.4362674605463603,0,True
139,4.633333333333334,2.9999999999999583,0.03357002803966084,0.032756453205797204,0.2228765621476115,-2.235378864214177,-0.9362301269650615,-0.008844682186734253,0.5062663001644421,0.2502758262463485,1.9454634955049996,7.493782588170439,0.5062663001644421,0.05127739906311035,0.18409309265497942,1.1394572067551094,1,True
140,4.666666666666667,3.019999999999958,0.010720710838891125,0.020584171090481253,0.19927387683800135,-2.5587065987674027,-0.5446470973702713,0.9814357242089518,0.504281396131563,0.2353817894699954,1.3583299908950186,9.355003705853596,0.504281396131563,0.051291998475790024,0.15347405945225512,0.7973179781391594,0,True
141,4.7,3.0399999999999574,0.00878310174533554,-0.0012640049476295378,0.24588903338048576,-2.291235486475285,0.055224284369666615,1.1364948071259662,0.5026613403779416,0.2588718477637204,1.4154165441518667,6.68649134258885,0.5026613403779416,0.05130700021982193,0.18194606086450407,1.2813098883586975,1,True
142,4.733333333333333,3.059999999999957,0.02600046062541129,-1.732443934039391e-05,0.2927274537333159,-2.2768164305145597,0.39254782188042636,0.8070090417813296,0.49891299798340316,0.287092036351053,1.303996681493453,6.172343485207566,0.49891299798340316,0.05132560059428215,0.23316887116662904,1.760574253531832,1,True
143,4.766666666666667,3.0799999999999566,0.045876862605748574,-0.015334147403296888,0.310936525547483,-2.3894031711643797,0.007001552490743467,0.4535169207641753,0.4993808985218043,0.27247527168066743,1.9668331561068175,5.893137921557746,0.4993808985218043,0.05134600028395653,0.2582986531608853,1.5893993778051392,1,True
144,4.8,3.099999999999956,0.04648846539430086,-0.032605292843359925,0.30573272300337284,-2.4081832798137626,-0.34735564859838347,0.7844861534107923,0.4940483867930515,0.24210805054922047,1.8473229834806029,6.380037044733354,0.4940483867930515,0.05137300118803978,0.2574280790470346,1.1676564504761866,0,True
145,4.833333333333333,3.1199999999999557,0.06570435650644198,-0.05761998211714651,0.3049704322172499,-2.3282920779219576,-0.4523940151677663,1.3629357950514431,0.4919279778458531,0.2729741712148015,1.1462733110307404,5.945469584495807,0.4919279778458531,0.05140199884772301,0.257514083558349,0.9465993363398001,0,True
146,4.866666666666666,3.1399999999999553,0.10865969451636927,-0.07282618232517674,0.3082542349883917,-2.248612516954842,-0.3887522911968634,1.7252542780593354,0.4931352756024807,0.291411200666647,1.1086714945966474,3.6440548248114104,0.4931352756024807,0.05143500119447708,0.27227289567015134,1.1943047471560646,5,True
147,4.9,3.159999999999955,0.13912367798541223,-0.06630685220459072,0.30820387390201515,-2.1326963076823557,-0.38997869582688666,1.9177386852506835,0.4950450033068956,0.29618422926684057,1.001747489397281,2.342354281292569,0.4950450033068956,0.05146719887852669,0.28507953661511914,1.4072064933854729,4,True
148,4.933333333333334,3.1799999999999544,0.1598582082931408,-0.06228525702614058,0.30184593790217906,-2.0647802517915212,-0.42669277684752127,2.0431781605575785,0.49543309527550394,0.28812762119298546,0.9694829665350146,1.4366296344585094,0.49543309527550394,0.05149900168180466,0.2895826073698192,1.5492236391739438,0,True
149,4.966666666666667,3.199999999999954,0.166588594230133,-0.05185923916269044,0.28486534511157857,-2.099468492331154,-0.5477285470825055,2.1341784152329386,0.49567252570979325,0.2639893977317477,0.9263707856127752,1.9040923784215167,0.49567252570979325,0.05152779817581177,0.28121756991878655,1.562092468080057,1,True
150,5.0,3.2199999999999536,0.16179590608409558,-0.040046467834614866,0.26070058456524603,-2.224475875160411,-0.7386154035714786,2.3519507625357505,0.4924709213428676,0.23415956053373926,0.9343670479011841,2.24376356122611,0.4924709213428676,0.05155539885163307,0.2589697014069209,1.5519996883904439,1,True
151,5.033333333333333,3.239999999999953,0.15189468802701278,-0.03374789750795631,0.23932826509330193,-2.3443549890789828,-0.9331922526038717,2.67926977861773,0.49361881430021615,0.21660368442478015,0.9660046535211184,1.6470632216480317,0.49361881430021615,0.05158060044050217,0.23441776744514492,1.674470912467834,0,True
152,5.066666666666666,3.2599999999999527,0.13920277252556146,-0.03386500103820791,0.22188060011204291,-2.3644418076412173,-1.05366905935562,2.829740949833482,0.4932585454303735,0.2128989731810908,0.9243887812234546,2.3804171574242434,0.4932585454303735,0.05160579830408096,0.2131406222116892,1.8222933061224502,0,True
153,5.1,3.2799999999999523,0.11877084803831148,-0.03329237363844969,0.20208266975230427,-2.532232137889699,-1.1260808268953992,2.924302375590677,0.4921082248165104,0.20037133298394522,0.8535794923386544,2.7597664848866232,0.4921082248165104,0.05163099989295006,0.18689552766642287,1.7776897591985394,0,True
154,5.133333333333334,3.299999999999952,0.0981450028709072,-0.034363943343657694,0.18367148351506551,-3.0384867067648353,-1.222344394061822,-2.847697631480016,0.4919724000099449,0.19400170946425122,0.8415140942791219,1.8189785152826201,0.4919724000099449,0.05165620148181915,0.15925467264172494,1.7555562086939742,0,True
155,5.166666666666667,3.3199999999999514,0.08786426100803743,-0.043563665995547354,0.16421757203101842,2.9078214183492257,-1.251543338050171,-2.42264684715497,0.48869616652333037,0.1907335176838708,0.854007091595315,2.518855213723264,0.48869616652333037,0.051683198660612106,0.13730622283460045,1.8489176258712559,0,True
156,5.2,3.339999999999951,0.08608949263210522,-0.05372143416341087,0.14023662157046246,2.9840594848486983,-1.2427370537222182,-2.4866309111204994,0.4936619884895508,0.19655802638161002,1.0037787114835797,3.2396977876045487,0.4936619884895508,0.05171379819512367,0.11889431817364747,1.8863446631382543,11,True
157,5.233333333333333,3.3599999999999506,0.0886658937882739,-0.06102682106490634,0.11853050987219833,3.031445789633268,-1.2393126724848955,-2.5756653568447554,0.49749353727829393,0.2306977125778058,1.3192603813139825,2.7674716728433664,0.49749353727829393,0.05174560099840164,0.10468785089424097,1.8500660832586253,7,True
158,5.266666666666667,3.37999999999995,0.09356535001252415,-0.07027357271171725,0.10418613724736688,3.1331390320790713,-1.2596599733319331,-2.748262392362273,0.49954825612202725,0.2682789839702966,1.6052023640068098,2.7131833683200854,0.49954825612202725,0.051777999848127365,0.10156829866764705,1.7836574963115757,1,True
159,5.3,3.3999999999999497,0.09737072686500459,-0.07905864427465206,0.09231590579722627,3.1087580152837573,-1.2719503498780371,-2.834444742697143,0.4991799368358059,0.29535300098367573,1.8268625137368015,2.0592604551274087,0.4991799368358059,0.051812801510095596,0.1036812284333987,1.679365801041638,0,True
160,5.333333333333333,3.4199999999999493,0.09831446781005612,-0.08433052454116798,0.07750769753995426,2.7862306092745976,-1.2694620865339992,-2.6287038283995114,0.498007877234939,0.30574973967252855,1.966765944366114,2.260679318578905,0.498007877234939,0.0518484003841877,0.10331755504563632,1.5701377369834828,1,True
161,5.366666666666666,3.439999999999949,0.10139746343313455,-0.08907293337990017,0.0705011394062945,2.4844806053211674,-1.2683868233753233,-2.418031781686977,0.4993568479095293,0.30226975825746877,2.023602579884353,1.9571349641219333,0.4993568479095293,0.05188560113310814,0.1048903303652837,1.4915637641761317,3,True
162,5.4,3.4599999999999485,0.1075688294814785,-0.09401500789549277,0.07326526843538324,2.35678075744875,-1.2823329591502162,-2.392477694230266,0.4989731791125348,0.2936301753326419,2.018205994490436,1.2837222697245072,0.4989731791125348,0.05192279815673828,0.11288980344905254,1.3989345894760328,2,True
163,5.433333333333334,3.479999999999948,0.1120121707571759,-0.0966407147703837,0.07724589718550098,2.1253994822961064,-1.276710497311551,-2.2797419904299985,0.5012302987203383,0.2867205917449222,1.9608468700203208,1.6152836947612774,0.5012302987203383,0.05195999890565872,0.1197247955738491,1.2930202857694182,1,True
164,5.466666666666667,3.4999999999999476,0.11452990764035381,-0.09473176896095255,0.07834829137835356,1.8413452907195735,-1.223425079203425,-2.1074723574436542,0.5023612138059509,0.27633535801309,1.8553484409211776,1.5735564925319512,0.5023612138059509,0.051993001252412796,0.1216374125845188,1.2087268190065958,1,True
165,5.5,3.519999999999947,0.11871685776423778,-0.09163506332851115,0.08522639022052862,1.7045762791299939,-1.213361832570432,-2.078181780656392,0.5030202518765962,0.26402066895572546,1.7331733311497053,1.1021015207311657,0.5030202518765962,0.0520251989364624,0.12320907419949013,1.129903026832822,2,True
166,5.533333333333333,3.5399999999999467,0.12484203138775163,-0.08719217420391721,0.09661002093223886,1.5324609032214718,-1.1969871525732214,-2.03045991589363,0.5036851425843524,0.25144764991209884,1.6132961071769545,1.393210811971758,0.5036851425843524,0.05205579847097397,0.12915602760614764,1.0276327523137911,0,True
167,5.566666666666666,3.5599999999999463,0.13210866896890705,-0.08021666877891333,0.10801808634686182,1.358859071830875,-1.1537030635110637,-1.980426929960608,0.5021497388493152,0.233017703658688,1.4991891028962665,1.2198365861937779,0.5021497388493152,0.052087198942899704,0.13489154672165976,0.9565989742045132,1,True
168,5.6,3.579999999999946,0.1412746774329485,-0.07295562390056175,0.1179360921335499,1.1975260594851231,-1.1097117728185621,-1.9497386244860344,0.4986676293154566,0.22309804455182164,1.3808146073508927,1.2433834076402215,0.4986676293154566,0.05211900174617767,0.14370181849359293,0.887868089144702,0,True
169,5.633333333333334,3.5999999999999455,0.15210201029752057,-0.06622625148782572,0.12662590963366513,1.0462549506802148,-1.0703827572411544,-1.931424669172913,0.49558342775664993,0.2113890615545199,1.2381634983732845,1.3532401444693076,0.49558342775664993,0.05215439945459366,0.15376971231703893,0.8377978844104437,0,True
170,5.666666666666667,3.619999999999945,0.1638388670556584,-0.06166379888630559,0.1331564007493346,0.8825993112413286,-1.0220762407262416,-1.9142878070103346,0.49459085707336947,0.21169457780783124,1.1557961907039604,1.1188276454260724,0.49459085707336947,0.05219139903783798,0.1655620508312296,0.7970255271713391,0,True
171,5.7,3.6399999999999446,0.17563932972396415,-0.059384637018229436,0.13838643392531177,0.723366106934021,-0.9987206054145336,-1.889604792420757,0.4977776403008117,0.20773941253276193,1.0672507428237488,1.2879005097087786,0.4977776403008117,0.052231598645448685,0.17736503262659925,0.7858909903277143,0,True
172,5.733333333333333,3.659999999999944,0.1863588607720211,-0.0595756743503509,0.14113494907796564,0.5646771622884532,-0.9399730963603674,-1.8750889367901857,0.4981375700565072,0.2093814201581347,0.9932254476767131,1.1423468564171086,0.4981375700565072,0.05227179825305939,0.18889006996246213,0.7980764586033919,0,True
173,5.766666666666667,3.6799999999999438,0.1937842678620131,-0.06071085976841701,0.13580102317231177,0.40263917032193275,-0.9334523851744253,-1.8355926223821208,0.49939633228486463,0.20681020198831873,0.9620893322507723,1.1836269569936322,0.49939633228486463,0.05231200158596039,0.19417975673869614,0.8296303891265632,0,True
174,5.8,3.6999999999999433,0.2009677696901513,-0.06242355406866282,0.12956304976202307,0.2011772190234235,-0.8958674701879502,-1.7817007410676078,0.49891812587557477,0.205219434316169,0.9460689440915903,1.5166587779444538,0.49891812587557477,0.05233540013432503,0.19897577955106557,0.864520960566585,1,True
175,5.833333333333333,3.719999999999943,0.20583062329114418,-0.060804628186416215,0.11706921985934568,0.013608752063397667,-0.9574221715334399,-1.6953122861468122,0.5000950130771121,0.19202722929100235,0.9410812391718162,2.303213309685251,0.5000950130771121,0.052354201674461365,0.19883461537029087,0.8660218821205328,0,True
176,5.866666666666666,3.7399999999999425,0.20929823631454247,-0.06353145243459361,0.1188234240673164,-0.20566475898098344,-0.8814741052289188,-1.6373511148479112,0.5005946744593518,0.1943478090486328,0.9379179640246166,1.6393420655732882,0.5005946744593518,0.0523638017475605,0.20380022214676832,0.9427594014878995,4,True
177,5.9,3.759999999999942,0.19781648456986728,-0.0557669191738405,0.1121066322164368,-0.23891820380673473,-1.0683827753060744,-1.5837298922338507,0.5003876461293217,0.1689550410835145,0.9826343460064872,4.318441989704593,0.5003876461293217,0.052365001291036606,0.19294081162979204,0.8916337813101682,2,True
178,5.933333333333334,3.7799999999999416,0.20842543525408458,-0.05700724504718243,0.13124701535506253,-0.7948659619998845,-0.9520570343945178,-1.2491019222022413,0.5013056812841837,0.17121419095473467,0.8912300397106063,4.405045116373736,0.5013056812841837,0.052361998707056046,0.19916637137132223,0.920338198775207,2,True
179,5.966666666666667,3.799999999999941,0.19653626583219966,-0.036165340201893326,0.1390602084101032,-0.05023020801884518,-1.302595810386308,-1.7788695691098981,0.5025033788652267,0.18803117241305473,0.9810497006184286,9.374428806872576,0.5025033788652267,0.05234939977526665,0.20361666453919638,0.8473758020735972,0,True
180,6.0,3.8199999999999408,0.20099173163766135,-0.04668160811926288,0.11779599773155913,-1.9422937132987783,-0.622528559740355,-0.13087016884298924,0.49987268598623197,0.24073681523725265,0.9958547978687533,9.469767730782827,0.49987268598623197,0.05233379825949669,0.18811245305384766,0.8495068730012497,4,True
181,6.033333333333333,3.8399999999999403,0.22976420807019143,-0.06946718600682893,0.14945204400304896,-1.3503806186191372,-0.8343785511698348,-1.1387774902211725,0.49632733742390706,0.2037568506783707,1.4188371576951246,7.0869466669927155,0.49632733742390706,0.05231219902634621,0.23073960100410246,1.398357574471895,3,True
182,6.066666666666666,3.85999999999994,0.2078780718644357,-0.04970483971386672,0.11169484814924763,-2.4766883412919216,-1.3345696594271421,0.39959103935109447,0.5019895742956735,0.2964598165615298,1.154768791754622,14.48407024878977,0.5019895742956735,0.052292600274086,0.2094878304665409,0.8883006571030624,2,True
183,6.1,3.8799999999999395,0.1961470475473839,-0.09035369505545487,0.10103561707208483,-2.7309401168768916,-0.5690642997252663,0.5803555611807406,0.5026590335409904,0.3883560372148796,1.537859049777243,7.96498345251279,0.5026590335409904,0.05227399989962578,0.19139226828401842,0.97285880526608,4,True
184,6.133333333333334,3.899999999999939,0.19565141529498012,-0.1205031092640252,0.1402860096269727,-2.666027484638606,-0.31314398840659724,-0.09608195588946208,0.5026867975865341,0.4022770547592273,1.5144504942532386,7.5697650960631355,0.5026867975865341,0.05226320028305054,0.21133364930923806,1.583703105564525,1,True
185,6.166666666666667,3.9199999999999386,0.22258529164264912,-0.10552491360477792,0.17067781516460706,-2.267408294836619,-0.7267950124324346,-0.7831628644603544,0.5050446214972545,0.3532857736148722,1.5783842612191343,7.104449879383927,0.5050446214972545,0.05225519835948944,0.23899511344323246,1.825840686749983,1,True
186,6.2,3.939999999999938,0.2546562842355316,-0.075282191866327,0.1831052338450365,-0.6663555040720825,-1.1567434641611927,-2.1161884304825005,0.5053091111229442,0.3273372383055399,1.6850147768189754,11.320685221736289,0.5053091111229442,0.05225279927253723,0.26945779856277147,1.6518314202099316,2,True
187,6.233333333333333,3.959999999999938,0.2538098295281138,-0.0830374436946313,0.14920023514113678,0.8779576770324387,-0.8879144279037066,2.932349881323893,0.5073812185085926,0.4512919588955921,1.5582812198127356,9.095219040142801,0.5073812185085926,0.05225919932126999,0.26118584961919744,1.4145671113134204,0,True
188,6.266666666666667,3.9799999999999374,0.25567289023719003,-0.12491904294198526,0.1291870347562471,1.5614881525719948,-0.7560969010678141,2.360835303184707,0.5067041730580574,0.44000457051884234,1.6530344491862607,8.621710134832094,0.5067041730580574,0.05226999893784523,0.2629862762587177,1.3146267781799201,6,True
