frame,video_time_s,sim_time_s,root_x,root_y,root_z,root_roll,root_pitch,root_yaw,joint_target_abs_mean,joint_error_abs_mean,joint_error_abs_max,joint_velocity_abs_mean,ctrl_abs_mean,root_target_z,root_position_error_m,root_orientation_error_rad,contact_count,fall_proxy
0,0.0,0.2200000000000001,-0.0007602599595135926,0.028087896676561287,0.7097769467262244,-0.037083568827317254,-0.0776115266158528,0.05407834509994078,0.23507129106233926,0.044179396451623325,0.23861975179347292,0.30748517686452603,0.23507129106233926,0.799267590045929,0.09296018625126426,0.06720926525718178,3,False
1,0.03333333333333333,0.24000000000000013,0.0003532381874379751,0.03254791988852583,0.7079119518182717,-0.03940091379350709,-0.06724869824164194,0.027266782225402738,0.23330033724731952,0.050548663134988805,0.23496279066677128,0.3812095515114655,0.23330033724731952,0.7736662030220032,0.07253472894489733,0.3025405382179322,3,False
2,0.06666666666666667,0.2600000000000001,0.0014493729438348336,0.03748437692678462,0.7062319335692624,-0.03073193041428074,-0.05084444471206322,-0.06326630980322649,0.2315884568750974,0.06173568860515899,0.22804649922950096,0.7021672458768753,0.2315884568750974,0.7665624022483826,0.06998806834110743,0.8798517955267695,1,False
3,0.1,0.28000000000000014,0.002184174700924592,0.04122256320362855,0.7040866383550055,-0.03499642188792484,-0.03329445558271762,-0.08802365936261998,0.23030576026418792,0.06361583420730611,0.21307632933141563,0.42018465179339193,0.23030576026418792,0.8179628252983093,0.12027786572297951,0.3398351091662597,2,False
4,0.13333333333333333,0.30000000000000016,0.0017061739274525894,0.043841006335592535,0.7020058263387455,-0.03851557151812132,-0.040996550649276514,-0.07987864418550633,0.22902306365327857,0.0637121119594236,0.2149615518002485,0.33772140497212827,0.22902306365327857,0.7946969866752625,0.10186390138510666,0.11492752652178014,3,False
5,0.16666666666666666,0.3200000000000002,0.0018971061489477918,0.04639585656827073,0.7005562657811222,-0.04230087831321203,-0.04366902766748362,-0.07226890082757001,0.2277403670423692,0.06548628746590499,0.22207455862428319,0.2772935055176024,0.2277403670423692,0.7856760025024414,0.0963903570351924,0.08775391264633907,3,False
6,0.2,0.3400000000000002,0.0030414600997613144,0.04881222944439214,0.699749940831698,-0.04805594444750449,-0.03048938532961902,-0.055723752928974864,0.22645767043145978,0.0669591889521234,0.22490605198006025,0.4247256595226181,0.22645767043145978,0.7862216234207153,0.09888280472915593,0.22132344817259303,2,False
7,0.23333333333333334,0.3600000000000002,0.003893595914333116,0.052210858511383726,0.6978076959631128,-0.0441011746950053,-0.02228563892011417,-0.14130549391088815,0.2266508001234391,0.07366355283262101,0.2237142592190367,0.5809852327072901,0.2266508001234391,0.7713003754615784,0.08925045637234592,0.8181099132540954,2,False
8,0.26666666666666666,0.3800000000000002,0.004043523269444575,0.05556521002607358,0.6953723506828259,-0.045553633523569656,-0.01659650228768618,-0.21888185675630858,0.2272902220733308,0.08168140499434705,0.22147134623134385,0.5102149260538874,0.2272902220733308,0.7713003754615784,0.09322317198156554,0.7404334987607968,2,False
9,0.3,0.40000000000000024,0.00400541084579961,0.058390024165985245,0.6929132436928545,-0.047595445615465415,-0.011718763990986873,-0.2927701883053341,0.2279296440232225,0.08832825150925626,0.24503545820326134,0.46549835520079447,0.2279296440232225,0.7708408236503601,0.09657343058764042,0.6911782773954379,2,False
10,0.3333333333333333,0.42000000000000026,0.0038459430985362765,0.060508569040419596,0.6901701575488464,-0.04798021287267267,-0.007295722818408386,-0.36209773079776575,0.22856906597311416,0.09328770468417792,0.27575727077642814,0.40400804718876515,0.22856906597311416,0.7705671787261963,0.09982705671650122,0.6471414610775534,2,False
11,0.36666666666666664,0.4400000000000003,0.003298879532438734,0.06221715442713262,0.6868095456363984,-0.04838686100844528,-0.0031756291040521065,-0.425119010015789,0.2292084879230059,0.09729936661549182,0.3044025557892285,0.39661510810071976,0.2292084879230059,0.7705671787261963,0.10347293447890263,0.5832727136349336,2,False
12,0.4,0.4600000000000003,0.0026651143619448167,0.06411566680605132,0.6837332615014609,-0.04913751266849962,0.0009593436816019743,-0.48413171190406695,0.2298954200498597,0.10171924463716614,0.3343643871617374,0.3937271610331634,0.2298954200498597,0.770274817943573,0.10683811977918747,0.5491977186460228,2,False
13,0.43333333333333335,0.4800000000000003,0.002012472217973008,0.06635269392554212,0.6810513976805189,-0.04961157665993047,0.005027662028465948,-0.5392933696420328,0.23083756988345536,0.10521032444808338,0.36091375928147795,0.39000871467996767,0.23083756988345536,0.7699729800224304,0.11009963785651751,0.5183536167995405,1,False
14,0.4666666666666667,0.5000000000000003,0.0012836474801011801,0.06876819525884804,0.6784895363736979,-0.04899543410239386,0.008420603926568892,-0.5879206236584307,0.23177971971705116,0.10632574877584815,0.3790732504437819,0.421381708177339,0.23177971971705116,0.7699729800224304,0.11358450925784247,0.468302233099517,0,False
15,0.5,0.5200000000000004,0.0006408184646920532,0.07092492690281639,0.6753896331797977,-0.04710042160029415,0.011711013297982896,-0.6348061115670623,0.2327218695506469,0.10649161756413834,0.39246665111654266,0.3744371631294124,0.2327218695506469,0.7694618105888367,0.11685815329828303,0.44520315961393886,1,False
16,0.5333333333333333,0.5400000000000004,-0.00010421013570898683,0.07349751369496614,0.6723720760516863,-0.046183868870570056,0.015390240269586585,-0.6793157908161082,0.23366401938424267,0.10762374888333841,0.40986935792936907,0.37079467229937335,0.23366401938424267,0.7688744068145752,0.12032497506987475,0.4230062881843564,2,False
17,0.5666666666666667,0.5600000000000004,-0.0007644921015124759,0.07639944338007203,0.6698684397887806,-0.0456887399845868,0.01918204413674928,-0.7188766420327074,0.23463203923770207,0.10865300382740463,0.4249373465250151,0.34731529476946205,0.23463203923770207,0.7688744068145752,0.124123161513296,0.3828466059308074,2,False
18,0.6,0.5800000000000004,-0.0013108004785712625,0.07954357003007759,0.6676795961939709,-0.044961181181273645,0.022740969979613935,-0.7557221202571451,0.2356018743491687,0.10908715581410448,0.43586430510343077,0.33030956056912947,0.2356018743491687,0.768134593963623,0.1272412542561272,0.3652160916478179,1,False
19,0.6333333333333333,0.6000000000000004,-0.0016797382489135767,0.08251892516631554,0.6653717313403043,-0.04311824521780339,0.025596706076103183,-0.7890519308551813,0.23663798988781168,0.1076527114277971,0.4395158822312785,0.38634249823239686,0.23663798988781168,0.7673659920692444,0.1302775014659638,0.34975973657590625,1,False
20,0.6666666666666666,0.6200000000000004,-0.0024904533545229693,0.08507833242835797,0.6648228730105287,-0.05408636620328675,0.030814461554705776,-0.7216406395637652,0.23769229842411793,0.1061324660102936,0.41414002805272243,0.8032503125668798,0.23769229842411793,0.7734779715538025,0.13768374119211235,0.7076887512101858,2,False
21,0.7,0.6400000000000005,-0.0022457069880110476,0.0863338502932565,0.6648326253744019,-0.057018173592151424,0.04294571876339773,-0.6493017921885598,0.2387466069604242,0.10652343360141325,0.3889942690120189,0.7898848343135129,0.2387466069604242,0.782861590385437,0.14606902965856094,0.6935501743211192,2,False
22,0.7333333333333333,0.6600000000000005,-0.0017236126894203368,0.08777279923376331,0.665094937959643,-0.05449179175953778,0.048087999537182124,-0.5901096348233303,0.23980091549673044,0.1079895994935193,0.3624900807051562,0.6691709688398826,0.23980091549673044,0.785527229309082,0.1489150325055563,0.5474290072151419,2,False
23,0.7666666666666667,0.6800000000000005,-0.0006206626268036059,0.08951715395946058,0.6661732041263289,-0.0529648249146972,0.052100979245106795,-0.53654803210855,0.2385767365858747,0.10805822452979043,0.34439195700797853,0.5568226105823704,0.2385767365858747,0.785527229309082,0.14919887799221543,0.4928088899137779,2,False
24,0.8,0.7000000000000005,0.0009531015427165177,0.0914013771513086,0.6678063650819489,-0.05197395152368698,0.05528458320849698,-0.4879483264695843,0.23548834067279548,0.10551000310378195,0.33157345274696826,0.4282724637303894,0.23548834067279548,0.7849310040473938,0.14857713807348782,0.44211315542873836,1,False
25,0.8333333333333334,0.7200000000000005,0.002875718142629136,0.09298134921537644,0.6688458409410529,-0.05013323933548722,0.057628587731656473,-0.44355082750626224,0.23239994475971631,0.10071391597606481,0.314484168146153,0.3887845403052465,0.23239994475971631,0.7843490242958069,0.14822374779512873,0.39582506082471824,2,False
26,0.8666666666666667,0.7400000000000005,0.004884674095757879,0.09426868853669218,0.6694425230062202,-0.048709466261456925,0.05958526851689228,-0.4040650919249855,0.22931154884663713,0.09936913287774518,0.3085943507796003,0.28916058207694334,0.22931154884663713,0.7843490242958069,0.14860752862872992,0.3560259262020811,2,False
27,0.9,0.7600000000000006,0.0069184298717105885,0.09546677809437626,0.6701515306502273,-0.04801972676349843,0.061183254154123755,-0.3687817049355936,0.22626507822777725,0.10130639824816544,0.3254354277050799,0.27682220093254434,0.22626507822777725,0.7838960289955139,0.14859993002979632,0.32054200647947123,2,False
28,0.9333333333333333,0.7800000000000006,0.008946035228353534,0.09647960663977692,0.670974017492123,-0.04755018893804091,0.062427317929120804,-0.3370070943668639,0.22326451507010306,0.10278681742553601,0.34070897450738846,0.2768731377997397,0.22326451507010306,0.7834697961807251,0.1484475591442433,0.2892009526750604,2,False
29,0.9666666666666667,0.8000000000000006,0.01091780281809308,0.09721785686389102,0.6717174861440492,-0.04708634831695049,0.06325862201460697,-0.30815339985069157,0.2202639519124288,0.10391948011453109,0.3547368128135278,0.28311483615474553,0.2202639519124288,0.7834697961807251,0.14851187367001478,0.2613087571394943,2,False
30,1.0,0.8200000000000006,0.012803881092820503,0.0978205254681092,0.6720276668724577,-0.047135122530568216,0.06406729204839587,-0.28191432657760557,0.21726338875475457,0.10428666885320209,0.3662395738745046,0.2944258870639677,0.21726338875475457,0.7830972075462341,0.14843872426897914,0.2366711798382868,2,False
31,1.0333333333333334,0.8400000000000006,0.014478553734069742,0.09816720086546327,0.6719226581332735,-0.04668059162270595,0.06448813943192246,-0.25836462966324963,0.21464917822437585,0.10493077295541492,0.37673832930856654,0.29262285764193424,0.21464917822437585,0.7827097773551941,0.14862214031016216,0.21412232995626718,2,False
32,1.0666666666666667,0.8600000000000007,0.015989500326921147,0.09817355348036598,0.6717409433781152,-0.04590159405205355,0.06444082324543553,-0.2370203174829775,0.21206936000108342,0.10653714261399715,0.3864983027632123,0.2969725303752983,0.21206936000108342,0.7827097773551941,0.14896979651114617,0.19465940217314523,2,False
33,1.1,0.8800000000000007,0.01734308361446824,0.09794160239786526,0.6716255750469112,-0.045245462685273255,0.06404638129483065,-0.21841189342471806,0.20948954177779108,0.10822270691291634,0.39497319433253175,0.2817383520393169,0.20948954177779108,0.7823150157928467,0.14880460455729694,0.17693393636245508,3,False
34,1.1333333333333333,0.9000000000000007,0.018451166007345865,0.09751073654663378,0.6716253237171629,-0.04511908971800905,0.06303743469303429,-0.20264631612566378,0.20690972355449871,0.1087474905754542,0.4017647537782727,0.38209863234480135,0.20690972355449871,0.7816286087036133,0.14822457822367327,0.16210008151289146,2,False
35,1.1666666666666667,0.9200000000000007,0.019230872093368885,0.09659972945747064,0.6713907575972298,-0.04513325520094813,0.06214037960999679,-0.18977430139149973,0.20461767856747812,0.10863043252128625,0.40741552796096386,0.30490960474897116,0.20461767856747812,0.7816286087036133,0.1479364496126949,0.1513203924779949,3,False
36,1.2,0.9400000000000007,0.019618470576171446,0.09576823732539314,0.6716374395577334,-0.04629945606718608,0.060983171547082896,-0.17803563062190803,0.20367502303068566,0.10980929900202091,0.4107208170932265,0.2799626489372088,0.20367502303068566,0.7808011770248413,0.14674083306868727,0.14050310762910548,3,False
37,1.2333333333333334,0.9600000000000007,0.01915212291943817,0.09529602366694866,0.6723438090555333,-0.049975904837105206,0.047876078651329576,-0.1527009506064331,0.20367170677507637,0.11003362640027686,0.41029271156852415,0.3453025412215727,0.20367170677507637,0.789027214050293,0.15207088946753963,0.2468059757048955,3,False
38,1.2666666666666666,0.9800000000000008,0.01860394519951044,0.09463347678206925,0.6729894341750742,-0.05004149815261297,0.033408564811053795,-0.13693702933416038,0.2040352639752622,0.11033361672388271,0.4126310528754773,0.3231265762038621,0.2040352639752622,0.7947520017623901,0.15559204227360027,0.19397867717216727,3,False
39,1.3,1.0000000000000007,0.01871748506010058,0.09403594393921964,0.673044545527896,-0.05253840177545889,0.02886327792557201,-0.16428033463015707,0.20439882117544797,0.11078319658427487,0.40830487742270016,0.365326815775625,0.20439882117544797,0.7734907865524292,0.13895364311169622,0.2963610053788484,2,False
40,1.3333333333333333,1.0200000000000002,0.018417980206191335,0.09280565809061739,0.6729522096345972,-0.052381148594000164,0.025124510082827983,-0.1756856567691909,0.2047282151587161,0.11327979312039657,0.4066592567877753,0.2540823280883918,0.2047282151587161,0.7687820196151733,0.1348979996621443,0.16769792119283564,2,False
41,1.3666666666666667,1.0399999999999998,0.01778061541376292,0.09137154005497722,0.6728361725146896,-0.056800003164170436,0.016720869066980264,-0.17183619521805737,0.2049732577793602,0.11534995013350215,0.4002103848072184,0.25693009996840266,0.2049732577793602,0.7715858221054077,0.13596707811227776,0.025504126349219197,5,False
42,1.4,1.0599999999999994,0.017119245404811235,0.08989490582775789,0.6728787079997068,-0.0609646868376662,0.009791235776258334,-0.16923014552527213,0.20521830040000427,0.11688496054542376,0.39435370860091673,0.2599599018959015,0.20521830040000427,0.7707449793815613,0.13426565954294398,0.023012001932897624,3,False
43,1.4333333333333333,1.079999999999999,0.016523538077686195,0.08866462374261143,0.6731745710253131,-0.0648068735349272,0.0033132750552220445,-0.16761243816308058,0.20567422626910176,0.11781959977079805,0.38803143473838075,0.24593329131032968,0.20567422626910176,0.7698630094528198,0.13250178183476508,0.024509917907914566,3,False
44,1.4666666666666666,1.0999999999999985,0.015921287847626517,0.08758055736628549,0.6735998768003109,-0.06809720218427547,-0.002809292723783734,-0.16626412675517846,0.20627777440945366,0.11823401120688892,0.38173406122862635,0.23825677833318443,0.20627777440945366,0.7698630094528198,0.13138745976218572,0.027657665864401233,3,False
45,1.5,1.119999999999998,0.015287287358893486,0.08657648126440924,0.6740308922869771,-0.07093231041370356,-0.008480243437434058,-0.16551340781738008,0.20699338111281895,0.11805287308623902,0.3759048407622368,0.2363504411181505,0.20699338111281895,0.7688999772071838,0.12960234109356883,0.03227886591535026,3,False
46,1.5333333333333334,1.1399999999999977,0.014534832547303818,0.08557833707559548,0.6743586508238323,-0.0734843258807812,-0.013412761747385605,-0.1653665703175364,0.20871751488330434,0.11461162311212701,0.37413020806468,0.2394015473663546,0.20871751488330434,0.7679005861282349,0.1278560125225267,0.0374545864636794,2,False
47,1.5666666666666667,1.1599999999999973,0.013739781115813393,0.08465728771229983,0.6745099604358004,-0.07572733409735173,-0.018055313167654245,-0.165721123516879,0.2104416486537897,0.11146530581056792,0.3717619403259424,0.20205206494749048,0.2104416486537897,0.7679005861282349,0.12698457876535185,0.04071354689713886,3,False
48,1.6,1.1799999999999968,0.012947643500361858,0.08394902035284371,0.6746106080666951,-0.0780653417663789,-0.022139822758416108,-0.16698265692343714,0.21241048425835046,0.10874732773149157,0.3683209756725272,0.19017100406709178,0.21241048425835046,0.7668284177780151,0.12552376638402649,0.04524980566955161,3,False
49,1.6333333333333333,1.1999999999999964,0.012119422478047155,0.08345246160619398,0.674709455603634,-0.08040043912369861,-0.02574868771499851,-0.16905273692102127,0.21462810841567764,0.106020674064772,0.3641384021794902,0.1888144531371062,0.21462810841567764,0.7656605839729309,0.12414214697388225,0.04923322075285058,3,False
50,1.6666666666666667,1.219999999999996,0.011233353226762683,0.08309354500936557,0.6747647184122568,-0.08258686008767778,-0.02898893753413247,-0.1714088803666786,0.21684573257300482,0.10327471719663216,0.35959544272055266,0.1844942787175721,0.21684573257300482,0.7656605839729309,0.12375019343487563,0.05104847236736063,4,False
51,1.7,1.2399999999999956,0.010275798013470838,0.08280580528273994,0.6747243918024195,-0.08474507429924176,-0.03179478762352922,-0.1743937751044658,0.21928398926036372,0.10061388532072844,0.35451601180600645,0.19637210663882146,0.21928398926036372,0.7644450068473816,0.12257214632585768,0.054024850207338444,3,False
52,1.7333333333333334,1.2599999999999951,0.009333200494701883,0.08257110991690562,0.6744563296868122,-0.08644022980654918,-0.03444177848644345,-0.1778430514283918,0.22217366452153908,0.09839322485968777,0.3494287731521188,0.22013057027509814,0.22217366452153908,0.7633488178253174,0.12167267578106482,0.056529292082373006,3,False
53,1.7666666666666666,1.2799999999999947,0.008415152547348726,0.08248414123902587,0.6740717809999854,-0.08846150590465955,-0.03671376873493018,-0.18151671508854716,0.22503899374978803,0.09688428902420265,0.3434933224491758,0.21514769378458165,0.22503899374978803,0.7633488178253174,0.12179186349234405,0.05717445107972465,3,False
54,1.8,1.2999999999999943,0.0074887808215907525,0.0826049539685393,0.6737367779806308,-0.09063413005229769,-0.038629668268585944,-0.18577779296959854,0.2278497516418772,0.09551932718619748,0.3370465764855868,0.2190832773145554,0.2278497516418772,0.7627230286598206,0.12157557992469216,0.05880969967141928,3,False
55,1.8333333333333333,1.3199999999999938,0.006548077509759463,0.08286753258486172,0.6734106580530397,-0.09273879278346049,-0.040284400329966226,-0.1904329707187033,0.23066050953396627,0.09413868336904772,0.33050565984942,0.2252158432109398,0.23066050953396627,0.7630379796028137,0.12214432672557198,0.059654442143418834,3,False
56,1.8666666666666667,1.3399999999999934,0.005599876196077231,0.08320670571930976,0.6730309340635191,-0.09469980933323946,-0.04169435493158776,-0.1950664421962173,0.2336350348753659,0.09297460176964648,0.3240876446201878,0.22964835800760397,0.2336350348753659,0.7630379796028137,0.12258053146394216,0.059705691493439454,3,False
57,1.9,1.359999999999993,0.004660537961309488,0.08360455701889553,0.6725708923853617,-0.09662050043779603,-0.042896264358912195,-0.1998245459995689,0.23708050022865712,0.09181028436839153,0.31768442846034717,0.23465207209012826,0.23708050022865712,0.762812614440918,0.12295691396201042,0.059730295757578,3,False
58,1.9333333333333333,1.3799999999999926,0.004067726738945172,0.08317513023573428,0.6725717777698282,-0.10403696017118645,-0.032068474731599746,-0.11728064323888725,0.24101360504280195,0.09038684774311317,0.31254671361324365,0.7746903139805003,0.24101360504280195,0.7806270122528076,0.13645300391006107,0.8881031602886418,1,False
59,1.9666666666666666,1.3999999999999921,0.003602754704938516,0.0817063505815883,0.6710763756862,-0.09658115719898638,-0.03518704449190755,-0.1086228580371714,0.24499073836879834,0.08720710417489885,0.3209190885561499,0.41732814502868415,0.24499073836879834,0.8000102043151855,0.15255497551430489,0.1691266467205066,2,False
60,2.0,1.4199999999999917,0.0026738305669709718,0.08024128643180377,0.6694181581926096,-0.09359098143400621,-0.0393378477005962,-0.10108809361780406,0.24896787169479478,0.08567072388023833,0.32284384853458614,0.25720516008418326,0.24896787169479478,0.8000209927558899,0.15314820175195265,0.16060880267903274,2,False
61,2.033333333333333,1.4399999999999913,0.001480190960768961,0.07948027201344204,0.668442991706699,-0.09229778490161353,-0.043519987345872,-0.09526838764096653,0.25294500502079126,0.08570758207409297,0.3210208043339159,0.24983240754746838,0.25294500502079126,0.8000209927558899,0.1536791112795008,0.15528084374600082,3,False
62,2.066666666666667,1.4599999999999909,8.824387060289658e-05,0.07940490757840535,0.6685487244618293,-0.09117523730934125,-0.047514881029554486,-0.09087895587368451,0.2569221383467876,0.08579531418945584,0.3178603211960883,0.20882721359743067,0.2569221383467876,0.8000329732894897,0.15367647128085601,0.15161531873434786,3,False
63,2.1,1.4799999999999904,-0.0012292381106767344,0.07944360838400147,0.6690015986134122,-0.0890997889225441,-0.05101407718424749,-0.08756369896186647,0.2608992716727841,0.08466752133867707,0.3152004174745481,0.27782458303484775,0.2608992716727841,0.8000450134277344,0.15333555954241807,0.14840093927090361,2,False
64,2.1333333333333333,1.49999999999999,-0.00235324856116446,0.07932243090880788,0.6688799591024432,-0.08749614009732269,-0.05384355260086134,-0.08560515904074384,0.26487640499878046,0.08314884666616656,0.3110638006000068,0.23362801190851948,0.26487640499878046,0.8000450134277344,0.1532763030334541,0.14551297007334665,3,False
65,2.1666666666666665,1.5199999999999896,-0.0035742021075516116,0.07921952682268824,0.6687706666386056,-0.08649756047226674,-0.05638802757450643,-0.08375992180664289,0.2688535383247769,0.083337471042835,0.3057675683629514,0.21859443041833587,0.2688535383247769,0.8000569939613342,0.15337352931829237,0.1437576147114871,3,False
66,2.2,1.5399999999999892,-0.004702430385461579,0.07888055990991989,0.6685136500986971,-0.08469096131626395,-0.05877669732413054,-0.08185959570408888,0.27283067165077335,0.08345984773606584,0.3011627541393481,0.2277399738751955,0.27283067165077335,0.8000689744949341,0.1534331422505065,0.14136615128855637,3,False
67,2.2333333333333334,1.5599999999999887,-0.005093460133106395,0.07858450033796678,0.6693496908011166,-0.12237645997362878,-0.041189512714489555,0.13218832325219285,0.2768078049767698,0.09941311087141323,0.3788427875781619,1.416086722937305,0.2768078049767698,0.7465230226516724,0.11086256372478577,2.2624653896124296,2,False
68,2.2666666666666666,1.5799999999999883,-0.003390760531700901,0.0763251745456316,0.6693642767228482,-0.11364081432647248,-0.03407380944640155,0.11249805465142049,0.2762052678464938,0.08933496777678071,0.33359355860625856,0.5657342465445828,0.2762052678464938,0.7964540123939514,0.14851215099285392,0.15927426398243053,0,False
69,2.3,1.5999999999999879,-0.0017935120054789592,0.07293315036153294,0.6678926247849696,-0.10811908318908937,-0.030374594793211605,0.103622692771572,0.2731367543166863,0.0820304883193642,0.28931929822869146,0.42038109622935954,0.2731367543166863,0.7964419722557068,0.14782755956671614,0.15019912982685726,0,False
70,2.3333333333333335,1.6199999999999875,-0.0003494968693208226,0.06834612128740146,0.6649281210543581,-0.10048810958817161,-0.027267985338978704,0.09582061260788698,0.27006824078687885,0.07720772778633805,0.25145939655552907,0.36762590963092184,0.27006824078687885,0.7964419722557068,0.1480404499504789,0.13999061026975906,1,False
71,2.3666666666666667,1.639999999999987,0.0005468303217769663,0.06405228662295545,0.6610853033257861,-0.09470615601187485,-0.024755894677827635,0.08676513363287633,0.26699972725707144,0.07377844228472909,0.22695866986264995,0.372124599065779,0.26699972725707144,0.7964311838150024,0.1493363858997599,0.12941466779421834,3,False
72,2.4,1.6599999999999866,-0.0001050304841569609,0.06226945125642627,0.6592775611219784,-0.0943998406099608,-0.022838752719142257,0.07713464894816695,0.263931213727264,0.07214273870582967,0.2064715589288982,0.35657265250850023,0.263931213727264,0.7964227795600891,0.15047312039388905,0.12414975519957507,2,False
73,2.433333333333333,1.6799999999999862,-0.0013442139167101465,0.06160451966713431,0.6583545686955312,-0.09310344533739355,-0.024760608075870515,0.06430540046525468,0.2608627001974565,0.07147708954852933,0.1907724553161842,0.33439566021493405,0.2608627001974565,0.7892907857894897,0.14459937652850763,0.1268997343803697,2,False
74,2.466666666666667,1.6999999999999857,-0.002705174182139034,0.060980112906648315,0.6577345639101994,-0.08864171017587637,-0.029769341530379037,0.04702031535817111,0.2577941866676491,0.07061548686711132,0.19919160579168638,0.30787592530209446,0.2577941866676491,0.7969363927841187,0.15192711608518475,0.1704459891582948,3,False
75,2.5,1.7199999999999853,-0.0039031050101680405,0.06029934193128941,0.6572298981049095,-0.08411163621648544,-0.03397353135300516,0.031015763790702453,0.2547256731378416,0.06964546973462658,0.2059987199217762,0.2718485804127742,0.2547256731378416,0.7968565821647644,0.15208870747748304,0.15667448323432998,2,False
76,2.533333333333333,1.739999999999985,-0.004909450720350731,0.05939349302357083,0.6566387806959716,-0.07975171118382647,-0.037159052236053945,0.01698502312125208,0.2516571596080342,0.06955088654449308,0.21568148818448718,0.24499483011314116,0.2516571596080342,0.7968565821647644,0.15229975510302612,0.14365061424340841,3,False
77,2.566666666666667,1.7599999999999845,-0.005730799894672543,0.05834385576433758,0.6559633556329492,-0.07589204494380895,-0.03988879045021794,0.0040545877523988395,0.2486585798568538,0.06940979635835728,0.2335356015443898,0.22949148149794676,0.2486585798568538,0.7965375781059265,0.15224575102484586,0.13392695213503433,2,False
78,2.6,1.779999999999984,-0.0064175935609951905,0.057218935635364745,0.6552692849493833,-0.07248718971549048,-0.04218001615534178,-0.007718010737984409,0.24567059330818447,0.06928796136345655,0.24907872885575527,0.22025466810887856,0.24567059330818447,0.7960990071296692,0.152087204137286,0.12595174110915092,2,False
79,2.6333333333333333,1.7999999999999836,-0.007022300217485835,0.05607249762419782,0.6546290706503457,-0.06952625184091515,-0.04392512101046422,-0.01825220177895824,0.24268260675951522,0.06918054724129243,0.2625836664944901,0.21617498306346306,0.24268260675951522,0.7960990071296692,0.15229674742256832,0.11756147663722114,2,False
80,2.6666666666666665,1.8199999999999832,-0.007587442288869062,0.05493507219932155,0.6540864881714834,-0.06685807739914307,-0.045300673959718624,-0.027946824836232138,0.2396946202108459,0.0690200156976028,0.27452464163479773,0.21490577635770755,0.2396946202108459,0.7955440282821655,0.15191849059929424,0.11272638819537496,2,False
81,2.7,1.8399999999999828,-0.008134411076862151,0.05381476250896583,0.6536571532233607,-0.06444966679312397,-0.0463226150746101,-0.03686613770947493,0.23670663366217665,0.06995317582924422,0.2851484414502461,0.2124419691246509,0.23670663366217665,0.7949873805046082,0.15144945888018196,0.10844922111541377,2,False
82,2.7333333333333334,1.8599999999999823,-0.008674182373968766,0.05270626926069183,0.6533456967610064,-0.06232939306168306,-0.046929700217302424,-0.044829348029205116,0.23371864711350732,0.0708981171708392,0.2946100607393871,0.2079741471132416,0.23371864711350732,0.7949873805046082,0.1514045883786075,0.10312423363828717,2,False
83,2.7666666666666666,1.879999999999982,-0.009221914274556042,0.05160611406781652,0.6531436492410426,-0.06041464589886449,-0.04723987385127668,-0.05213788392487036,0.23127910351128136,0.07197523485163489,0.30315844376135137,0.2039900759831948,0.23127910351128136,0.7944275736808777,0.15074354218519107,0.09993014551991655,2,False
84,2.8,1.8999999999999815,-0.00978837216146524,0.050511767631174674,0.6530406895707955,-0.05871060288463427,-0.04727341868331685,-0.05873835401340458,0.22957268471596218,0.07289909999044342,0.3108422719270148,0.19944830864478638,0.22957268471596218,0.7938802242279053,0.15000997348811043,0.09683428191623154,2,False
85,2.8333333333333335,1.919999999999981,-0.01038030106491912,0.04942165403542384,0.6530298866490831,-0.057227268871785544,-0.04703615413757268,-0.06461935162028436,0.22839849967028747,0.07412757065291126,0.3177337523716406,0.19424580569771693,0.22839849967028747,0.7938802242279053,0.14971428552108798,0.09372373855984342,2,False
86,2.8666666666666667,1.9399999999999806,-0.011005478289490944,0.0483346382987062,0.6531009774285553,-0.0559178306356343,-0.04658957607510575,-0.06987207222840465,0.22760098859284877,0.0760607755095473,0.3239351754239935,0.19070385327333028,0.22760098859284877,0.7933390140533447,0.14884123955989723,0.09168030564127294,2,False
87,2.9,1.9599999999999802,-0.011668486292017019,0.047248599791820535,0.653245565075891,-0.05476421676192231,-0.04592861996538939,-0.07439108825018909,0.2270979773237997,0.07780468524190785,0.32950298994319793,0.19146768596555747,0.2270979773237997,0.7931110262870789,0.14820408430596588,0.09019137027657173,2,False
88,2.933333333333333,1.9799999999999798,-0.012370772198342614,0.04616804196159684,0.65345488922828,-0.05377564136815713,-0.045101424422918396,-0.07839119844605148,0.2265949660547506,0.07936193257274402,0.33451913244083276,0.19152005230151017,0.2265949660547506,0.7931110262870789,0.14773274615701765,0.08871401595130114,2,False
89,2.966666666666667,1.9999999999999793,-0.0131140084823365,0.04509021567565839,0.6537243915124915,-0.052925354019508444,-0.04409479561259002,-0.08175344100907374,0.22609195478570154,0.0807442038014228,0.3389920681885976,0.1910232086362983,0.22609195478570154,0.7932878136634827,0.14738570400434556,0.08820395949205373,2,False
90,3.0,2.019999999999979,-0.01390176204052249,0.044012837363288974,0.6540493525095706,-0.052095139850670526,-0.04290634293647486,-0.08453784643613288,0.22479312051137537,0.08176532768808233,0.3434788062572661,0.18774807675015406,0.22479312051137537,0.7942742109298706,0.14776842641728746,0.08799742788561887,2,False
91,3.033333333333333,2.0399999999999787,-0.014747197422374209,0.04294119040696,0.65439330738557,-0.0508633259580153,-0.041737305873549284,-0.08731070235525654,0.22031099421594058,0.08238154622381608,0.34966515194572034,0.17593563522241448,0.22031099421594058,0.7942742109298706,0.14720260462752327,0.08701135884835977,2,False
92,3.066666666666667,2.0599999999999783,-0.015601512391157101,0.0418863297416192,0.6547121135444967,-0.049249999906005905,-0.040540293565639623,-0.08961302708999783,0.21582886792050568,0.08437411591531654,0.35633723087924296,0.18135429153110968,0.21582886792050568,0.7947897911071777,0.1471603175876969,0.08659612457465912,2,False
93,3.1,2.079999999999978,-0.016421632918876387,0.04086713471563655,0.6549775704065383,-0.0473063579620344,-0.03932390245807114,-0.09145174148755633,0.21163559341063914,0.08643866774129447,0.3637730831398182,0.19737954581735806,0.21163559341063914,0.7950699925422668,0.14695800071883258,0.08614557807714843,2,False
94,3.1333333333333333,2.0999999999999774,-0.017098755560237284,0.03988678695486177,0.6551611298879574,-0.04492593977243601,-0.038430786216121594,-0.0925841625638375,0.20801676636358274,0.0892283076125517,0.37214903799944377,0.18829145906833802,0.20801676636358274,0.7950699925422668,0.14656930780978705,0.08424715522705753,3,False
95,3.1666666666666665,2.119999999999977,-0.017492385767774014,0.038934147118962294,0.6552530071130129,-0.042291496425180874,-0.03752390038919366,-0.09325378000987436,0.2049263211228302,0.09238347289100413,0.38176735760703656,0.19765194005301068,0.2049263211228302,0.7950063943862915,0.14619611101245214,0.08336240122858202,3,False
96,3.2,2.1399999999999766,-0.01783366708564845,0.038056605935405934,0.6553251520694463,-0.03961689445784442,-0.03655457818734492,-0.09400474890767103,0.20183587588207766,0.09581104210419158,0.3922212957773622,0.20912818856597692,0.20183587588207766,0.7947971820831299,0.1457284970777692,0.08283752809101479,3,False
97,3.2333333333333334,2.159999999999976,-0.01813002213358402,0.03725554024743463,0.6553746296327445,-0.03684126346406432,-0.035698605531075796,-0.09488003156429757,0.1998648338346958,0.10173352226300754,0.40351868092472026,0.21975068325433914,0.1998648338346958,0.7947971820831299,0.1454989635858272,0.08045006316557114,3,False
98,3.2666666666666666,2.1799999999999757,-0.018351879145723456,0.036510465303675195,0.6553786840456258,-0.033879022373133616,-0.03478637693957072,-0.09567153421630749,0.1982725416660907,0.10751720614206259,0.41577784099349774,0.23020771440604498,0.1982725416660907,0.7942968010902405,0.14483982216337887,0.08013435605356953,3,False
99,3.3,2.1999999999999753,-0.018479464172944864,0.03580456958519053,0.6553196863001485,-0.030696166389656714,-0.03383921241273167,-0.09636981936397089,0.19668024949748553,0.11321624614059331,0.42914099920788107,0.2339580604083645,0.19668024949748553,0.7931643724441528,0.14363368310188684,0.07971763414106883,4,False
100,3.3333333333333335,2.219999999999975,-0.018504572451458975,0.03512854690131221,0.6552010788621359,-0.027432462926001388,-0.03302579667599337,-0.09705361571225242,0.19508795732888043,0.11886445828668925,0.4435336182825142,0.2351694107287962,0.19508795732888043,0.7931643724441528,0.14357145838514576,0.0769258944276085,3,False
101,3.3666666666666667,2.2399999999999745,-0.018422628643558096,0.0344707207278792,0.6550283448567086,-0.023993098686105843,-0.03215463988736883,-0.09771471670519757,0.19349566516027525,0.12443533185653712,0.4589477043044129,0.2359933799784206,0.19349566516027525,0.7917159795761108,0.14216398244314174,0.07636572281183608,4,False
102,3.4,2.259999999999974,-0.018228022562028125,0.033819077389908976,0.6548028397197062,-0.0204011910221096,-0.03122545328225798,-0.09850124535018123,0.19200883114129752,0.12995611029797877,0.47539293262036775,0.23796158582211174,0.19200883114129752,0.7905094027519226,0.14102888713387862,0.07435487987952068,3,False
103,3.433333333333333,2.2799999999999736,-0.01793480731678211,0.03316330489891346,0.6545403974477746,-0.016754120058065203,-0.030415095275919613,-0.09930649468084266,0.19190940516277663,0.13543454116656398,0.4927052722715085,0.23723505998880576,0.19190940516277663,0.7905094027519226,0.14108359179041757,0.07137028784693597,3,False
104,3.466666666666667,2.299999999999973,-0.017539245572359606,0.03248933385115926,0.6542486563779866,-0.0129792357009578,-0.02952471606154246,-0.10030629770663917,0.1921241689418616,0.140862564776119,0.5109137482752804,0.23806649824189186,0.1921241689418616,0.7896507978439331,0.14032707876650177,0.06927945238807458,3,False
105,3.5,2.3199999999999728,-0.017045593189603477,0.03178414192920475,0.6539360713556179,-0.00904553648671541,-0.028578929047326975,-0.10157752573760388,0.19233893272094663,0.14626666477396938,0.5299974984511205,0.23849162060185955,0.19233893272094663,0.7894881963729858,0.1402491456194333,0.06704961122339206,3,False
106,3.533333333333333,2.3399999999999723,-0.016471865676459318,0.031040236338655925,0.6536163489793556,-0.005094585358471168,-0.027726362204068718,-0.10287508057981687,0.19256876974473602,0.151637973825827,0.549749580603138,0.23724128515166765,0.19256876974473602,0.7894881963729858,0.14032548676935477,0.06410127066391971,3,False
107,3.566666666666667,2.359999999999972,-0.015805154268385444,0.03024805727686497,0.6532932663915859,-0.0010746797147349193,-0.02674005100484203,-0.10449060360015422,0.192998548152068,0.15697136231977804,0.5702177669406454,0.23737438963253057,0.192998548152068,0.7895343899726868,0.140436972637379,0.06045322956505111,3,False
108,3.6,2.3799999999999715,-0.015053346424111996,0.029403874586547724,0.6529737194146883,0.002961862890153625,-0.025608359008038064,-0.10644854049470756,0.19478452957365297,0.1623584579427082,0.5912518127041361,0.23677460152980256,0.19478452957365297,0.7896850109100342,0.14063598933261115,0.05626162673018174,3,False
109,3.6333333333333333,2.399999999999971,-0.014244905101333818,0.028497961135757813,0.6526663296904825,0.0069988158458871375,-0.02456875808406125,-0.10843620320504062,0.1979540696751346,0.1680531330541832,0.6126978296456302,0.23480346541277683,0.1979540696751346,0.7896850109100342,0.1406698349467333,0.053781443979754526,3,False
110,3.6666666666666665,2.4199999999999706,-0.013364130161299143,0.027532597241090452,0.6523717751820586,0.011087863852177688,-0.02338215926044733,-0.11088122383709462,0.20154713568895596,0.1737343493969032,0.6345956780679307,0.2352588525492157,0.20154713568895596,0.7896826267242432,0.1406811879853687,0.048836353526359275,4,False
111,3.7,2.43999999999997,-0.012422414916416649,0.02651301778190725,0.6520989761551811,0.015175081953592474,-0.022029617487525206,-0.11382395988212758,0.2057702070340385,0.17950329397190884,0.6567654017691329,0.2378203219551817,0.2057702070340385,0.7896128296852112,0.14060424405658312,0.04411727275839255,3,False
112,3.7333333333333334,2.4599999999999698,-0.011461553604473068,0.025452810499614058,0.651863808577737,0.019234892384090697,-0.020770393971715373,-0.11679694508443415,0.2117290588336554,0.18554957165949987,0.6790133611217282,0.23812299321878222,0.2117290588336554,0.7896128296852112,0.1405647188421394,0.04254412545269223,3,False
113,3.7666666666666666,2.4799999999999693,-0.010486165689520427,0.024403189478163625,0.6517237951127932,0.023002476818342305,-0.019842335506534314,-0.11994881724214519,0.20955871074775784,0.18415461109448208,0.6555260506184419,0.22191060712982763,0.20955871074775784,0.7894082069396973,0.14026300268940614,0.03842155200009055,3,False
114,3.8,2.499999999999969,-0.009557465151565912,0.023587862064470756,0.6517255941027421,0.025785394697500075,-0.019172475373997987,-0.12272488398780133,0.20466809054499024,0.1800325217019547,0.6191816934365721,0.2091182034521888,0.20466809054499024,0.7891911864280701,0.13985891368780573,0.03566698720342837,3,False
115,3.8333333333333335,2.5199999999999685,-0.008734252714415986,0.022787865975068537,0.6519508215544113,0.028788338748669387,-0.019251831286151423,-0.12555483186269023,0.1997892632208057,0.1768582344233595,0.586431585764302,0.1849239515590005,0.1997892632208057,0.7891911864280701,0.13951838557745727,0.036027079550223225,3,False
116,3.8666666666666667,2.539999999999968,-0.00796041601279972,0.022231840194992407,0.6524871858501579,0.03177512191990653,-0.019403031832536697,-0.1280962567283175,0.19523240918039794,0.17391268237048949,0.5841800449972316,0.16944597340987558,0.19523240918039794,0.788968026638031,0.13869378545501196,0.03497647199308942,3,False
117,3.9,2.5599999999999676,-0.00723023784640261,0.02208840442575262,0.6532982514530011,0.03412109936562031,-0.01943510999232428,-0.12988123442868768,0.19104354641899496,0.17114000740196286,0.5920397024272089,0.19970947337121053,0.19104354641899496,0.78886479139328,0.13776636285746122,0.03635014768443668,2,False
118,3.933333333333333,2.579999999999967,-0.0065848790831630494,0.022276354734308758,0.6542723877611014,0.035759467995937336,-0.01993216427112843,-0.13169465266699507,0.18718347289900752,0.16869414508144742,0.5985841288884212,0.19217454603576792,0.18718347289900752,0.78886479139328,0.1368376300208498,0.03725053903379395,3,False
119,3.966666666666667,2.599999999999967,-0.005958016362097911,0.02267197501834531,0.655463816820587,0.03757378796170029,-0.020280206878283354,-0.13319399413323135,0.18436420804381107,0.16716344318232954,0.6018043898059495,0.22157206172765403,0.18436420804381107,0.7890976071357727,0.13596820297966997,0.04039857133955511,3,False
120,4.0,2.6199999999999664,-0.005378794892689092,0.023561699444557885,0.6568117021651704,0.03852862569443665,-0.020333020880402747,-0.13389129480013462,0.18154494318861464,0.16534719993960095,0.6002553654010341,0.24337220377388497,0.18154494318861464,0.7900024056434631,0.13565154235214733,0.04432993633763507,3,False
121,4.033333333333333,2.639999999999966,-0.004756340253213149,0.024589682785003814,0.658177811214636,0.03949670565043471,-0.02079691810673572,-0.13460612056904608,0.18015971903006148,0.1639884681049269,0.6014621933426151,0.29712027968333543,0.18015971903006148,0.7900024056434631,0.134483583911541,0.0450549079697774,2,False
122,4.066666666666666,2.6599999999999655,-0.004154000488582827,0.025917599538212304,0.6596576779765253,0.04016187742309367,-0.02101036822328372,-0.13449109714144072,0.18024334311660917,0.16214528581592155,0.5982867278331827,0.3435794877758814,0.18024334311660917,0.7901291847229004,0.13337583924108504,0.04982170797391653,1,False
123,4.1,2.679999999999965,-0.0035146395983801006,0.027473634564519275,0.6610924360789013,0.04037990347005606,-0.02130146569554726,-0.13392808142443888,0.18050115283635615,0.16049711779333745,0.5960395439286659,0.29911605048282847,0.18050115283635615,0.7898669838905334,0.13199219190365796,0.054366402698778654,3,False
124,4.133333333333334,2.6999999999999647,-0.0029338119684465917,0.029270742675504224,0.6625760536452238,0.04034992961451713,-0.021560629022987055,-0.13330752428056258,0.18111205970736804,0.15822988514746647,0.6015372410429134,0.3431813845342661,0.18111205970736804,0.7898669838905334,0.13089355145589,0.05453954097355664,2,False
125,4.166666666666667,2.7199999999999642,-0.0023101424690945248,0.03132419257212615,0.6639628219263841,0.03957192601782123,-0.021528661958211282,-0.1330337993087709,0.1826478062196956,0.15570800096628012,0.6161178247249588,0.3885573277340927,0.1826478062196956,0.7890738248825073,0.12920190940857204,0.05940096530473015,2,False
126,4.2,2.739999999999964,-0.001797646458009995,0.03365678194430431,0.6653413343966997,0.038667366010495884,-0.02127675250011745,-0.13211256678393637,0.1841835527320231,0.15226258739824003,0.6298594143407206,0.4209862543970567,0.1841835527320231,0.7882068157196045,0.1275556297510453,0.06426553413034318,1,False
127,4.233333333333333,2.7599999999999634,-0.0014222195336429885,0.03626229131710684,0.6665463107699868,0.03718284126916995,-0.021076138779987652,-0.13193162158229602,0.18696243326706907,0.1479662307388978,0.6431312713066117,0.4464315526429142,0.18696243326706907,0.7882068157196045,0.12705113283238215,0.06334302810062833,2,False
128,4.266666666666667,2.779999999999963,-0.0011132797549660409,0.038957561213531194,0.6676482465640651,0.035912360752671596,-0.020804595372232945,-0.130731741376322,0.1906093349881093,0.14394958194279855,0.6558287821278748,0.4675985258179114,0.1906093349881093,0.7871922254562378,0.12575783598076806,0.06780321284150637,1,False
129,4.3,2.7999999999999625,-0.0007803448822688413,0.04181442226958028,0.6685258690561229,0.0341579881088675,-0.02057444517476615,-0.12932108354124827,0.19425623670914954,0.14007783193558027,0.6679793213821341,0.47329661009703483,0.19425623670914954,0.7860972285270691,0.12474751688962929,0.07112820922028258,2,False
130,4.333333333333333,2.819999999999962,-0.000391437980086304,0.044644990100125605,0.6693283083246424,0.033020171394128946,-0.020772884839332206,-0.12748074548883886,0.19882080639724128,0.13644155386936319,0.6795226899357436,0.47431064664588013,0.19882080639724128,0.7860972285270691,0.12494265159787049,0.07022110405629955,2,False
131,4.366666666666666,2.8399999999999617,0.00011773444550423239,0.047700756235935095,0.6699621702985022,0.031016316109470476,-0.020844247099651415,-0.12469424460241237,0.20405107898445934,0.1323395920870456,0.6900548788964121,0.4636110556611832,0.20405107898445934,0.784961998462677,0.12434510549651426,0.07328938313320597,2,False
132,4.4,2.8599999999999612,0.0007573574170389994,0.05066353184341134,0.6705361421699232,0.029517652032701576,-0.02101380969008898,-0.12189844816597074,0.2092813515716774,0.12890174957459213,0.700306008091705,0.4589945305994594,0.2092813515716774,0.78399658203125,0.12409150005302358,0.07576507896955839,2,False
133,4.433333333333334,2.879999999999961,0.0015130916181085438,0.05372101766100832,0.671083704467029,0.027735102026758024,-0.021403642974049814,-0.11849255966538762,0.21451162415889546,0.12522496625753957,0.7094001982032907,0.4272198552944457,0.21451162415889546,0.78399658203125,0.12481557662371681,0.07462679914186435,2,False
134,4.466666666666667,2.8999999999999604,0.0024158156163388727,0.056757290827424665,0.6715208917237085,0.025729276187053816,-0.021650696322775737,-0.11535536910267158,0.21974238160988727,0.12234170736909225,0.7182749759494313,0.43319569440126793,0.21974238160988727,0.7833195924758911,0.12516317338248004,0.07702240499950185,2,False
135,4.5,2.91999999999996,0.0034452116769932146,0.059727758971531555,0.671983117941615,0.023887315842354605,-0.021574576508015426,-0.11185212574106779,0.22283859630361488,0.11955277605565186,0.718357646820664,0.39947502688915726,0.22283859630361488,0.7832193970680237,0.12602739361011625,0.07920411533406901,1,False
136,4.533333333333333,2.9399999999999595,0.004598986272852087,0.0626581621124803,0.6722936506998278,0.021824196505070323,-0.02104040508372074,-0.10901876994097963,0.220916991113713,0.11596077095098462,0.699395217466471,0.3634567997324794,0.220916991113713,0.7832193970680237,0.12719107267296373,0.07773122410316508,2,False
137,4.566666666666666,2.959999999999959,0.005871364585482511,0.0652899262978072,0.6725840934541821,0.020351202947521584,-0.019956677173092838,-0.10673803738634959,0.21938696439597988,0.11320222063478483,0.6825815607827667,0.33020008269449713,0.21938696439597988,0.7830420136451721,0.12817416340182994,0.07988833657308701,2,False
138,4.6,2.9799999999999587,0.007247242176150566,0.06776934066919127,0.6728045091657772,0.01850369871671815,-0.01828001641504069,-0.10481421542476542,0.21937211836015982,0.11056352788673912,0.6674803597471191,0.2996522300761862,0.21937211836015982,0.7828260064125061,0.12910230614787885,0.08202531899988066,2,False
139,4.633333333333334,2.9999999999999583,0.008685322711259415,0.07004202031342857,0.6728744584607581,0.016435142990035356,-0.01647045289867362,-0.1037091360644734,0.21978947078465366,0.10996513834165457,0.6541080473753123,0.2817546460693716,0.21978947078465366,0.7828260064125061,0.130360955870492,0.07997143625674367,2,False
140,4.666666666666667,3.019999999999958,0.010168903028547798,0.07203174150454002,0.6729945745306156,0.014809117489942777,-0.014315248185353369,-0.10328306995697493,0.22207057920989268,0.11167735243582069,0.6425268958146524,0.2718366892082829,0.22207057920989268,0.7824965715408325,0.13120739642307028,0.08240937919649731,2,False
141,4.7,3.0399999999999574,0.011715920607728232,0.0738114980655954,0.6731774182565617,0.013192995348443488,-0.01184327324220391,-0.10352770003112106,0.2243516876351317,0.11335596744276713,0.6321701419018149,0.2753622961440525,0.2243516876351317,0.781974196434021,0.13176356593497268,0.08467571128861286,2,False
142,4.733333333333333,3.059999999999957,0.013321273587187326,0.07538065283589541,0.6733932447500004,0.011370886011357977,-0.009398024538587816,-0.10399054149673446,0.22714223091692146,0.1147262016863585,0.6222008319894028,0.28012399135750243,0.22714223091692146,0.781974196434021,0.1326474343594245,0.08210034791023253,2,False
143,4.766666666666667,3.0799999999999566,0.014987681156067568,0.07672173842221053,0.6735976136386576,0.00941883375799766,-0.006575714856565258,-0.1050066752573181,0.23129246799379516,0.11579050178505079,0.6132773861713436,0.28891141929141406,0.23129246799379516,0.781065821647644,0.1327059226880963,0.08402943339303191,2,False
144,4.8,3.099999999999956,0.016677612417868047,0.0778472399330037,0.6737768429728938,0.007370008060472652,-0.003488549467784716,-0.10653962566814995,0.23544270507066875,0.11661463958117418,0.6052804819101439,0.29681601593232965,0.23544270507066875,0.7801777720451355,0.13271951028933382,0.08525412313052302,2,False
145,4.833333333333333,3.1199999999999557,0.018346278555133846,0.0787670879538186,0.6739357027310842,0.005176407169305851,-0.000505167697493635,-0.10814961750132526,0.23954373863836684,0.1172172810928764,0.5975153924141701,0.3053569031418448,0.23954373863836684,0.7801777720451355,0.1333736183321735,0.08211028271556055,2,False
146,4.866666666666666,3.1399999999999553,0.019968378584264968,0.07945288040314942,0.6740507440479558,0.0031385682129294653,0.0025920164792777264,-0.11012074423201657,0.2427594113894232,0.1167439564075101,0.5912828631254659,0.3059620784105333,0.2427594113894232,0.7792999744415283,0.13324705291018313,0.08318772869412205,2,False
147,4.9,3.159999999999955,0.021533403544613285,0.0799260524644166,0.6741069650572026,0.0013217646248150905,0.005676049155429052,-0.1125036856038157,0.24527308534088282,0.11565005994536072,0.5866575564939767,0.3041446994114564,0.24527308534088282,0.7789484262466431,0.1334658683844822,0.08445858682719512,2,False
148,4.933333333333334,3.1799999999999544,0.0230317366869085,0.08024778911288936,0.6741212110633054,-0.0004212534386643767,0.008478396343085282,-0.11464791172427377,0.2475701050920379,0.11448814611959741,0.5826819836219028,0.30111007346461033,0.2475701050920379,0.7789484262466431,0.13390766986224215,0.08146786264401502,2,False
149,4.966666666666667,3.199999999999954,0.024495353047680118,0.08045261103308325,0.6740828171555137,-0.0019471743216003595,0.011299772207038162,-0.1171191752230865,0.25000661443472844,0.11330799345777794,0.5798307380548109,0.2988824127326825,0.25000661443472844,0.778571605682373,0.13402807278863502,0.08319850087942453,2,False
150,5.0,3.2199999999999536,0.025927251412379317,0.08056732569546775,0.6739889221345733,-0.0032625922993969217,0.01413325958522485,-0.11977091083578811,0.25305193169884216,0.11250659885366394,0.57782782371016,0.2982391460733312,0.25305193169884216,0.7781444191932678,0.13410596028556845,0.08506179690068826,2,False
151,5.033333333333333,3.239999999999953,0.02731333711154376,0.08061168835209544,0.6738448085019453,-0.004539557165848852,0.01669155413911786,-0.12211103758248501,0.25622675406792894,0.1120001778451709,0.5758826072457767,0.29797604398308597,0.25622675406792894,0.7781444191932678,0.13451790754059073,0.08231762491966413,2,False
152,5.066666666666666,3.2599999999999527,0.028674235776789642,0.08059053943653197,0.6736408616277236,-0.005667682138322575,0.019277605705138406,-0.12445326375986937,0.2607033952203885,0.11144844236561402,0.5744725179737227,0.29775683445291745,0.2607033952203885,0.7774968147277832,0.1344406236142739,0.08392245087115227,2,False
153,5.1,3.2799999999999523,0.030006360532260044,0.08052248851595843,0.6733808040033201,-0.006697773474615117,0.021867759737722477,-0.12668680920985673,0.2651800363728481,0.11084994062916324,0.5734213398891606,0.2983251419702892,0.2651800363728481,0.7767390012741089,0.13430113702834348,0.08523000838139536,2,False
154,5.133333333333334,3.299999999999952,0.031294687646338734,0.08042056593014496,0.6730733137726193,-0.0077232795429763666,0.02417521723707042,-0.12862276312661286,0.26965667752530753,0.11019840957769979,0.5722199612411898,0.29923345758018927,0.26965667752530753,0.7767390012741089,0.13476542417422846,0.08291046168343622,2,False
155,5.166666666666667,3.3199999999999514,0.03255820501669024,0.08028488436872669,0.6727115846083309,-0.008694638978841105,0.026455318889492936,-0.1305156391207455,0.27413331867776713,0.10947541999695799,0.5712668618978205,0.3002835936987485,0.27413331867776713,0.7759721875190735,0.13466568526094663,0.0839643676597313,2,False
156,5.2,3.339999999999951,0.033796344301849336,0.08012457477975374,0.6722950584879157,-0.009635138185841472,0.028686513044219705,-0.13241016408524842,0.2786099598302267,0.10867043225145243,0.5705282518922072,0.3015781473592786,0.2786099598302267,0.7752438187599182,0.1346282778060397,0.08512112321049821,2,False
157,5.233333333333333,3.3599999999999506,0.035757776352836924,0.0799967698594816,0.6715607704710287,-0.015418497067401286,0.04043084692831538,-0.13818023340457058,0.2830866009826863,0.10785802735764599,0.5798361932740566,0.33540586115694,0.2830866009826863,0.7678532004356384,0.12993153531743465,0.2010545060716456,2,False
158,5.266666666666667,3.37999999999995,0.03657272791662187,0.07995671602524947,0.6713121060334573,-0.020755057883169187,0.03908219814827171,-0.12129083400188227,0.2904878684981487,0.10696657246533117,0.596351026007561,0.347293458980334,0.2904878684981487,0.7724575996398926,0.13395600814100117,0.15926137321215367,2,False
159,5.3,3.3999999999999497,0.03682935213639035,0.07981946278706632,0.6713047724182005,-0.020481208463242955,0.027415521652078927,-0.11440967513201639,0.29902389918546524,0.10690551259947498,0.6167343047724718,0.36797956219570527,0.29902389918546524,0.7945663928985596,0.15140514328525292,0.09456291026185665,2,False
160,5.333333333333333,3.4199999999999493,0.03714254299506257,0.07986948876097431,0.6714946443889692,-0.02001949763047782,0.01688017235732016,-0.1065274993332107,0.3089066266912134,0.1081296399891968,0.6360235840948576,0.3936033648434203,0.3089066266912134,0.7945663928985596,0.15135676203179843,0.08278385087207384,2,False
161,5.366666666666666,3.439999999999949,0.03746319675977122,0.08005941157444807,0.6717442550728753,-0.01936793943823763,0.006884834828733827,-0.09846569040146116,0.3188195944799252,0.11126128709254635,0.6549065494369807,0.42077652534079135,0.3188195944799252,0.7945579886436462,0.15131387573295765,0.07184301964286526,2,False
162,5.4,3.4599999999999485,0.03777742558612959,0.08035345470968187,0.6719534891489164,-0.01852472696341912,-0.0026221448683075473,-0.09033415980837936,0.32851008444143626,0.1144791932113815,0.6734999631708193,0.4512627598518645,0.32851008444143626,0.7945556044578552,0.15135008312979056,0.061576269319213776,2,False
163,5.433333333333334,3.479999999999948,0.03805717511019473,0.08068723990038837,0.6720356304067739,-0.017458136206507355,-0.011720983504074791,-0.0822182715006824,0.337597222318843,0.11545397995143485,0.6923397142888887,0.46643424053787197,0.337597222318843,0.7945556044578552,0.15150016986718337,0.05199786694850133,2,False
164,5.466666666666667,3.4999999999999476,0.038290117849398425,0.0810839074511219,0.671990363482895,-0.016321491768829847,-0.020477286100770396,-0.07415789231106376,0.34687834214240404,0.11606951324015984,0.71138416711201,0.4788330176924594,0.34687834214240404,0.7945550084114075,0.1517756647023919,0.043950389428153554,2,False
165,5.5,3.519999999999947,0.03847398173308725,0.08155594688994933,0.6718405016526853,-0.015157504738671725,-0.02890682677585902,-0.06621325726278308,0.356159461965965,0.1172880538612735,0.7304574182352267,0.48888747669963195,0.356159461965965,0.7945579886436462,0.15217132494731092,0.03794072539963813,2,False
166,5.533333333333333,3.5399999999999467,0.03860754289920387,0.08208109749892492,0.671592141473682,-0.01396538766038862,-0.0370261618914938,-0.05841096802368993,0.36544058178952615,0.11838168540297064,0.7495279116956439,0.4962199313504065,0.36544058178952615,0.7945579886436462,0.15266455916165256,0.03465603310632899,2,False
167,5.566666666666666,3.5599999999999463,0.03868426173435048,0.08264085846091422,0.6712559454017156,-0.01275436094121156,-0.04488843938240481,-0.05076996202278873,0.3747217016130873,0.11934431050607214,0.768647853403316,0.5021917030771451,0.3747217016130873,0.7945637702941895,0.15324395861674328,0.03488278886255194,2,False
168,5.6,3.579999999999946,0.039167810510170965,0.08336877629309719,0.6704583306521995,-0.008161169909635788,-0.04588494433679633,-0.06039435965281274,0.38382777242714206,0.12049464510201044,0.808639443689848,0.49100456976697393,0.38382777242714206,0.7457028031349182,0.1186023896674467,0.2106718016676641,2,False
169,5.633333333333334,3.5999999999999455,0.03894115712368748,0.08389807481033294,0.6699074917325061,-0.007002503234302447,-0.04952205836580653,-0.02592038633489007,0.3908221777923545,0.11839417821566661,0.8116300894769666,0.5714122246704636,0.3908221777923545,0.7736064195632935,0.1388479888772581,0.23254487426665696,1,False
170,5.666666666666667,3.619999999999945,0.038614788984750875,0.08421028125396847,0.6694162915481805,-0.004628264950871025,-0.053130982764328843,0.008167757158448261,0.39781658315756696,0.11663896590014203,0.8155038954973166,0.5470953578101954,0.39781658315756696,0.7726839780807495,0.1386140158452826,0.2379539502623658,2,False
171,5.7,3.6399999999999446,0.03822408356326163,0.0848915562634853,0.6691623264934824,-0.001807786413857268,-0.057395279489787294,0.040087453374054303,0.4047458470146714,0.11522955406700973,0.8206945246208569,0.5212414449729039,0.4047458470146714,0.7726839780807495,0.1390989195670675,0.20843499209448138,2,False
172,5.733333333333333,3.659999999999944,0.03793692783048422,0.08543198925409697,0.6687585517260395,0.0015561374600111502,-0.06128675963437506,0.07374879507431302,0.4118051364966547,0.11375359545019278,0.824179629462703,0.5131749653513631,0.4118051364966547,0.7716519832611084,0.13886277758582402,0.21402736234516695,2,False
173,5.766666666666667,3.6799999999999438,0.037776753619718134,0.08582832078230507,0.6680828350632484,0.005197152812254331,-0.06483973564682043,0.10846015740863173,0.4197405748861325,0.11239263547507969,0.8262874340328878,0.513280897482184,0.4197405748861325,0.7703775763511658,0.13857897565177504,0.21730765146937212,2,False
174,5.8,3.6999999999999433,0.03780507873721485,0.08602972151797082,0.6670425619693651,0.009542633983432752,-0.06865552390173003,0.1402657068374391,0.42805500878301256,0.11164999561008787,0.8287684902038399,0.4909451818470925,0.42805500878301256,0.7703775763511658,0.13944253188092992,0.1888769296778875,1,False
175,5.833333333333333,3.719999999999943,0.037922362586910986,0.08650071686130834,0.6658749708324768,0.013252859474509956,-0.07206677030394262,0.1735142001951071,0.43636944267989247,0.11207311385126305,0.8302651632445529,0.48053897256884953,0.43636944267989247,0.769029974937439,0.13953880221545154,0.19358490575977352,2,False
176,5.866666666666666,3.7399999999999425,0.03827737933304635,0.0868092362641683,0.6644112379736258,0.017669266068461358,-0.07487693938963438,0.2073412288220974,0.4446838765767727,0.11198957450356817,0.8288564820906851,0.4878757460749375,0.4446838765767727,0.7675359845161438,0.13975940022286074,0.19717761093112837,2,False
177,5.9,3.759999999999942,0.03891755860516979,0.0866912504338425,0.6623916832914682,0.02306458648678353,-0.07725883070393019,0.2376926047202344,0.45249517866703587,0.11201344157683796,0.8250607369573957,0.49739805145042343,0.45249517866703587,0.7675359845161438,0.14128778842125495,0.17136905074277042,2,False
178,5.933333333333334,3.7799999999999416,0.03965007997342069,0.08676619026484288,0.6601411030812283,0.027956796446883397,-0.07877164095357918,0.26839690281554984,0.4592643976733724,0.11101548998075797,0.8164262217472891,0.5081925646526223,0.4592643976733724,0.7658067941665649,0.14188403346479836,0.17650504059757077,1,False
179,5.966666666666667,3.799999999999941,0.040569253479710056,0.08623042854159463,0.6572427020661558,0.03357054640540974,-0.0790010390593519,0.29928022713878344,0.46579569891504213,0.10924568953284161,0.801949687683329,0.5244122116469502,0.46579569891504213,0.7639600038528442,0.14255031890568864,0.18081159454197598,1,False
180,6.0,3.8199999999999408,0.041485981424167824,0.08543934835742964,0.6538348695533405,0.03935226547248245,-0.07867136668027615,0.32555917947514335,0.4705775136238425,0.10538746766988848,0.7742308968864359,0.5664803314683988,0.4705775136238425,0.7639600038528442,0.14480779670800556,0.1576386996727529,2,False
181,6.033333333333333,3.8399999999999403,0.042205960486652115,0.08438732651413001,0.6500538252873224,0.04447450376917912,-0.07694637222619206,0.3510331426560595,0.4727350985333384,0.09821815147015546,0.7277130851200131,0.5062126382071468,0.4727350985333384,0.762349009513855,0.14605863078618575,0.16398210391589094,1,False
182,6.066666666666666,3.85999999999994,0.04283773541622157,0.08263185996396147,0.6457713248890431,0.04949036807925423,-0.07419648517972505,0.37598890336510876,0.4749563514479457,0.09357937373406959,0.680549890982811,0.5006647435042519,0.4749563514479457,0.7610859870910645,0.14756494538560821,0.17030644544565027,1,False
183,6.1,3.8799999999999395,0.04339567560467767,0.0804456192599952,0.6411748376887498,0.05447668229070309,-0.07110496703849634,0.39727661763776045,0.47687108713296533,0.09034738688778948,0.6351319010979573,0.49817663361444076,0.47687108713296533,0.7610859870910645,0.1501103971666621,0.15031493215475397,2,False
