frame,video_time_s,sim_time_s,root_x,root_y,root_z,root_roll,root_pitch,root_yaw,joint_target_abs_mean,joint_error_abs_mean,joint_error_abs_max,joint_velocity_abs_mean,ctrl_abs_mean,root_target_x,root_target_y,root_target_z,root_position_error_m,root_orientation_error_rad,contact_count,fall_proxy
0,0.0,0.2200000000000001,0.001077658783358454,-0.003143067854585984,0.7825003149686433,0.020012650891408933,-0.1258450663571306,-0.010188533993668742,0.14006494769417674,0.06289432720485669,0.4045663333504058,0.14235039882124378,0.14006494769417674,0.0,0.0,0.7953178336601383,0.013201928830329472,0.02939912196223956,7,False
1,0.03333333333333333,0.24000000000000013,9.684847589509473e-05,-0.0031075265007810865,0.7819800378877616,0.028955027068553647,-0.11476633026397381,-0.04137903722254443,0.1930196957226629,0.14910544619869487,0.6157021558524314,0.7797997358180759,0.1930196957226629,0.0,0.0,0.7696425800314042,0.013044204082872633,0.33890145338812816,3,False
2,0.06666666666666667,0.2600000000000001,-0.0014934593946061654,-0.002884646816026639,0.7810671539308104,0.03441830746879084,-0.11295850660660126,-0.057852288300761216,0.19627382413019875,0.15827680191247165,0.6918495681900729,0.7936309841908183,0.19627382413019875,0.0,0.0,0.7606773873221556,0.020720486463811964,0.28278665504241396,9,False
3,0.1,0.28000000000000014,-0.003600144192207513,-0.0037720140936471384,0.7805263462319364,0.024356995888350226,-0.12134071569453567,-0.03414438669549921,0.2339144611876255,0.17223391806146737,0.6297238252509606,0.6653527453178091,0.2339144611876255,0.0,0.0,0.7714524502730535,0.010266335287532506,0.19618497123166173,9,False
4,0.13333333333333333,0.30000000000000016,-0.00609841209669365,-0.005783362935850114,0.7803501825505296,0.01918151471071497,-0.12845594275267652,-0.011454735737187556,0.21954133547604887,0.13474868060222447,0.8314578416699593,0.6750905873785381,0.21954133547604887,0.0,0.0,0.7848202306487319,0.008768729954864767,0.2852109721178901,9,False
5,0.16666666666666666,0.3200000000000002,-0.008970014471819493,-0.007962236279420417,0.7799746563941612,0.0178598127300634,-0.13020591895612438,-0.004292277041353363,0.23423077560990055,0.16801225118707866,1.0472357748081402,0.787833019694466,0.23423077560990055,0.0,0.0,0.7920840831210498,0.01628463701320847,0.19892654862045667,7,False
6,0.2,0.3400000000000002,-0.011738056406577477,-0.010100510605363378,0.7803207733614715,0.01799048988674118,-0.12950018591434093,-0.02738334285539161,0.2229400159841749,0.1607001856936474,0.6043210907747611,0.7345151374632105,0.2229400159841749,0.0,0.0,0.7920956872223678,0.018855667847190935,0.22775669402451612,7,False
7,0.23333333333333334,0.3600000000000002,-0.014669116164906144,-0.012554098958505925,0.7801934932007184,0.01730156833665308,-0.12748541162964883,-0.036145185799124874,0.23855882840465964,0.20127055086278972,1.1337755134902574,0.7407936033090275,0.23855882840465964,0.0,0.0,0.7918800312252451,0.021697212523732277,0.1422794845015589,6,False
8,0.26666666666666666,0.3800000000000002,-0.01815413728012842,-0.015528813382195748,0.7797319852821275,0.01734588825287911,-0.12229918336884647,-0.03744162032726273,0.22704669758014592,0.19278086857688156,0.8133493928800151,0.9391825482503753,0.22704669758014592,0.0,0.0,0.7960330494376513,0.02788490089917691,0.157170237433036,6,False
9,0.3,0.40000000000000024,-0.02217135588569301,-0.019047993733573212,0.7803854296008542,0.010504421188551815,-0.11532101982246475,-0.04797804097667044,0.22560434958470507,0.19785257395748235,0.7224244796232422,0.9494690655280338,0.22560434958470507,0.0,0.0,0.8012231482593075,0.034869572489350104,0.18265075277537773,4,False
10,0.3333333333333333,0.42000000000000026,-0.02669776124527426,-0.022266980343002913,0.779019200710824,0.009158568948250479,-0.10293899222234419,-0.06186399018352267,0.25481904652542864,0.15286470996517873,0.7348654954810689,0.8672761499960207,0.25481904652542864,0.0,0.0,0.7861652098314159,0.03414362662460927,0.2726944972109435,5,False
11,0.36666666666666664,0.4400000000000003,-0.030754809685841412,-0.024310286330163106,0.7766604785057295,0.017385806531152702,-0.0871677451120262,-0.06256243225314338,0.3096014724973905,0.1565389109477825,0.9878710895406039,0.7941148527850739,0.3096014724973905,0.0,0.0,0.7816393019511011,0.03853703342544316,0.25395886078899377,7,False
12,0.4,0.4600000000000003,-0.0334514902875509,-0.0244684211590632,0.77582996774669,0.026459360966107393,-0.08552025908402418,-0.04458307800326661,0.3051876643649765,0.17190809412348257,0.6874334731014606,0.8819418291864191,0.3051876643649765,0.0,0.0,0.7986840108754186,0.047022614129553206,0.16673315663341026,3,False
13,0.43333333333333335,0.4800000000000003,-0.03504254891483024,-0.02206931128025236,0.7745589913334271,0.027890026331580407,-0.0917796587787453,-0.061270828806173544,0.2854584880098441,0.20329888194178902,0.5272434404397914,0.723668305791129,0.2854584880098441,0.0,0.0,0.7533427043990149,0.04672934143257137,0.21848695619412126,7,False
14,0.4666666666666667,0.5000000000000003,-0.03662789980243832,-0.01895776260278908,0.7752706127593424,0.03328819873210497,-0.10917283194104781,-0.07868457881749027,0.3076723241442699,0.23525310313086253,0.8064181927879464,1.1880728063584167,0.3076723241442699,0.0,0.0,0.7346289041462661,0.05805420851912996,0.28223489009080205,4,False
15,0.5,0.5200000000000004,-0.03651271591133926,-0.01615573683450891,0.7746219537628777,0.01796858330328711,-0.10784687514899924,-0.02485455708043729,0.29244823735463776,0.1929394443915828,0.907428443436481,1.0099386803147554,0.29244823735463776,0.0,0.0,0.760378674709605,0.04278438358631527,0.4611101486951464,4,False
16,0.5333333333333333,0.5400000000000004,-0.035854346514323995,-0.013175438350948612,0.7744524067496632,0.015265995713866361,-0.10942311698247044,-0.003163068742076703,0.2850541835682971,0.1445343391120649,0.5147437800401804,0.7433447969979893,0.2850541835682971,0.0,0.0,0.7846280353892888,0.04000202095703156,0.19116779775618625,5,False
17,0.5666666666666667,0.5600000000000004,-0.034865003193454924,-0.00928083754186291,0.7746538395251141,0.021629322898858692,-0.11034266194725509,-0.007831340958960832,0.324825671302556,0.17042861200689619,0.5366600090089307,0.8183621098041896,0.324825671302556,0.0,0.0,0.7922066748694542,0.04062705145714296,0.06976918813046842,5,False
18,0.6,0.5800000000000004,-0.034620553310609085,-0.004937413815252593,0.773799038730387,0.023607947627126275,-0.11687134846778321,-0.029977562325953458,0.30351451436694293,0.16162857413472148,0.7164962750018482,0.6602836059292734,0.30351451436694293,0.0,0.0,0.783795996846883,0.03637951933065052,0.18770029186912504,5,False
19,0.6333333333333333,0.6000000000000004,-0.035996321505288593,-0.0012132328388850004,0.7720997212401617,0.021042985381580035,-0.11844050204790788,-0.04700200298685405,0.2888517809652443,0.13195010877370358,0.7209172886491648,0.5849604231763008,0.2888517809652443,0.0,0.0,0.7901396921014959,0.03975357761324167,0.20529377509449512,6,False
20,0.6666666666666666,0.6200000000000004,-0.03839484126086729,0.002098711340709026,0.7713649721945552,0.022254362730093687,-0.11368516510547015,-0.0726824648616332,0.29880468282113726,0.17148592596325668,0.5714832424335322,0.7968101530706455,0.29880468282113726,0.0,0.0,0.7901418624501682,0.042139206331963205,0.31151648933839593,6,False
21,0.7,0.6400000000000005,-0.041363958494688775,0.005574119359482039,0.7714958134545727,0.025379734746092005,-0.10749811425928507,-0.11395854774258354,0.31210865076871736,0.24795815666775908,0.8947599797294079,1.3452013536680834,0.31210865076871736,0.0,0.0,0.779718621477642,0.04169242646914871,0.44000976296831246,4,False
22,0.7333333333333333,0.6600000000000005,-0.04404408332416062,0.009273744797144474,0.771175243120991,0.026929921697661414,-0.09711199988315232,-0.1692122734654564,0.3611556060079561,0.2681630580730422,0.8047825291553989,1.345150655442667,0.3611556060079561,0.0,0.0,0.7755517984032544,0.04440358082780337,0.58798045510466,5,False
23,0.7666666666666667,0.6800000000000005,-0.046229588058436584,0.011998964789122782,0.7706838641367838,0.019114895684270352,-0.08964811978923413,-0.1776893697971965,0.3360965656113918,0.18616531435166364,0.7112096015804028,0.9732356165064838,0.3360965656113918,0.0,0.0,0.7765544695003835,0.0475235651219508,0.23364026279471717,6,False
24,0.8,0.7000000000000005,-0.047698904203478096,0.013430511806581892,0.7705786008202267,0.010240524493870595,-0.08433673855058633,-0.16674370644537467,0.3189123894619493,0.1920140218189737,0.5672901203676498,0.7829177879865185,0.3189123894619493,0.0,0.0,0.7844195224967337,0.05102398979475596,0.16450947708420435,5,False
25,0.8333333333333334,0.7200000000000005,-0.04913745892014319,0.014437734315317391,0.7697750448777735,0.00756457267092126,-0.08439350966645495,-0.15472369281939813,0.3375849055700699,0.17748501804389716,0.6730942675121964,0.7342941912262057,0.3375849055700699,0.0,0.0,0.7775239222839712,0.05137224927214932,0.10226339355411801,5,False
26,0.8666666666666667,0.7400000000000005,-0.05058559956158365,0.014833567265418292,0.7695809552091372,0.005161670087213337,-0.08633666724110313,-0.15215104159495269,0.3186646373684987,0.14766343519816694,0.5106989450367224,0.6656373063943157,0.3186646373684987,0.0,0.0,0.7827275919329107,0.05397613555694627,0.10126786946260753,4,False
27,0.9,0.7600000000000006,-0.05222807400193839,0.014328554301046832,0.7692379753489345,-0.0022705047832718163,-0.08951358683672478,-0.14693181074150502,0.2507973345277328,0.15440530815423253,0.6280359190101803,0.65591886420018,0.2507973345277328,0.0,0.0,0.794768520114384,0.0595228667139391,0.13977341353359227,4,False
28,0.9333333333333333,0.7800000000000006,-0.05419131681468629,0.012251346334157379,0.7678655991522121,-0.0002936652554126956,-0.0866846662942112,-0.14171971483437765,0.26916209590107026,0.16108896399514142,0.9008213911897001,0.6826865499489244,0.26916209590107026,0.0,0.0,0.7848139458849123,0.057631217224738296,0.20268363946669246,6,False
29,0.9666666666666667,0.8000000000000006,-0.05656732939880125,0.009499766035357769,0.7670602941149053,0.0021484634645033726,-0.08062128104897491,-0.14174975294973857,0.32457081684859945,0.18506841202566954,0.7249415396445896,0.8330955293650304,0.32457081684859945,0.0,0.0,0.7839893673698679,0.05929172356719189,0.19280557787958624,8,False
30,1.0,0.8200000000000006,-0.05898868946754724,0.006753356363470245,0.7669326120687737,-0.00042201142349454815,-0.07753374357370138,-0.1470086415209608,0.36711117793448544,0.20270448564880425,0.8050136100005485,0.7510271533857709,0.36711117793448544,0.0,0.0,0.7925389201875662,0.06426414227349893,0.12125710601928687,6,False
31,1.0333333333333334,0.8400000000000006,-0.061101165000894984,0.004451140133270907,0.7669644742765156,5.596766803214734e-05,-0.07943081696697905,-0.1490876560819919,0.332973172338463,0.1940344243188739,0.9224619143731351,0.7816347025293267,0.332973172338463,0.0,0.0,0.7980231169893777,0.06823494694964809,0.06790837298769391,4,False
32,1.0666666666666667,0.8600000000000007,-0.06274386405417545,0.0032133729992385655,0.765928505511387,-0.0026332543606090767,-0.08456948810765412,-0.14732310936487844,0.30359021236013123,0.16998280052320372,0.8466633137192937,0.6884956916946791,0.30359021236013123,0.0,0.0,0.8005022876990193,0.07126993787940288,0.089882544442875,6,False
33,1.1,0.8800000000000007,-0.0644090505557816,0.0020938034574000237,0.7657662791844139,-0.0061278550861162085,-0.08546861140225742,-0.14956403162710585,0.29865473069951387,0.18095044329882384,0.8248658625240651,0.6173060772724968,0.29865473069951387,0.0,0.0,0.8030935713682748,0.07413173412495655,0.16691131052484653,7,False
34,1.1333333333333333,0.9000000000000007,-0.06541568200658918,0.0008422292472590345,0.7660544018636073,-0.014721918082427916,-0.08223165260287016,-0.12158801433312338,0.29303464577197835,0.14460766158357094,0.5036703985394577,0.5388978050550545,0.29303464577197835,0.0,0.0,0.7932419930130931,0.07070206150851599,0.2837297048094406,5,False
35,1.1666666666666667,0.9200000000000007,-0.06568841636897191,-0.00010352426952569662,0.7653683677552869,-0.025942321223492788,-0.08092505279475216,-0.08123675805515992,0.31015330517810236,0.16266666146753794,0.5409415877526501,0.90211246567068,0.31015330517810236,0.0,0.0,0.787054344618057,0.06910534078521871,0.34815953246701015,4,False
36,1.2,0.9400000000000007,-0.06601845920701127,-0.000804781833352736,0.7644387260620602,-0.029432297997924774,-0.07992057811401616,-0.06664368668429642,0.3261390499681055,0.18897382647736585,0.5575012555073628,0.7607150597855528,0.3261390499681055,0.0,0.0,0.793113702560421,0.07182235843657121,0.1951905160576119,5,False
37,1.2333333333333334,0.9600000000000007,-0.06617493661615582,-0.0013853684253573933,0.763853758257129,-0.0422261276797913,-0.07838356882378383,-0.029531822342000375,0.33834607411355433,0.1808444428662646,0.5613804063355305,0.6273900831111227,0.33834607411355433,0.0,0.0,0.7814721742978677,0.06845080739326796,0.37654882078292856,4,False
38,1.2666666666666666,0.9800000000000008,-0.0661100632175449,-0.0022806021594814273,0.7629280281182259,-0.053203151736132784,-0.07952377320743588,0.006161072423215591,0.330970399385926,0.19003238709974918,0.48836531137284983,0.7165914984030233,0.330970399385926,0.0,0.0,0.7717756946541695,0.06675570490992537,0.396117662838403,5,False
39,1.3,1.0000000000000007,-0.06551762697639787,-0.0028806330618000885,0.7623262647822189,-0.04716308224687523,-0.07474444091228151,-0.009822739717800896,0.3412569730757438,0.17464546328343203,0.5763353693716871,0.603724497170725,0.3412569730757438,0.0,0.0,0.7780665007734475,0.06746806368639709,0.18099408416649684,9,False
40,1.3333333333333333,1.0200000000000002,-0.0655590988124222,-0.0024039875104707098,0.7622816325510261,-0.05792667171272362,-0.07617884423738551,0.02835303907529492,0.2981778043772082,0.1901119497739385,0.5866940135801508,0.7009936560189953,0.2981778043772082,0.0,0.0,0.7683594194662542,0.06588868328275826,0.3234746563039167,4,False
41,1.3666666666666667,1.0399999999999998,-0.06518711863528938,-0.0006588436488093035,0.7609585082949101,-0.09247255543616524,-0.07355179824664544,0.12583969834291056,0.2927543872206374,0.20502589541158803,0.596624110100027,0.9841491518186305,0.2927543872206374,0.0,0.0,0.7577068532207937,0.06544191972508255,0.8228699283836068,7,False
42,1.4,1.0599999999999994,-0.06483728713705872,0.0001512476806506453,0.7596489137986864,-0.1026450262342848,-0.07414519990861605,0.18403592927939694,0.27160635984182074,0.16018780346335215,0.6839589161573283,0.8233012047369255,0.27160635984182074,0.0,0.0,0.7682844767636487,0.06546447972038005,0.538578270699889,4,False
43,1.4333333333333333,1.079999999999999,-0.06389823195508212,-4.494893444576209e-05,0.7589467799204805,-0.10214833211131685,-0.06481861813045273,0.19201874630702587,0.3194765202709093,0.15899801234281333,0.4812438676808717,0.489746466126669,0.3194765202709093,0.0,0.0,0.7739906688199485,0.06576216009143322,0.25565200769209984,6,False
44,1.4666666666666666,1.0999999999999985,-0.06514029546727039,-0.0016884095875889047,0.7580767797066129,-0.09724443711872119,-0.0668539221682664,0.16132723321888054,0.33969822188348997,0.19937760564449292,0.9823359141310045,0.7760704800962469,0.33969822188348997,0.0,0.0,0.7793974786354453,0.06801507104346782,0.3346310799562704,7,False
45,1.5,1.119999999999998,-0.06733000945620453,-0.0038863816253478286,0.7577372303695497,-0.08731169958360192,-0.06652947672450538,0.1421908089621833,0.3408732235965632,0.18370369325881514,0.7842938969305969,0.7045589690246582,0.3408732235965632,0.0,0.0,0.7888105621940166,0.07371390097898355,0.2572865107101075,5,False
46,1.5333333333333334,1.1399999999999977,-0.06921879115224921,-0.005174316675695776,0.7578182044500129,-0.08681428198600269,-0.0673948947384447,0.15408789121048694,0.2966206482438803,0.1817865510611133,0.6325655415991152,0.6378837888363004,0.2966206482438803,0.0,0.0,0.7861159736122121,0.07461244421325071,0.17964056842266596,4,False
47,1.5666666666666667,1.1599999999999973,-0.07080396185155054,-0.005196986003424955,0.7568672471740764,-0.10320131330555872,-0.07470789868245777,0.21265696036609183,0.2788073477960622,0.2016683244012289,0.7469195972413628,0.7218559280593673,0.2788073477960622,0.0,0.0,0.7813104408728071,0.07473263816239686,0.5131154274664893,6,False
48,1.6,1.1799999999999968,-0.0718158439436759,-0.004861382578832559,0.7558271939443197,-0.12197908226778692,-0.07162876576909091,0.2991927671438104,0.25891429883296335,0.20320446291297653,0.6663677745701448,0.9813329119495627,0.25891429883296335,0.0,0.0,0.7764256947098369,0.07457118929826644,0.7612904478430862,2,False
49,1.6333333333333333,1.1999999999999964,-0.07190050828273903,-0.00441656351246029,0.7541060543690259,-0.12920099252939254,-0.059944729111609016,0.3388801773479427,0.30376831099610846,0.15609506026579148,0.4934330411931656,0.6573110118836518,0.30376831099610846,0.0,0.0,0.7841806031784818,0.07788357534124099,0.47662936855508026,5,False
50,1.6666666666666667,1.219999999999996,-0.07212121947786242,-0.005185043696572484,0.753578981495077,-0.12237858906899203,-0.04857101264689172,0.31228833948417845,0.35102225633019707,0.1901332211887759,0.6755824688735989,0.760215159096487,0.35102225633019707,0.0,0.0,0.7849959454285016,0.07871005916513853,0.3116382455635312,7,False
51,1.7,1.2399999999999956,-0.07360374284367938,-0.008053177053375058,0.7550978755547427,-0.11591146122451984,-0.05929562451277788,0.2540976992245652,0.3240023701380612,0.16626629341256788,0.5031190401858289,0.810377165535842,0.3240023701380612,0.0,0.0,0.7750971647958032,0.07632459724972285,0.5527001003416436,5,False
52,1.7333333333333334,1.2599999999999951,-0.07501969850203846,-0.011700212523348772,0.7554916921768352,-0.11450062604669697,-0.07251274473859785,0.21692199496162928,0.28000297792816137,0.16193606033633481,0.5518352539414978,0.7149540439706744,0.28000297792816137,0.0,0.0,0.7609999511593188,0.07569192809464168,0.34655658655669563,4,False
53,1.7666666666666666,1.2799999999999947,-0.0758315226333599,-0.015104036495250989,0.7552105637309098,-0.11671464450863431,-0.07375277705965295,0.204058142787474,0.2588329982562628,0.18297975635064453,0.5527094857634309,0.7251672912596753,0.2588329982562628,0.0,0.0,0.7618054941244099,0.07725162409809741,0.15324427538027016,7,False
54,1.8,1.2999999999999943,-0.07595521869544866,-0.018759748030072694,0.7554673223980487,-0.12114742848919141,-0.06625808149357848,0.18623231469180537,0.26125269612238883,0.2242371070403742,0.6787033836577814,0.9389969809031793,0.26125269612238883,0.0,0.0,0.7951179318793654,0.08752213442647275,0.227894115031255,5,False
55,1.8333333333333333,1.3199999999999938,-0.07616232838415046,-0.023419836769928926,0.7556995543401528,-0.12137284138435453,-0.06711116059132151,0.16303352004139596,0.296699597514284,0.20814908027807258,0.8595372990584236,1.0029889412354762,0.296699597514284,0.0,0.0,0.7967290049240641,0.08931969981252283,0.24166731798683533,6,False
56,1.8666666666666667,1.3399999999999934,-0.07603839926344384,-0.028619005880952186,0.7559849754675398,-0.11851540269063225,-0.07453503600242817,0.13608484872389473,0.34562824515684953,0.226336432865665,0.7748163853838856,0.9668640802564122,0.34562824515684953,0.0,0.0,0.7888850302332598,0.08729050663555475,0.27210103130925867,5,False
57,1.9,1.359999999999993,-0.07690065215922008,-0.033856677647061295,0.755734225829866,-0.11652015203179282,-0.08656358397169742,0.10599806893989258,0.32404898676962607,0.20096691814128723,0.6621510789306537,0.990999796336542,0.32404898676962607,0.0,0.0,0.7838357099081675,0.08783421355715632,0.28348532316172503,5,False
58,1.9333333333333333,1.3799999999999926,-0.07887099047394873,-0.038298511646870634,0.7542424132131421,-0.11136378533070798,-0.09330409548281794,0.08314715161957018,0.3178010529042319,0.20169551218069984,0.775775183032329,0.8743459213318829,0.3178010529042319,0.0,0.0,0.7796261866444282,0.09026145440033138,0.28202024874378046,7,False
59,1.9666666666666666,1.3999999999999921,-0.08020589100002028,-0.04032697193316984,0.7537610283014439,-0.11240868782713556,-0.09102273213478447,0.08402473433345173,0.3176904840680829,0.18951922236653984,1.2394387467714691,0.6655764586983494,0.3176904840680829,0.0,0.0,0.779051566657241,0.09291374376503327,0.1994777441058109,7,False
60,2.0,1.4199999999999917,-0.08137534985364454,-0.04073778460888876,0.75345613225907,-0.13285749658085,-0.09655284346350522,0.1490627676119204,0.3255670246973002,0.23263969440432974,1.6488349547548844,0.8666852594850011,0.3255670246973002,0.0,0.0,0.7682014729241964,0.09205263710118335,0.6147710083335358,3,False
61,2.033333333333333,1.4399999999999913,-0.08222425077989517,-0.04088756064283687,0.7523120519859099,-0.1490138787873971,-0.10167447574336727,0.20695896324432853,0.30526899938849633,0.26868507808388176,1.9106422183060607,0.8594200806867226,0.30526899938849633,0.0,0.0,0.783565471288603,0.0966791647723714,0.5271042255146129,7,False
62,2.066666666666667,1.4599999999999909,-0.08279361223914361,-0.04230565364143059,0.7518386496646132,-0.1414635254817667,-0.10330353647409396,0.19249060748564514,0.29571153216028795,0.24929610038881686,1.817935871480377,0.942189370218008,0.29571153216028795,0.0,0.0,0.7984283135532795,0.10364192553943849,0.1845503490050505,6,False
63,2.1,1.4799999999999904,-0.08252738102712456,-0.0436762153506949,0.751347871651048,-0.13173224016121618,-0.11067251686296552,0.16964454751744537,0.3444783053914789,0.18336202406803112,1.1885917936012729,0.7482986050200099,0.3444783053914789,0.0,0.0,0.8006625725201604,0.10556244775506048,0.21743284378686384,6,False
64,2.1333333333333333,1.49999999999999,-0.08130413547813829,-0.044808100599624305,0.7516249811703041,-0.1253743713980295,-0.10971710184864858,0.14407496572344003,0.34469433192905147,0.20104667160742445,0.684985101657806,0.840350479736341,0.34469433192905147,0.0,0.0,0.801885726623992,0.10566710655027593,0.2295765052183641,5,False
65,2.1666666666666665,1.5199999999999896,-0.08153919297681272,-0.04698220514300967,0.7515546636803818,-0.1238845983895098,-0.10933930582071462,0.12438266572037698,0.34036425942733867,0.19546662661230768,0.7071413403911361,0.7732678498734633,0.34036425942733867,0.0,0.0,0.8001658276998904,0.10545751472835498,0.3155627829071889,8,False
66,2.2,1.5399999999999892,-0.08292279757343372,-0.050402149811194896,0.7506595754083099,-0.12161960385123163,-0.10275904246702817,0.10590192733920428,0.3014834780290146,0.2045547601425848,0.707237532364065,0.8800350896892496,0.3014834780290146,0.0,0.0,0.789764871708902,0.1037577629316408,0.3594477021974311,5,False
67,2.2333333333333334,1.5599999999999887,-0.08482041295223067,-0.05432327294306882,0.7490813705100168,-0.11920676948424803,-0.09544529696636636,0.08049997331392061,0.35620481410357935,0.17927436029958024,0.8614175206282211,0.8476620545898267,0.35620481410357935,0.0,0.0,0.7851021657512661,0.10593611480803107,0.3716735532769949,6,False
68,2.2666666666666666,1.5799999999999883,-0.08673602112261673,-0.05803451084378614,0.7477989867492504,-0.11798510649360121,-0.0813652739100645,0.04969347673762042,0.3528667097745206,0.17493881583092172,0.5982739225652347,0.7638023793381303,0.3528667097745206,0.0,0.0,0.7815772309137422,0.10882581415403095,0.40793429925913804,6,False
69,2.3,1.5999999999999879,-0.08762794194639303,-0.06063337931166848,0.7467053421264795,-0.11413247235868132,-0.058271747467168115,0.026658697195661645,0.3486361271184619,0.18244646698578998,0.4674884161518742,0.8367277036837495,0.3486361271184619,0.0,0.0,0.7623911496752742,0.10726546890484741,0.4600593081549452,6,False
70,2.3333333333333335,1.6199999999999875,-0.08772753989284668,-0.061378751154119775,0.7457338765874275,-0.11482708238217303,-0.041946472818670116,0.02037737836655924,0.2880631394098306,0.17347549050900482,0.5474710918673005,0.8318229069397683,0.2880631394098306,0.0,0.0,0.7754167720061514,0.11115524227059774,0.31221154963540293,5,False
71,2.3666666666666667,1.639999999999987,-0.08690255743207258,-0.059713724750594575,0.7457189254869433,-0.11553027317355376,-0.033826878192582496,0.026602024425585017,0.26616058619160976,0.18896523191639597,0.5884419446662462,0.5946773773872388,0.26616058619160976,0.0,0.0,0.7908535697479864,0.11525089685062873,0.21553209419016148,6,False
72,2.4,1.6599999999999866,-0.08548180758038693,-0.05671894315402179,0.7460250347779257,-0.11240115481353528,-0.027063845943181564,0.035860072604304134,0.2628566344672936,0.19217458744409094,0.5644758979993239,0.7348135623306957,0.2628566344672936,0.0,0.0,0.781674948777786,0.10939759931760479,0.18219548697443017,8,False
73,2.433333333333333,1.6799999999999862,-0.08455196236312144,-0.05370082241935894,0.7466269666028398,-0.10578682435571325,-0.03268161123419988,0.025470843911672397,0.2804696851801748,0.19053966273765988,0.5656783507482721,0.7446937587713832,0.2804696851801748,0.0,0.0,0.7782120982522405,0.10563602132412338,0.13679652334470052,5,False
74,2.466666666666667,1.6999999999999857,-0.08437099678230087,-0.0501405667343524,0.7470326918336976,-0.09970995575347151,-0.0462033963916213,0.010659863450635975,0.3218231177243525,0.21319353847602027,0.7101803340257258,0.9063670837790577,0.3218231177243525,0.0,0.0,0.7737829208905903,0.10222676832459725,0.21859357807916913,5,False
75,2.5,1.7199999999999853,-0.08344782158175722,-0.04469544270494784,0.7472887972632379,-0.09942121656450478,-0.037834132611448856,0.04105526262682743,0.31583409152924236,0.2082094133745761,0.855541420972852,1.103425042042687,0.31583409152924236,0.0,0.0,0.7552770806807707,0.09600209260664877,0.3664076819111817,4,False
76,2.533333333333333,1.739999999999985,-0.08180785838078876,-0.037995446678790214,0.7471828937712041,-0.09860261226933063,-0.020040995549652357,0.073628195695323,0.30837581145611004,0.19944064575673495,0.7661860029541924,1.2288508660400947,0.30837581145611004,0.0,0.0,0.6918837132959585,0.10676492971257863,0.4844455071436764,5,False
77,2.566666666666667,1.7599999999999845,-0.08123710262108755,-0.03240990307331832,0.7473245292572652,-0.07792641936849674,-0.023807434546398044,0.04509682368342233,0.35502679437285894,0.2032673064116672,0.7643142986890376,1.0391103427045518,0.35502679437285894,0.0,0.0,0.6305662644365013,0.14632763233964843,0.41375202067725836,7,False
78,2.6,1.779999999999984,-0.08123995877408503,-0.028419992501027936,0.7482117434650385,-0.07118600266681988,-0.03813820571203872,0.0368585816279722,0.33136000197125065,0.16186758579602298,0.49102014319134824,0.6002315003730012,0.33136000197125065,0.0,0.0,0.7531408012517281,0.08653364371327323,0.14892476332084456,8,False
79,2.6333333333333333,1.7999999999999836,-0.08036637285413897,-0.025528203294000282,0.7486088990207166,-0.06522475598833351,-0.04432535210778693,0.038147424247618744,0.35058603760638224,0.16528043478750942,0.5686165197422813,0.5555834108194397,0.35058603760638224,0.0,0.0,0.784271566462591,0.09193191087194533,0.19215127518784555,7,False
80,2.6666666666666665,1.8199999999999832,-0.07983139499429612,-0.023459559862654116,0.7482859867916144,-0.06000558902476896,-0.0493515578657091,0.043777555798496584,0.3022593541697821,0.17252178253050182,0.865648494786889,0.8494413754099517,0.3022593541697821,0.0,0.0,0.779856203440993,0.08915950612146388,0.1787620895162269,4,False
81,2.7,1.8399999999999828,-0.07996596745105511,-0.022568310516801894,0.7484588986888895,-0.056173030566896216,-0.05608970243166434,0.0389309901962292,0.3551043740712904,0.19844310202239396,0.6308294807688721,0.8507553569798013,0.3551043740712904,0.0,0.0,0.7794796417002994,0.08869395041118233,0.12255838598976039,6,False
82,2.7333333333333334,1.8599999999999823,-0.08044034081472545,-0.02298694382657377,0.7490195925075894,-0.05886609151587477,-0.05934105096678215,0.032471368232268684,0.34455580664837676,0.20954947657816286,0.6923045317512679,0.9568756939479308,0.34455580664837676,0.0,0.0,0.7866212651906593,0.09163128640630602,0.16349375389588494,5,False
83,2.7666666666666666,1.879999999999982,-0.08106950666744524,-0.024473840347670715,0.7493425834911503,-0.06714490020196924,-0.055714485639602226,0.026211930141333797,0.3197354614812317,0.19450223631886723,0.5054584370081525,0.8586808723376019,0.3197354614812317,0.0,0.0,0.7943998103643392,0.09569637076573162,0.23263588222546183,5,False
84,2.8,1.8999999999999815,-0.08183282902182731,-0.026566940203269017,0.7491633414614632,-0.06714855801324114,-0.05573528025453181,0.011512873189340548,0.30140580103450704,0.16016154144225928,0.6965756609827566,0.5405511585142577,0.30140580103450704,0.0,0.0,0.7826251733203938,0.09197743158374498,0.2083550672787086,5,False
85,2.8333333333333335,1.919999999999981,-0.08301033610138536,-0.02821835410658644,0.749054553274043,-0.052234994676258396,-0.059817933807517154,-0.057836455755004734,0.30108892329786047,0.22803810867606172,0.725839830675505,0.9837188189078426,0.30108892329786047,0.0,0.0,0.7735797573207054,0.09064431646565897,0.6298354640357006,5,False
86,2.8666666666666667,1.9399999999999806,-0.08474195827285141,-0.029384240142166656,0.7482640154645465,-0.01818925848311585,-0.0687521789560289,-0.18760421721433848,0.33032808520485735,0.217080778952309,0.7844774505456062,1.1665987908114963,0.33032808520485735,0.0,0.0,0.7686912004421333,0.09138639806609057,1.2079240525997377,3,False
87,2.9,1.9599999999999802,-0.08621017739938548,-0.029323153656121956,0.7464227287605146,0.005545992897407386,-0.07701087119868259,-0.28225965841239864,0.33823831497761075,0.27384140029935505,0.9798803225019276,1.180466843382988,0.33823831497761075,0.0,0.0,0.7821522036905615,0.09734057957655586,0.8722428652406493,4,False
88,2.933333333333333,1.9799999999999798,-0.08726481683896943,-0.02825260983788655,0.7449993173782758,0.01404229597408274,-0.08514742118533203,-0.3330663355499034,0.3766804052166602,0.2767816828894731,0.9017468326226015,1.270592477575645,0.3766804052166602,0.0,0.0,0.7952892115068864,0.10432291838122333,0.38747733192345696,4,False
89,2.966666666666667,1.9999999999999793,-0.08879202240893508,-0.027741186079890248,0.7436263061711318,0.009424954604378725,-0.09573360988050937,-0.3427208666698667,0.37531729042380035,0.20487267703019832,0.6563889573799834,1.1327026952425385,0.37531729042380035,0.0,0.0,0.8056751523500677,0.11131182123151187,0.1587316150030037,3,False
90,3.0,2.019999999999979,-0.09022088846539626,-0.02844752100780753,0.742702952228907,-0.001934088182706824,-0.10157109909193208,-0.31447864060188885,0.3446262203465596,0.15902697969563034,0.5196803981686203,0.6040275312766944,0.3446262203465596,0.0,0.0,0.7977857860365501,0.10904764529987164,0.3250524387543967,5,False
91,3.033333333333333,2.0399999999999787,-0.09115469115954508,-0.029421922829815376,0.7422628854845089,-0.009628520064436333,-0.10551003554105226,-0.28811613844754197,0.2897901469261062,0.1456943977859831,0.4409703566090989,0.7119179701112527,0.2897901469261062,0.0,0.0,0.7875005297527167,0.10570779666264249,0.27335928577842206,4,False
92,3.066666666666667,2.0599999999999783,-0.09013324403273221,-0.02988093194531909,0.741288005032943,-0.0015039543174109413,-0.09163701093149651,-0.2951485152314254,0.27608812827765483,0.14359771034352306,0.5685612641674228,0.8578796803243346,0.27608812827765483,0.0,0.0,0.7752888214021508,0.10106837013468763,0.2369784270345304,3,False
93,3.1,2.079999999999978,-0.08824846688457412,-0.030490350047997647,0.7402845339599998,0.00752193434430257,-0.0813453192735318,-0.31142481930065014,0.3029098672714853,0.16520795510932484,0.6191076156600337,0.6574746882200166,0.3029098672714853,0.0,0.0,0.7806667709270584,0.10188035731313917,0.28052638140528463,5,False
94,3.1333333333333333,2.0999999999999774,-0.08775715724210321,-0.03152606323403519,0.739402024733485,0.023447449995955577,-0.06715657693557016,-0.36638044814615334,0.3077970396259482,0.19258075508637162,0.606951178054645,0.8365853701789038,0.3077970396259482,0.0,0.0,0.7894893522761669,0.10573026043441335,0.5541074818670383,3,False
95,3.1666666666666665,2.119999999999977,-0.08783537192188211,-0.03218616767852321,0.7376144687871911,0.04605748838862255,-0.04289306330709496,-0.4526962774463195,0.31453314174378716,0.20171303343091168,0.8127284418419549,1.0991732094482862,0.31453314174378716,0.0,0.0,0.7946928218495964,0.1092471128155084,0.8133289309256472,3,False
96,3.2,2.1399999999999766,-0.08826085110819926,-0.03206254579439981,0.735297519003239,0.0706665163842705,-0.018048962181185853,-0.5248423131523277,0.36259519523144235,0.2316543599568748,0.7754905165084949,1.2595346315165097,0.36259519523144235,0.0,0.0,0.7765578199072501,0.10227915192985816,0.7048868744362796,3,False
97,3.2333333333333334,2.159999999999976,-0.08790414178781471,-0.030421151059242334,0.7328355491492643,0.09087210661626859,0.004592681842712926,-0.582186404000786,0.44644234258913035,0.30769536017942545,1.1259265149551652,1.7441134451874454,0.44644234258913035,0.0,0.0,0.7699081307709857,0.10018619452319646,0.5471699778677735,4,False
98,3.2666666666666666,2.1799999999999757,-0.08716280757471938,-0.027780369770818658,0.7306834656134749,0.1085119090067985,0.021250537692063892,-0.620978542287079,0.5280776275600361,0.3653648018604443,1.4193068049788196,2.1605299748632394,0.5280776275600361,0.0,0.0,0.7637034268726798,0.09749641505436885,0.3786279303664287,4,False
99,3.3,2.1999999999999753,-0.08714049168617087,-0.024768585654428223,0.7291008793553506,0.11522654084284334,0.027773083318285395,-0.6279035937042984,0.5439913322443478,0.3510377061902233,1.2486140736584594,1.8310684565699937,0.5439913322443478,0.0,0.0,0.6970404154742984,0.09627904048366723,0.2003969725183503,6,False
100,3.3333333333333335,2.219999999999975,-0.08863800341209756,-0.022544108778144282,0.728048744704504,0.11617290176656764,0.023949874982476516,-0.5986402334007949,0.48915941125128143,0.29441503089986737,1.1347290516481667,1.3969183216751135,0.48915941125128143,0.0,0.0,0.7168564216111654,0.09184466394309232,0.3856886483579067,6,False
101,3.3666666666666667,2.2399999999999745,-0.08898024312402246,-0.02033187696242143,0.7269066292496785,0.11175765958312726,0.01899841888571891,-0.5517590866094434,0.4318083891856151,0.24532832018600823,1.0128241977017423,1.341853010510062,0.4318083891856151,0.0,0.0,0.7935765966214847,0.1130530220921617,0.4493878314089967,7,False
102,3.4,2.259999999999974,-0.08795481603040815,-0.019008746528520026,0.7264146942646824,0.10710109114627336,0.019112006510234432,-0.5136749220814935,0.46170482303407995,0.2564231077626619,1.1969758651916709,1.0396240954741762,0.46170482303407995,0.0,0.0,0.771686031102993,0.10100148593622237,0.38429276619742686,5,False
103,3.433333333333333,2.2799999999999736,-0.0869004968121066,-0.01828814968646713,0.7265006115412375,0.09537843125092589,0.0198750579137437,-0.4767181560890173,0.46956246658677236,0.28828430786973636,1.117924255974951,1.191029162917468,0.46956246658677236,0.0,0.0,0.7556425829909779,0.09375651731990843,0.3523406325843439,4,False
104,3.466666666666667,2.299999999999973,-0.08537854718956153,-0.017595724008658036,0.7258531770762428,0.07699211278134666,0.018200615644469623,-0.42969003892179064,0.4333412992924951,0.3052807522339545,1.074306598352791,1.4708826409191715,0.4333412992924951,0.0,0.0,0.7476959774295331,0.09022483651475947,0.44792986566830617,4,False
105,3.5,2.3199999999999728,-0.08404272938906912,-0.01703914642982675,0.7251979722057418,0.0631098966843975,0.0038116426246421666,-0.3944793781475734,0.3762968952979939,0.31518997731389214,1.0452781665960478,1.754130990241559,0.3762968952979939,0.0,0.0,0.7841859359531889,0.10435394166028815,0.3573042697957154,4,False
106,3.533333333333333,2.3399999999999723,-0.08182881039706377,-0.01773636199529664,0.7255585783504972,0.05237398099189594,-0.00838333828171182,-0.35726390620698345,0.3906829065123683,0.24283745141312593,0.9073669876879735,1.411100111457374,0.3906829065123683,0.0,0.0,0.7968844715099034,0.11049288660559776,0.3524006033227922,4,False
107,3.566666666666667,2.359999999999972,-0.07801464764466855,-0.018828948120591153,0.7254948044025223,0.04176908677171106,-0.014161460209749606,-0.3140083384656289,0.41134981988406827,0.23717100528165333,0.7714174978399936,1.2469697470626564,0.41134981988406827,0.0,0.0,0.7882724447897135,0.10263651659050817,0.4315978923966872,4,False
108,3.6,2.3799999999999715,-0.0735772643055661,-0.019526767713744366,0.7256834549556583,0.04248956548430685,-0.013225626276445876,-0.2826753071199589,0.42205268950446106,0.2610899261220557,0.9374301106108063,1.1775548114211323,0.42205268950446106,0.0,0.0,0.7947592745560027,0.10360374530688365,0.3568561272949239,4,False
109,3.6333333333333333,2.399999999999971,-0.06965037969070444,-0.02038515129560053,0.7258204731384291,0.053355572670162686,-0.012008392065266138,-0.27091466176875256,0.4811931721060958,0.2370491056782903,0.9044756564636347,0.897725489122107,0.4811931721060958,0.0,0.0,0.7810038312696628,0.09184767818412155,0.1909489833555616,4,False
110,3.6666666666666665,2.4199999999999706,-0.06661516140157167,-0.020253052412913235,0.7256781583340445,0.06662013402157138,-0.00977945015440045,-0.2828632557439103,0.5154779223193369,0.279376101212157,1.0867118972751986,1.0281466159363861,0.5154779223193369,0.0,0.0,0.7527789207044921,0.07534506008566583,0.10173274947410473,4,False
111,3.7,2.43999999999997,-0.06433943439196259,-0.019937438544499395,0.72547091216233,0.08179165761335598,-0.01687086673540169,-0.287521007791074,0.5246279681315874,0.2657410936730456,0.7860305638310633,1.0659340785573643,0.5246279681315874,0.0,0.0,0.784059856403296,0.08967900616047421,0.11157846806664828,4,False
112,3.7333333333333334,2.4599999999999698,-0.061556068841561354,-0.020300629693806395,0.7255643839704995,0.07972604198153595,-0.03568569849607827,-0.268369912516929,0.4787346749482691,0.22907620545776972,0.7804564823866613,1.049967222692997,0.4787346749482691,0.0,0.0,0.7924535908970639,0.09368288903551751,0.20472412363018616,4,False
113,3.7666666666666666,2.4799999999999693,-0.058270287236018604,-0.02109627680384584,0.726375647880479,0.0766628138362088,-0.05592329349973757,-0.2697932445994852,0.4266868792033377,0.2138027460074521,0.6832408667672037,0.9370536020334119,0.4266868792033377,0.0,0.0,0.7756006721633585,0.0798837444409266,0.14097684253918583,5,False
114,3.8,2.499999999999969,-0.05428536214116723,-0.021804442062513293,0.7271424624558073,0.06774267059767021,-0.062073250977678206,-0.2645816530837839,0.4350382521496938,0.21478666992446444,0.6890661870374143,0.7752970529700316,0.4350382521496938,0.0,0.0,0.7847245644185622,0.08277283925825543,0.10679987602198959,7,False
115,3.8333333333333335,2.5199999999999685,-0.050598760123530984,-0.02302875541130695,0.7273052557733299,0.05300176819477428,-0.06405339706963796,-0.22634876263959658,0.4433897304222685,0.21419526670713473,1.2132615354203198,0.8213815423438614,0.4433897304222685,0.0,0.0,0.7888275236412557,0.08341467594132942,0.39931901820204624,5,False
116,3.8666666666666667,2.539999999999968,-0.0491414406039948,-0.025060632477492767,0.7271564547297715,0.025641005782373556,-0.08084384740443525,-0.1408822713542455,0.394400708480731,0.213390989418704,1.2595977138080592,0.9908645278502022,0.394400708480731,0.0,0.0,0.7868588975079857,0.0811483354520543,0.8194989495124947,2,False
117,3.9,2.5599999999999676,-0.04731453012247144,-0.028073341089494764,0.7254227500476581,0.01710514017217767,-0.08008209632172328,-0.10652119783674943,0.4288457562820155,0.227358315165607,1.8619477247976666,0.7876437719590524,0.4288457562820155,0.0,0.0,0.7745701320291171,0.07335089486012897,0.4197352929648982,4,False
118,3.933333333333333,2.579999999999967,-0.04617788507097195,-0.03235630096594117,0.7235371234690033,0.014518252111198709,-0.0798877722313373,-0.08099336290541302,0.41295732965067206,0.21875394265114612,1.360341454700306,0.8177175570393286,0.41295732965067206,0.0,0.0,0.7822908179101473,0.08078217277750158,0.22703142187064299,5,False
119,3.966666666666667,2.599999999999967,-0.045533646863079674,-0.03665425977190188,0.7220855831850889,0.013397888097620542,-0.09457627624519085,-0.048666584793598526,0.3918787097239764,0.19828091351840058,1.1663134724607842,0.8230577695960579,0.3918787097239764,0.0,0.0,0.8066016892734257,0.1022583314879394,0.2215105623805704,5,False
120,4.0,2.6199999999999664,-0.04487101332468427,-0.03964715963662005,0.7217294114536119,0.010401542222223836,-0.10405712412884377,-0.024239637934180592,0.3635309503322579,0.19802509731329315,1.0551280113699641,0.8430593767384928,0.3635309503322579,0.0,0.0,0.8012087033037655,0.09930345757846488,0.19053192591421333,6,False
121,4.033333333333333,2.639999999999966,-0.04429065084885257,-0.0424879179640248,0.7210451120806612,0.018228741792224747,-0.10300187187311131,-0.03783049272266143,0.42837497583427536,0.2590653971811275,1.2455003870455463,0.8066088002824623,0.42837497583427536,0.0,0.0,0.7980940761957966,0.09808976101728689,0.22574793773970286,5,False
122,4.066666666666666,2.6599999999999655,-0.04382781720369896,-0.04450888753604238,0.719289613066939,0.03611356331108867,-0.09592535650293328,-0.0934405421114896,0.4286363348898962,0.2824220404175867,1.3319451564397435,1.0298836797981816,0.4286363348898962,0.0,0.0,0.8004388819131502,0.10179858933643321,0.575817559610559,4,False
123,4.1,2.679999999999965,-0.043960792197310194,-0.046640965832162574,0.7170596980788189,0.05017685182991134,-0.09690364489019487,-0.13630971455063226,0.4144711283046681,0.2717748362156135,1.02595404002784,1.1431701336525406,0.4144711283046681,0.0,0.0,0.7974371969088975,0.10211277115901414,0.4467962031254185,5,False
124,4.133333333333334,2.6999999999999647,-0.04468961741973715,-0.0492329563083457,0.7147351338139639,0.06951967538313827,-0.10053828380174087,-0.18569597440768051,0.41045966103161713,0.26246396259419924,1.0631775951619176,1.1643498488725783,0.41045966103161713,0.0,0.0,0.7880331213001629,0.09800886021138802,0.44506677676589496,5,False
125,4.166666666666667,2.7199999999999642,-0.04656822287615882,-0.051367744912606185,0.7108486759859624,0.11248713000896823,-0.08866190972937057,-0.2876662145886083,0.3813961895265581,0.2457752175193558,0.6580694489032888,1.1523097271186573,0.3813961895265581,0.0,0.0,0.7759354832979527,0.09383971180721175,0.9276169771593138,4,False
126,4.2,2.739999999999964,-0.04899084976842878,-0.052517947001178074,0.7059873588751431,0.14413741036637112,-0.0770428229855259,-0.3499690623449498,0.46853723816361365,0.26161342400376547,0.9318960668029916,1.2337489205106447,0.46853723816361365,0.0,0.0,0.7871520948400492,0.10702486279867637,0.5495176323053101,5,False
127,4.233333333333333,2.7599999999999634,-0.05258923706040557,-0.052410109200312575,0.7023372140224792,0.15433706642851727,-0.08141150417209014,-0.3507176122715843,0.4638869885491886,0.2019388995708502,0.6459185718938112,0.9551268602504543,0.4638869885491886,0.0,0.0,0.7955168882269454,0.11811913025703512,0.15858229580652933,3,False
128,4.266666666666667,2.779999999999963,-0.05597789818373422,-0.05132546904495284,0.6992798936476797,0.1415130670316083,-0.0857328833234899,-0.3215489766733617,0.41994842454460146,0.1565609129858708,0.5325866730272496,0.7184640128311944,0.41994842454460146,0.0,0.0,0.7914185509676223,0.11857548023349428,0.3968428947033294,4,False
129,4.3,2.7999999999999625,-0.05962965364930696,-0.04936163678639455,0.6960709206400784,0.14094733194630993,-0.07911874634599109,-0.3175796595811736,0.4466652437414618,0.19250582623847462,0.8260868550741587,0.8182774250451633,0.4466652437414618,0.0,0.0,0.7771344994575309,0.11126646965963197,0.2628684856004621,4,False
130,4.333333333333333,2.819999999999962,-0.06400298934468263,-0.04709180754249007,0.6931887226809185,0.16249246006100712,-0.06536170970960584,-0.34517814098413974,0.47716233766155824,0.26355024252409054,0.8312886038830367,1.0084717493640412,0.47716233766155824,0.0,0.0,0.7706549522759915,0.11015339702404402,0.36687785168934434,5,False
131,4.366666666666666,2.8399999999999617,-0.06807164941642085,-0.04385158236772528,0.6917591122015405,0.17485610086472222,-0.06514205341256918,-0.34060254386988925,0.46685599623352714,0.19577137836663494,0.6535923798893504,0.7860420067191995,0.46685599623352714,0.0,0.0,0.7854318483217992,0.12345575754927388,0.15232896236343096,5,False
132,4.4,2.8599999999999612,-0.07073458109929917,-0.03906477332208076,0.6912037470516182,0.17231334319176972,-0.07040061274481392,-0.3182727569438276,0.4174672779013125,0.15800482122251885,0.5370377151892562,0.7661151349744806,0.4174672779013125,0.0,0.0,0.7848525983174779,0.12371362532800631,0.24462925916427133,4,False
133,4.433333333333334,2.879999999999961,-0.0728956741621189,-0.03363816037982363,0.6905755322646604,0.15266908691289102,-0.08518771672713334,-0.2675211165665726,0.43443896472128957,0.21499775126900805,0.7312417010881479,0.9680066661746887,0.43443896472128957,0.0,0.0,0.7781611563754581,0.11872480780548707,0.48380702238973233,4,False
134,4.466666666666667,2.8999999999999604,-0.0757887523244808,-0.028725112046081348,0.6899212698234813,0.10678867738941351,-0.11632601528218366,-0.1448921377791822,0.46010649719448565,0.2058266792338874,0.6488985194344146,1.3764545336700438,0.46010649719448565,0.0,0.0,0.7640962623444021,0.10954800037223476,1.1161280464185936,2,False
135,4.5,2.91999999999996,-0.07684479457357722,-0.024798020210459338,0.6876960477514086,0.05843447632804763,-0.1462690293334831,-0.03302516070062663,0.44675637017804026,0.2047279467588824,0.9702568271577515,1.2634596464993664,0.44675637017804026,0.0,0.0,0.6724299194068589,0.08248139366709593,0.9556165094831827,3,False
136,4.533333333333333,2.9399999999999595,-0.07603752830855849,-0.021359399532233227,0.6840615738922844,0.03565471840246996,-0.1607189696789746,0.04164089858656691,0.4454893744878318,0.1954056199926991,0.9277199304445668,1.1686231263785176,0.4454893744878318,0.0,0.0,0.6566977725137993,0.0844754822019643,0.5277515452015601,3,False
137,4.566666666666666,2.959999999999959,-0.07405555151495728,-0.017962550534310326,0.6810340398146861,0.020342716833473756,-0.16749362629251752,0.06003270115272434,0.4377608044087624,0.19717012226949546,0.5883029260681482,0.9660271473917162,0.4377608044087624,0.0,0.0,0.772711378549734,0.11914952182714146,0.20021451091812167,3,False
138,4.6,2.9799999999999587,-0.07273927989558239,-0.015515831505180482,0.6791041985644924,-0.002713676296142693,-0.17040080810696512,0.10441060641984086,0.4277325389304309,0.16792560550396268,0.5172732602841946,0.8317946462682703,0.4277325389304309,0.0,0.0,0.787684253185952,0.1313940815845209,0.5357382490911038,5,False
139,4.633333333333334,2.9999999999999583,-0.07394038752673929,-0.013916012189257775,0.67838919741782,-0.030022421211105047,-0.17813015910101376,0.15694279660195787,0.4052008086075838,0.18053666376215352,0.542650260544254,0.8811076555464544,0.4052008086075838,0.0,0.0,0.7934520221576989,0.1372277265622959,0.631215007922371,4,False
140,4.666666666666667,3.019999999999958,-0.07511007118569897,-0.01250076620445331,0.677130952423988,-0.027973221850251178,-0.18644465090451717,0.15546959601181234,0.4263479271662884,0.17682797446114615,0.8586083548462616,0.8023118248925999,0.4263479271662884,0.0,0.0,0.7964090433165978,0.14101759541665201,0.215932350611217,3,False
141,4.7,3.0399999999999574,-0.07541751005551738,-0.0108826452877698,0.674781187330168,-0.050395787618952144,-0.1902722559897783,0.19897369361192271,0.44727662711220817,0.1925854933100893,0.574981352966488,0.8894256777584508,0.44727662711220817,0.0,0.0,0.786058485216928,0.13446213312381886,0.41019893294795295,4,False
142,4.733333333333333,3.059999999999957,-0.0761799915703634,-0.008667989417480839,0.673772121116135,-0.08768103626276229,-0.18951049877333453,0.26961345121676816,0.4174469149427918,0.18888420233939654,0.5305228481031987,0.8524205121369072,0.4174469149427918,0.0,0.0,0.7838749477193564,0.1339780023963732,0.7142787017844817,3,False
143,4.766666666666667,3.0799999999999566,-0.07589441810995037,-0.00730182373167094,0.6724954073472954,-0.09101284623997984,-0.181221241815645,0.27361986159955876,0.43284094427753095,0.17491406556498312,0.5163291910774307,0.7217248703754169,0.43284094427753095,0.0,0.0,0.7925465335726444,0.14183360000291667,0.29966916908741664,3,False
144,4.8,3.099999999999956,-0.0758224193029174,-0.006795489690713195,0.6703939915876054,-0.07116712376718809,-0.1852380038206763,0.23893882061327973,0.430433694013821,0.13568861158622555,0.8329949505383099,0.777211550656334,0.430433694013821,0.0,0.0,0.7900107905464703,0.14137236718637924,0.36484211630021723,4,False
145,4.833333333333333,3.1199999999999557,-0.07580316548079397,-0.006900812714176121,0.6688227314149614,-0.04950785191720553,-0.1928516897818082,0.20509775006906428,0.4042951374658064,0.17197868783349946,0.7907618223591495,0.9589049687430997,0.4042951374658064,0.0,0.0,0.7911042274376668,0.1437638806442019,0.3532974227356515,5,False
146,4.866666666666666,3.1399999999999553,-0.07630738519170994,-0.007779958613609732,0.6677480204429124,-0.040707861703960686,-0.19165221191724213,0.17951033406990755,0.38948016917238176,0.18660388942863426,0.8123688630388742,0.949904629905964,0.38948016917238176,0.0,0.0,0.7962410227185664,0.14937717280604929,0.3555285375612774,4,False
147,4.9,3.159999999999955,-0.07650484519921577,-0.00894802012885418,0.6672885867801891,-0.03333623443220746,-0.18888935137001786,0.16312272437497907,0.3733691633335533,0.146543508659549,0.5199568267169663,0.5057248636599212,0.3733691633335533,0.0,0.0,0.795867320408745,0.14979678783415623,0.2739518742001906,4,False
148,4.933333333333334,3.1799999999999544,-0.07652310904321512,-0.009843845849732396,0.6676090236580344,-0.02960372483587068,-0.19086274957601307,0.15184940986963524,0.37046988196234903,0.14385374450972274,0.521173599846892,0.3989971512369117,0.37046988196234903,0.0,0.0,0.7941126451773075,0.14829347525179173,0.2252185254596397,3,False
149,4.966666666666667,3.199999999999954,-0.07608548246421656,-0.011558163759235929,0.6675514325291455,-0.02929181494375589,-0.18920425072844743,0.1330392437431541,0.40630772560456946,0.14072254880994647,0.6409817608634079,0.453255999881721,0.40630772560456946,0.0,0.0,0.7975900306835727,0.15107792870322614,0.3210771870299197,4,False
150,5.0,3.2199999999999536,-0.07595748876552656,-0.01359252007185971,0.6668435133181903,-0.021257362485183874,-0.18019216845936997,0.1124071892513704,0.3874333993328071,0.15102741180479506,0.847794719481301,0.6143366552034236,0.3874333993328071,0.0,0.0,0.7805818727137741,0.13725646215796,0.37242808779165976,3,False
151,5.033333333333333,3.239999999999953,-0.07591426685303532,-0.014784814957984175,0.6661555022003682,-0.01115438373861507,-0.16803641960544805,0.09865577439641691,0.37871483761365277,0.171016502224225,0.8260779689693722,0.65820615213165,0.37871483761365277,0.0,0.0,0.765552329833179,0.12583511434813618,0.34625400124742717,4,False
152,5.066666666666666,3.2599999999999527,-0.07524659381740252,-0.015103112522090841,0.6661476499316408,-0.009357183331837233,-0.16055181282380052,0.09852185093521093,0.3753964767227956,0.1613851363935963,0.7472217587792558,0.635345650517938,0.3753964767227956,0.0,0.0,0.7705394337738182,0.1297577181488749,0.25254926702639,2,False
153,5.1,3.2799999999999523,-0.07520295944116505,-0.015395398196774546,0.6654738315385347,-0.004627347835755274,-0.14213681967778902,0.06181776199858602,0.38328824567255526,0.19332963107219392,0.5259340585056714,0.9618891431493923,0.38328824567255526,0.0,0.0,0.7734614007327414,0.13231292295600974,0.5601745128342183,3,False
154,5.133333333333334,3.299999999999952,-0.07617183319447576,-0.015741105137807448,0.6638671585444168,0.003322832108994964,-0.10732952055029193,-0.004354430163296901,0.409246588619942,0.22607237161467933,0.6261599950744527,1.4822885252794797,0.409246588619942,0.0,0.0,0.7686647062315258,0.13002305428967406,0.848011838736004,2,False
155,5.166666666666667,3.3199999999999514,-0.07646195560026908,-0.016702314413471937,0.6628998700316736,0.00719239679137168,-0.07893817632174512,-0.046678263249873495,0.4099640046964101,0.17232799943695565,0.9069164785537027,1.0881077211385937,0.4099640046964101,0.0,0.0,0.793802902135419,0.15222416477376477,0.5448261403349826,3,False
156,5.2,3.339999999999951,-0.07564054274200298,-0.017054363616098984,0.6628105147045377,0.0067047389768361216,-0.07057957736505915,-0.0561325184643589,0.3728077018874026,0.14482713519577903,0.5373091386223567,0.6440676470543404,0.3728077018874026,0.0,0.0,0.7963245212150055,0.1547210108146124,0.21438613860173947,5,False
157,5.233333333333333,3.3599999999999506,-0.07454592316876628,-0.016302340370186835,0.6655947829592798,0.00026836871429157885,-0.08081715422114014,-0.03567961315973185,0.41212614555311494,0.20661090294994372,0.6565573349106262,0.8587592772520626,0.41212614555311494,0.0,0.0,0.793555647025453,0.15000842427290745,0.2005528565664812,4,False
158,5.266666666666667,3.37999999999995,-0.07328679415969809,-0.014726124613012632,0.6699689334625633,-0.02504054227325517,-0.10331791534315145,0.0464545529421296,0.4142204945890886,0.2029119654561801,0.689570314824531,1.1480882359688243,0.4142204945890886,0.0,0.0,0.7844885315483652,0.13796723187123316,0.7962856050879121,4,False
159,5.3,3.3999999999999497,-0.07140458894401282,-0.013449868007453484,0.6740791136959716,-0.03876134676762498,-0.12099200980393073,0.10973120050867666,0.3727484924280226,0.21259985045330634,0.6054564444078999,1.0959699823692686,0.3727484924280226,0.0,0.0,0.7727096353742325,0.1236001303826791,0.6100521910141958,2,False
160,5.333333333333333,3.4199999999999493,-0.06797224048863353,-0.011620515509608473,0.6769168900515717,-0.03433362283547699,-0.12311758874329981,0.11466862387994586,0.3607747107893574,0.15831388134306523,0.6059439737140684,0.6785455277899742,0.3607747107893574,0.0,0.0,0.7702976687787445,0.11712841825373473,0.19350402273301257,4,False
161,5.366666666666666,3.439999999999949,-0.06399910325464575,-0.00928266763613744,0.6787942683440046,-0.028367977098381972,-0.11867636291962859,0.11251423128651389,0.4074827953160847,0.1634950732801856,0.6845858545534387,0.6312749970125514,0.4074827953160847,0.0,0.0,0.7770897365512589,0.11859111604157087,0.18123849325867897,4,False
162,5.4,3.4599999999999485,-0.06027779070824707,-0.006291452381129277,0.6799859729448784,-0.021764145903801647,-0.12054836313297645,0.11072122006385278,0.39880651002593187,0.169156903169408,0.7233691937476485,0.7209883400822877,0.39880651002593187,0.0,0.0,0.7839741435716246,0.1211639897475749,0.1533916749716056,4,False
163,5.433333333333334,3.479999999999948,-0.0580804702992928,-0.0032711442958536334,0.681446355849643,-0.013240030397866141,-0.13106343015468572,0.11146530492800738,0.3669600259629284,0.1640476825130466,0.5876345604280293,0.6229000126536807,0.3669600259629284,0.0,0.0,0.7893809313054329,0.12308134780264424,0.1308123860000505,6,False
164,5.466666666666667,3.4999999999999476,-0.0575387550294474,-0.0006329109722942491,0.682127113089966,-0.0015718613605554285,-0.1443448814683834,0.1080364712306331,0.32052900063911943,0.17587577054673875,0.6208422799509453,0.6440347293087075,0.32052900063911943,0.0,0.0,0.7909645137488914,0.12321782322431891,0.11439067676129547,4,False
165,5.5,3.519999999999947,-0.057200840428493466,0.0023562925879678995,0.6830698497360344,-0.02016180468490446,-0.15553020122156427,0.17151689829518837,0.35360576829977935,0.1842300849713683,0.6478671226506045,0.7829325930688885,0.35360576829977935,0.0,0.0,0.7812106319284369,0.11385271927353798,0.6027325069250907,3,False
166,5.533333333333333,3.5399999999999467,-0.05635572678534538,0.004975152593315784,0.6834259417868912,-0.06803743164702468,-0.1617031737319524,0.289633331092919,0.3888061401955889,0.2346302035160079,0.710704209814052,1.187825778426583,0.3888061401955889,0.0,0.0,0.7379616250747111,0.07871834365949922,1.1100939666624556,1,False
167,5.566666666666666,3.5599999999999463,-0.055942153415312855,0.006506215265024563,0.6819144970411185,-0.08951631214684284,-0.16370839462426115,0.3620611715815271,0.4089460519632474,0.28565830738980236,1.065562769981585,1.2088283740023518,0.4089460519632474,0.0,0.0,0.6189271414728593,0.08485587400479845,0.7419775753261012,3,False
168,5.6,3.579999999999946,-0.05624976129596477,0.005821571943975506,0.6799861372602651,-0.07445081346022245,-0.16593648464947408,0.3543999454524199,0.4388822793254819,0.2513742556240091,0.736892829443593,1.1153652898492492,0.4388822793254819,0.0,0.0,0.6872927111038648,0.056919508353139046,0.3046844418778069,4,False
169,5.633333333333334,3.5999999999999455,-0.056318782397144065,0.004523198272786063,0.6786795502599464,-0.07809927503679949,-0.16746865352463297,0.36609466067119834,0.41693795790545074,0.1955426643480129,0.5490394813645932,0.7821740628698962,0.41693795790545074,0.0,0.0,0.7801965855101423,0.11596285515405498,0.217222793085362,2,False
170,5.666666666666667,3.619999999999945,-0.05530089117285118,0.0028326081500428036,0.6777395124493794,-0.09563478374004375,-0.1617700165928879,0.42122218671257855,0.38457365549508643,0.2039365552772783,0.7081094878649605,0.8187827132338829,0.38457365549508643,0.0,0.0,0.7664981411163735,0.1045618719305217,0.5648218925035657,4,False
171,5.7,3.6399999999999446,-0.054120649824602775,0.0013420660981295293,0.6765074256539346,-0.1003074878333593,-0.1560422734428892,0.4578513343329909,0.42590991375707277,0.20471444054895246,0.8095587025558586,1.077142087203219,0.42590991375707277,0.0,0.0,0.7743615435112312,0.11167644483072757,0.4006047028841195,2,False
172,5.733333333333333,3.659999999999944,-0.052356669953375505,-0.00036500342335255497,0.6755934086230179,-0.08762292385004924,-0.15434113196159582,0.44002043654396295,0.4674013111191856,0.1799105596138064,0.8000713950387957,0.8574371583654002,0.4674013111191856,0.0,0.0,0.7891533682902923,0.1250093617170441,0.24783803802209275,4,False
173,5.766666666666667,3.6799999999999438,-0.05094008060337138,-0.002795222478247848,0.674468010442938,-0.07086188149324757,-0.16779851207478966,0.37449977284861563,0.42824136085377795,0.1668193357868548,0.4864633174038454,0.7840039761655683,0.42824136085377795,0.0,0.0,0.7955497056065732,0.13123659591306797,0.5979194442189506,3,False
174,5.8,3.6999999999999433,-0.05028281066518762,-0.00636594477556002,0.6739643961767773,-0.05966559982942594,-0.1820638569025409,0.325948647232495,0.37589318094259344,0.15581597100934835,0.5818322563370694,0.6543804060922119,0.37589318094259344,0.0,0.0,0.7878177382457351,0.12458020105441303,0.4680406187073101,5,False
175,5.833333333333333,3.719999999999943,-0.04982095072491274,-0.010326190043984796,0.6741343816532803,-0.053525124794312075,-0.19142112035837625,0.30078983188306324,0.348575007100449,0.17495234441968813,0.6811697375403665,0.7322611950243423,0.348575007100449,0.0,0.0,0.7806770376166136,0.11809410267858003,0.2928210976109144,4,False
176,5.866666666666666,3.7399999999999425,-0.04928773223160144,-0.014052168767460084,0.6740500994727471,-0.03909393506392083,-0.19818849392590676,0.2607234266037928,0.33989501718204523,0.18201417898644856,0.6873735626578952,0.8170013721141905,0.33989501718204523,0.0,0.0,0.7926802589221125,0.12912349454461497,0.41308156058750306,4,False
177,5.9,3.759999999999942,-0.04852234429549121,-0.017441493168206864,0.6734690806718493,-0.02736500796853866,-0.20522670050800687,0.21614390814128792,0.4025115437771986,0.15582560980266044,0.48352458501701123,0.6290991194266411,0.4025115437771986,0.0,0.0,0.7999548992034043,0.13639825383865678,0.4288975751086234,3,False
178,5.933333333333334,3.7799999999999416,-0.04779618415169162,-0.020987414606150858,0.6722946172856605,-0.01402422610568435,-0.21274445276298967,0.17130810697947485,0.40177101915410735,0.14382387111996273,0.6480690052879317,0.7226023360740328,0.40177101915410735,0.0,0.0,0.7983972643786879,0.1360944647710826,0.3998899298351987,3,False
179,5.966666666666667,3.799999999999941,-0.04727127064024761,-0.02511839408544004,0.6703307054948096,0.0022955679837174587,-0.21000447111827242,0.1449409393777331,0.44359287118783236,0.14698527877177545,0.6252992623172902,0.5609637933860829,0.44359287118783236,0.0,0.0,0.787323918364003,0.12806818480734306,0.30352173128323656,5,False
