frame,video_time_s,sim_time_s,root_x,root_y,root_z,root_roll,root_pitch,root_yaw,joint_target_abs_mean,joint_error_abs_mean,joint_error_abs_max,joint_velocity_abs_mean,ctrl_abs_mean,root_target_z,root_position_error_m,root_orientation_error_rad,contact_count,fall_proxy
0,0.0,0.2200000000000001,0.007609506357501486,0.015786019960370917,0.7353609097461303,-0.008032998546029029,-0.0715555632950268,0.05171429390356632,0.1779692211869514,0.04731793764216989,0.21270701731834318,0.1739402212214776,0.1779692211869514,0.799267590045929,0.0658074026391809,0.0380476655204461,4,False
1,0.03333333333333333,0.24000000000000013,0.008691112483332228,0.018467555722079202,0.7340061954401539,-0.008870119600658312,-0.05678757250917829,0.024811885200367964,0.17637310335024642,0.06795857572606415,0.23478946057749572,0.34276431318291867,0.17637310335024642,0.7736662030220032,0.044004540405580196,0.295821618010003,4,False
2,0.06666666666666667,0.2600000000000001,0.009261588309072167,0.021744508525052268,0.7323765507152307,0.0012361389643220332,-0.03361709350702821,-0.06953341289198055,0.17846366266316943,0.0850508103178462,0.3550533159455738,0.6026813270520145,0.17846366266316943,0.7665624022483826,0.04079479075841876,0.8662474900439077,3,False
3,0.1,0.28000000000000014,0.009618938017967859,0.02408602074300157,0.7310106306437937,-0.0027938475783082033,-0.009313643604943729,-0.09710668389784828,0.18251229901953114,0.09694130582702613,0.3647790175799006,0.42320514585249175,0.18251229901953114,0.8179628252983093,0.09024039205295377,0.31679886801061624,2,False
4,0.13333333333333333,0.30000000000000016,0.008235877443914115,0.025046037457659164,0.729624812452663,-0.0043193775630402465,-0.013817355117795393,-0.08888095197677827,0.1697138430831106,0.08161789448904046,0.27085048449062143,0.2955857596736329,0.1697138430831106,0.7946969866752625,0.06987422458841554,0.11201806908067517,3,False
5,0.16666666666666666,0.3200000000000002,0.0069570807199025005,0.025671892498386004,0.7282828494540522,-0.005455719001975585,-0.01571911103348405,-0.07928049974439415,0.16807384296105024,0.07756765513886862,0.26788105472591855,0.30189567664318706,0.16807384296105024,0.7856760025024414,0.06293847750707687,0.07956125394328797,3,False
6,0.2,0.3400000000000002,0.0062576099685527084,0.02631637364681559,0.727046644232218,-0.009328488763681107,-0.002775976437703986,-0.05976590076146733,0.18037028546766495,0.08890785503188792,0.3372378320158651,0.3662010707372943,0.18037028546766495,0.7862216234207153,0.06473918053151166,0.20284551782450708,3,False
7,0.23333333333333334,0.3600000000000002,0.005002356742718219,0.02834655245617528,0.7249382833993003,-0.005419644897675204,0.005247890747445403,-0.1479108843236352,0.20440274969030475,0.11399541147485111,0.44345734121853486,0.6263095066577724,0.20440274969030475,0.7713003754615784,0.05385351016210324,0.8055536681419584,3,False
8,0.26666666666666666,0.3800000000000002,0.002957880979186452,0.030556364024468024,0.7220952830753344,-0.008523382018013139,0.01197135039766079,-0.22905716829283296,0.24080269245699074,0.1433114460425235,0.6794998998428059,0.6453045251914832,0.24080269245699074,0.7713003754615784,0.05709363099444409,0.7248588873141314,2,False
9,0.3,0.40000000000000024,-8.384770524972468e-05,0.032861495691032444,0.7191839244168733,-0.013511233309333598,0.016863560249194005,-0.3041586375999947,0.27943530220449264,0.17531854267380095,0.8268717109409445,0.782290727896123,0.27943530220449264,0.7708408236503601,0.06035140229274283,0.6728276668127499,3,False
10,0.3333333333333333,0.42000000000000026,-0.0035116372977186928,0.03542799533908492,0.716686631960911,-0.017758878127455895,0.020568368832800565,-0.37566364496150834,0.304500837743034,0.1952282877643528,0.8058426957959919,0.8000950245976888,0.304500837743034,0.7705671787261963,0.06367675946405314,0.6269590583894551,2,False
11,0.36666666666666664,0.4400000000000003,-0.006819284186227504,0.038119851529447586,0.7143576690761341,-0.021740224504622027,0.024387636878196294,-0.43981901677773394,0.3203424049363291,0.20159313090358436,0.7696669393934542,0.9932901286010373,0.3203424049363291,0.7705671787261963,0.06732330646623892,0.5608718657729455,1,False
12,0.4,0.4600000000000003,-0.009379868843550543,0.04068904919884327,0.7113823368317854,-0.025459897577547883,0.028576801779345413,-0.5003904360606529,0.3318227499415445,0.19943080171951608,0.7214700365187414,0.9371372197673887,0.3318227499415445,0.770274817943573,0.0711068741313019,0.5255700426612567,4,False
13,0.43333333333333335,0.4800000000000003,-0.011459104353094001,0.04357597005649537,0.7088434818659217,-0.031415150163533155,0.03313457076509906,-0.5562009990474112,0.3364536417781286,0.19078373711297772,0.7022667610880529,0.8957448925080913,0.3364536417781286,0.7699729800224304,0.0750173772361372,0.4945658356538279,4,False
14,0.4666666666666667,0.5000000000000003,-0.012917737863659693,0.0465886354999313,0.7073489404341495,-0.03600438400411958,0.03740273759342313,-0.6083608594562114,0.3381036547571913,0.18045743318844423,0.6965859383668928,0.8345620050490252,0.3381036547571913,0.7699729800224304,0.07838107100209518,0.4426138862022249,3,False
15,0.5,0.5200000000000004,-0.01370468064128566,0.04953742876420669,0.7065400185156928,-0.039694041737679174,0.04163391962713342,-0.6582274927877568,0.3362039803930635,0.17211706079422742,0.6925620354587223,0.8605736896793381,0.3362039803930635,0.7694618105888367,0.08065412466803165,0.4155010245178449,1,False
16,0.5333333333333333,0.5400000000000004,-0.013905159649045025,0.05223113406470409,0.7060244832187139,-0.04293049193723662,0.04573077733034465,-0.7060426414912315,0.3341906707641852,0.16379414987240484,0.6820843553111716,0.8493609925580272,0.3341906707641852,0.7688744068145752,0.08243209440869521,0.39034243915153743,2,False
17,0.5666666666666667,0.5600000000000004,-0.013538665912490663,0.054328319330043895,0.7058319226744877,-0.04530185574307193,0.048224468807241405,-0.7490637848892199,0.3275332249846991,0.15143329751534673,0.716312771035152,0.8034627655151733,0.3275332249846991,0.7688744068145752,0.08403577046635148,0.34716395546880613,2,False
18,0.6,0.5800000000000004,-0.012625938757361945,0.05565304037719228,0.7058693203383142,-0.04725417742506146,0.04819766620901578,-0.7890056714845386,0.3188277880347524,0.1338114946910509,0.801120959139664,0.7472450923837093,0.3188277880347524,0.768134593963623,0.08437014788458425,0.32741291863408417,3,False
19,0.6333333333333333,0.6000000000000004,-0.010477495014009105,0.0553200865273524,0.7056152250053312,-0.048829117781936146,0.060678235189519085,-0.828346644052929,0.31473201751168545,0.13029016565797485,0.9070517343429298,0.7258624075577906,0.31473201751168545,0.7673659920692444,0.08378892108235352,0.306084775661635,3,False
20,0.6666666666666666,0.6200000000000004,-0.00956129760061437,0.05122820471396509,0.7065195978195924,-0.05140023597126319,0.08754164925993177,-0.7597873728785411,0.2715978472249702,0.12169651911286622,0.8547217560344569,0.9349315185309423,0.2715978472249702,0.7734779715538025,0.08592230414021894,0.7424549028721606,4,False
21,0.7,0.6400000000000005,-0.008793076388025806,0.04433085868174744,0.7089972787464393,-0.036241465937610164,0.11126902401230691,-0.689887135280999,0.18731170775095993,0.19093610685493612,0.6653753427204725,1.1636220602097935,0.18731170775095993,0.782861590385437,0.08821399114551677,0.7264638526803119,5,False
22,0.7333333333333333,0.6600000000000005,-0.0074050493318227615,0.03694567562481106,0.7128646326134044,-0.01654995450336987,0.1212063483537938,-0.6304673233796473,0.22160740773766616,0.19442722609176644,0.796023829430535,1.2479605758528391,0.22160740773766616,0.785527229309082,0.08366126593860859,0.5819571495191318,5,False
23,0.7666666666666667,0.6800000000000005,-0.0057632367569542715,0.030262070805500824,0.7174559238679976,0.0001926312547562905,0.12250744256440985,-0.5704667973315379,0.25130786632906266,0.188045835307317,0.8412776775947728,1.1180647271832547,0.25130786632906266,0.785527229309082,0.07642378314577056,0.5227367403262806,2,False
24,0.8,0.7000000000000005,-0.004037072882036661,0.02478267006179594,0.7215810997880837,0.01516865572309939,0.1201816650488457,-0.5132652658568315,0.2863208135972039,0.18150248692149595,0.8571137196404304,1.0803612784972665,0.2863208135972039,0.7849310040473938,0.06953443192358262,0.4631788571683872,2,False
25,0.8333333333333334,0.7200000000000005,-0.0021019546322839405,0.020220451039605764,0.7247363241493866,0.03070630118909923,0.11752713323456308,-0.4617390850300906,0.31189556761970155,0.16532166216259397,0.8407952893794455,1.0062025998859787,0.31189556761970155,0.7843490242958069,0.06401596652529096,0.4092610549066661,2,False
26,0.8666666666666667,0.7400000000000005,0.00020874821136772706,0.016410894773469586,0.7263426995289669,0.046119267287663586,0.1147239130212074,-0.41474302502243243,0.3368243987301476,0.15356131152838368,0.800257885071826,0.9805384898741998,0.3368243987301476,0.7843490242958069,0.06077911289394889,0.3625145864346847,2,False
27,0.9,0.7600000000000006,0.002791727764325367,0.01319035466838188,0.7259323300952991,0.06128448693975518,0.11176029854300837,-0.37233674471001826,0.3610151641032155,0.15061973545713683,0.7344925322542867,0.9731938114014284,0.3610151641032155,0.7838960289955139,0.059392477466541506,0.3201269402724708,2,False
28,0.9333333333333333,0.7800000000000006,0.005445920806470218,0.010559013459095457,0.7231933957252182,0.07706376467359577,0.10946292985301194,-0.33385668146772207,0.3825977801566811,0.1557659989172434,0.6411974278994639,0.9845185091118909,0.3825977801566811,0.7834697961807251,0.06063662787974215,0.2829401527426144,2,False
29,0.9666666666666667,0.8000000000000006,0.007974108764245223,0.008348889295035244,0.7183793274008706,0.0941761902118522,0.10839576400335593,-0.2992509469101938,0.40012844421732113,0.158476031119292,0.5460874913778148,0.9435092527718897,0.40012844421732113,0.7834697961807251,0.06475697124016215,0.2518735062345993,1,False
30,1.0,0.8200000000000006,0.010329151792516887,0.0066464235577415485,0.7119720951826858,0.11211627771664481,0.10922123859555793,-0.268302717174436,0.4134520858648334,0.16318970020150178,0.5363751880790526,0.9098799114453776,0.4134520858648334,0.7830972075462341,0.07044808737359871,0.22656803533946282,1,False
31,1.0333333333333334,0.8400000000000006,0.012654028161027085,0.005554476263098797,0.7047553924685634,0.129919654637947,0.1131714919698558,-0.24028341073434023,0.4210208500936834,0.16251870306142963,0.5899514245424675,0.8706480492008463,0.4210208500936834,0.7827097773551941,0.07727790034321552,0.20644832465802138,1,False
32,1.0666666666666667,0.8600000000000007,0.014858389472320896,0.004955356829317479,0.6973597204180942,0.14754220189827674,0.11990895270941719,-0.21441654058331236,0.42467630198509876,0.16187894244318696,0.6683260820771207,0.8529796532266559,0.42467630198509876,0.7827097773551941,0.08487470563842335,0.19319957784130892,1,False
33,1.1,0.8800000000000007,0.01683060872019667,0.004683915084907172,0.6901098693839763,0.16511647085002204,0.12830375333789204,-0.1905269175182208,0.42539177383586446,0.16487895264168892,0.7269571964854695,0.8394947429255745,0.42539177383586446,0.7823150157928467,0.09200505828678865,0.18465911072993346,1,False
34,1.1333333333333333,0.9000000000000007,0.017925368819549682,0.0034209389943480467,0.6822757747976694,0.1919162579871385,0.13789092675949371,-0.17163205396066467,0.42617618514100636,0.16482799096288303,0.7443862780395197,0.7832410055850315,0.42617618514100636,0.7816286087036133,0.09905060793288309,0.19050850069726902,2,False
35,1.1666666666666667,0.9200000000000007,0.01720070310468007,0.0010701999380603932,0.6746154704055644,0.2174696833419279,0.14481917843603248,-0.15381145807733138,0.42626563441174703,0.16680020170959425,0.7459390402686794,0.5681341235239347,0.42626563441174703,0.7816286087036133,0.1066118075689485,0.2041806452846288,4,False
36,1.2,0.9400000000000007,0.015858007492918092,-0.0014866481689325634,0.6674481963879485,0.23642448372055838,0.1526635818486572,-0.13748778952440038,0.42401412525824855,0.16648056449392423,0.7310650553770226,0.5130284132476157,0.42401412525824855,0.7808011770248413,0.11276678506760374,0.2173611950316436,4,False
37,1.2333333333333334,0.9600000000000007,0.014447150355539767,-0.00433949819063223,0.6618140642735151,0.2493095072508118,0.14531631480609647,-0.11135616351407508,0.2975307422365679,0.12542446239640898,0.4648819479169886,0.6138321805419069,0.2975307422365679,0.789027214050293,0.1269304970664852,0.3606141126089771,2,False
38,1.2666666666666666,0.9800000000000008,0.012770215460289364,-0.007149872346613634,0.6598926951727759,0.24727220388779234,0.13107169434307367,-0.10439423216131542,0.17065922831973515,0.23890297118514453,0.7772566468443366,1.4721521273690974,0.17065922831973515,0.7947520017623901,0.13552977482369027,0.30770927299925993,2,False
39,1.3,1.0000000000000007,0.011815606065999042,-0.008425108288506521,0.6601878088530808,0.22591097191153361,0.1417288044466243,-0.14257738647381168,0.16915291224085657,0.2280370872499801,0.7101786283214746,1.4370329660703005,0.16915291224085657,0.7734907865524292,0.11433268237094131,0.4174293132306987,3,False
40,1.3333333333333333,1.0200000000000002,0.01033210571001833,-0.010298442972806073,0.6609842851879792,0.20949476084469684,0.14403218642605253,-0.15753521681401164,0.17629133780040607,0.20771969643238758,0.6053522723160435,1.0101039309391575,0.17629133780040607,0.7687820196151733,0.1091744677453573,0.22318541976447454,6,False
41,1.3666666666666667,1.0399999999999998,0.008231227828901762,-0.012505409873805067,0.6637737234422227,0.19363227746622239,0.13596752546830593,-0.15707827163069019,0.20766350131846986,0.19597934561145613,0.8191321452819802,0.8718009931004158,0.20766350131846986,0.7715858221054077,0.10965968157018068,0.2752559974504279,6,False
42,1.4,1.0599999999999994,0.0058594795965613775,-0.014461297495598107,0.6675703243462673,0.179220432065767,0.12923492544232032,-0.15726733673273427,0.2478118528252965,0.19496099343465956,1.030996657864883,0.8091680077557537,0.2478118528252965,0.7707449793815613,0.10531307920179968,0.2602281790452489,4,False
43,1.4333333333333333,1.079999999999999,0.003132007890948622,-0.016027114663563196,0.6714984937687342,0.16423534349466792,0.1225331281798497,-0.1574599355256562,0.2801299044777085,0.19502773650080096,1.1493022068059138,0.7370574111487862,0.2801299044777085,0.7698630094528198,0.10062187620364692,0.24549273222218115,3,False
44,1.4666666666666666,1.0999999999999985,0.00036645839582866667,-0.017320357394761437,0.6746834051664812,0.1497213719520283,0.11498993917506746,-0.15624803017681652,0.30804797972166315,0.19139302564491353,1.1531863386727346,0.9449484507975066,0.30804797972166315,0.7698630094528198,0.09733923765817579,0.22906719352462962,1,False
45,1.5,1.119999999999998,-0.0020622292666732525,-0.018231535382080968,0.676206155483349,0.13804304369168632,0.10521140273943197,-0.1563503717375789,0.32828861454128283,0.18344411026137458,1.060133179649152,0.8193477198704723,0.32828861454128283,0.7688999772071838,0.09471954509313793,0.21598424458781695,3,False
46,1.5333333333333334,1.1399999999999977,-0.0042156009116647505,-0.018610844463510332,0.676675146009332,0.1272292093540159,0.09619159982608552,-0.157614674831352,0.34498361684666595,0.17836432936368823,1.0063608767028935,0.8086020592695609,0.34498361684666595,0.7679005861282349,0.09322812990098937,0.2040631760797668,3,False
47,1.5666666666666667,1.1599999999999973,-0.006011917791565822,-0.01841104941068343,0.6763759973831327,0.11805052425586543,0.08839278013311959,-0.15914774063272472,0.35967833941677485,0.17245425048439206,0.9638077677269818,0.8157908999392189,0.35967833941677485,0.7679005861282349,0.09343893938471397,0.19181571577423165,3,False
48,1.6,1.1799999999999968,-0.007302937804063304,-0.017625703177788596,0.675313865353941,0.1111321818478342,0.0817532435980154,-0.16104600748049203,0.3732656922959642,0.16386616353253172,0.9170918149433285,0.8153831938558145,0.3732656922959642,0.7668284177780151,0.09318015106937508,0.18464049153172413,2,False
49,1.6333333333333333,1.1999999999999964,-0.007942181265868082,-0.01626790770738447,0.673371362053556,0.10678362669304835,0.07584462726164949,-0.1632090564974843,0.38488138978558417,0.15532772983557583,0.8596644714050943,0.8100369920905428,0.38488138978558417,0.7656605839729309,0.09355465883958324,0.1804414480875695,1,False
50,1.6666666666666667,1.219999999999996,-0.007850941392569324,-0.014260631638980342,0.6707344284281488,0.10411947226655292,0.07086066569781306,-0.16524685919367452,0.39246013394665963,0.14553497853543515,0.7969664228484643,0.7595255335975077,0.39246013394665963,0.7656605839729309,0.09572192420685127,0.17531627578943051,2,False
51,1.7,1.2399999999999956,-0.007006791036087097,-0.011605077134416024,0.6674893298725376,0.10239432952179275,0.06726530160492823,-0.1672845872954952,0.3962980883213772,0.13604479974899283,0.7166057028422161,0.6508840647099859,0.3962980883213772,0.7644450068473816,0.09710881732938853,0.17532056655466643,3,False
52,1.7333333333333334,1.2599999999999951,-0.0057041950116678295,-0.008491407100962455,0.6637138753400846,0.100131021830209,0.06514052570399238,-0.17136818941481838,0.4008949808286212,0.12882546972397996,0.6668196594871602,0.5692858411356924,0.4008949808286212,0.7633488178253174,0.09931745449172125,0.17509733083320408,3,False
53,1.7666666666666666,1.2799999999999947,-0.004204800829866504,-0.00516615112333846,0.6601456726918556,0.09780637239478754,0.06516245059537659,-0.17537726667154943,0.4047695163641621,0.12498207279288778,0.6341478419326378,0.5536994666842814,0.4047695163641621,0.7633488178253174,0.10262682295035505,0.17199335316829129,3,False
54,1.8,1.2999999999999943,-0.0024985605834509667,-0.0018189422102074158,0.6570088845197247,0.09618081036375434,0.06683216298938464,-0.17901443815986262,0.4066660712791941,0.12410057272028943,0.6037969364660201,0.5382480732300196,0.4066660712791941,0.7627230286598206,0.10504796964939603,0.17313648129906153,3,False
55,1.8333333333333333,1.3199999999999938,-0.000530683449679205,0.0015152263904226575,0.6542727020543632,0.0952437550515421,0.06909871907840781,-0.18240417066393055,0.4119951322006029,0.12362461403079286,0.5702802820305306,0.547526104840436,0.4119951322006029,0.7630379796028137,0.10811691299016175,0.17483682267754216,2,False
56,1.8666666666666667,1.3399999999999934,0.0016495830575714533,0.004838609406946047,0.6517730836666648,0.09507301059141106,0.0715340416829278,-0.18470161784967165,0.41738657936654694,0.121609405543112,0.5724894101556918,0.5330567378687818,0.41738657936654694,0.7630379796028137,0.11073793252391041,0.17501329243741373,3,False
57,1.9,1.359999999999993,0.0039157664779635665,0.008277771378349558,0.6492389147645606,0.09380739440752896,0.0742162705378258,-0.1865420360981724,0.42248782073064073,0.11855127198546288,0.5842977472653019,0.468520228149893,0.42248782073064073,0.762812614440918,0.11320776322140674,0.17642478673339076,3,False
58,1.9333333333333333,1.3799999999999926,0.005745490712311755,0.008721976632763766,0.6491873214129047,0.09023270887013556,0.06942115111285128,-0.08631917998093261,0.2941424025763488,0.1725345678211321,0.4883550593599226,0.6631576853227262,0.2941424025763488,0.7806270122528076,0.13215983825078745,0.8592875860750999,3,False
59,1.9666666666666666,1.3999999999999921,0.009075758546703153,0.010742911182186348,0.6557461977540058,0.08573803101305359,0.06280496658689332,-0.07044958388084813,0.17912875957734192,0.27660737450988887,1.135119888599423,1.3215374231767452,0.17912875957734192,0.8000102043151855,0.14692158445934464,0.14027162475357302,3,False
60,2.0,1.4199999999999917,0.014697119996526922,0.012300990687726375,0.6649399489677355,0.07465758118992563,0.06611951354212389,-0.05715233105095786,0.20079692826514506,0.27936301011479625,1.1246455511530042,1.5332015313000675,0.20079692826514506,0.8000209927558899,0.13854200223358448,0.13141229313489464,3,False
61,2.033333333333333,1.4399999999999913,0.020814448749800783,0.011908564784940335,0.6739610280905367,0.06749366218503788,0.06492439064324639,-0.04921030958279946,0.21703166008066158,0.2676124547416478,1.05900865899054,1.6310545311749371,0.21703166008066158,0.8000209927558899,0.13030671758007667,0.125430553117227,2,False
62,2.066666666666667,1.4599999999999909,0.026803616046698852,0.010540255536428596,0.6816184810381123,0.05991835375591119,0.05920688984027557,-0.04238207428160086,0.23216769372665058,0.24826988467793273,0.9542344992679758,1.7084061763295117,0.23216769372665058,0.8000329732894897,0.12322332682927575,0.11597537914090358,2,False
63,2.1,1.4799999999999904,0.03214989268921493,0.009214868092813024,0.6876107407723592,0.05202005875939642,0.05380968312544003,-0.03697996206419569,0.2447386945273047,0.2231636436406164,0.86170228769423,1.4862489210831158,0.2447386945273047,0.8000450134277344,0.11834992345589021,0.10686767977003796,4,False
64,2.1333333333333333,1.49999999999999,0.036259560598668826,0.007818155320585109,0.692143004757458,0.04737820753778508,0.04845036396025822,-0.032010562580480524,0.25083968408422536,0.20581594298501885,0.7643910429550799,1.277836739798647,0.25083968408422536,0.8000450134277344,0.11473532431407425,0.09913060224737084,2,False
65,2.1666666666666665,1.5199999999999896,0.03940666982156368,0.005598809883605965,0.6945776877380001,0.04661528471588015,0.04279170156344528,-0.02690559684995975,0.25965280488195697,0.19161967338307384,0.6656020441946036,1.1065466916274485,0.25965280488195697,0.8000569939613342,0.11284389522899888,0.09220874293897727,1,False
66,2.2,1.5399999999999892,0.04153835782671528,0.0031448636694440106,0.6953689172937526,0.04389069996134887,0.03526789415938012,-0.022056931284404318,0.2718414418999859,0.17923382398848264,0.5920345508640501,0.8459886638273011,0.2718414418999859,0.8000689744949341,0.1128327677250927,0.08488099896300275,4,False
67,2.2333333333333334,1.5599999999999887,0.043703153255957264,-0.0021360236005408995,0.6965875127567944,0.04340447809328955,0.02185555985181452,0.2325329516513393,0.2166819665096169,0.13752396533670475,0.5157993437783137,1.3776582457874194,0.2166819665096169,0.7465230226516724,0.06614080443091011,2.1815191235199003,3,False
68,2.2666666666666666,1.5799999999999883,0.04515372995174109,-0.0013220899027935047,0.6984895285267505,0.05525049171741603,0.040189633816631896,0.2134607554408299,0.17044208542414133,0.15350747938762588,0.4379493687464102,0.8387768561212977,0.17044208542414133,0.7964540123939514,0.10834583320251924,0.1863483913445092,2,False
69,2.3,1.5999999999999879,0.045230158448621396,0.001365599360861127,0.701178259785892,0.05547594783997281,0.05459353502019014,0.2023963158206872,0.17672895916657153,0.14852360238741755,0.43698056201096924,0.7203206758586789,0.17672895916657153,0.7964419722557068,0.10606139815929394,0.17814677029678658,2,False
70,2.3333333333333335,1.6199999999999875,0.04448301967798217,0.004496232699434969,0.7035269589486403,0.05082597029693783,0.06613485984171354,0.1907088634640716,0.17981421149298005,0.13893703418684794,0.4638601099079252,0.5809975147882116,0.17981421149298005,0.7964419722557068,0.10372253798427403,0.16533476081325746,3,False
71,2.3666666666666667,1.639999999999987,0.04340545403167452,0.007517359891581977,0.7059955251487201,0.04212760252449473,0.07240110261741937,0.18102948704649705,0.17977890228003393,0.13072187371315924,0.49017167500593767,0.4934557454040282,0.17977890228003393,0.7964311838150024,0.10121069786958377,0.15406908652066031,3,False
72,2.4,1.6599999999999866,0.0424545949643139,0.010108284331964265,0.708101126988613,0.03410865591270477,0.07459169635520338,0.16879605612457926,0.18596145620402052,0.13341235003691437,0.5110137745847723,0.4506779886666892,0.18596145620402052,0.7964227795600891,0.0989701532632233,0.14116031647352117,4,False
73,2.433333333333333,1.6799999999999862,0.04199420618083989,0.012479151310605499,0.710573531987613,0.025390709211821728,0.07161195012285489,0.15521067490606774,0.2108039593642983,0.1543917977651123,0.48769349983660143,0.5833150103181586,0.2108039593642983,0.7892907857894897,0.09061424699825665,0.1793098949144843,4,False
74,2.466666666666667,1.6999999999999857,0.042541320093185536,0.014774029159822614,0.71446808504866,0.016360117507022605,0.06583769738830231,0.13826090632082014,0.28527508753951375,0.2155911743804841,0.7262621666083987,0.8497890039242568,0.28527508753951375,0.7969363927841187,0.09474653134766757,0.24043293577301802,3,False
75,2.5,1.7199999999999853,0.04432092667847516,0.016461196228525213,0.7198979580934097,0.009270636305654292,0.05939647033367897,0.12195053900438749,0.39591391630011735,0.31562057113967995,1.1209513218048406,1.1976720030494006,0.39591391630011735,0.7968565821647644,0.09133323533787649,0.2255799003546702,4,False
76,2.533333333333333,1.739999999999985,0.04718321875551581,0.01747658776665202,0.7275183847660864,0.003516332701599342,0.04964344613156777,0.10617864588406088,0.47714294698641974,0.38375245466099855,1.4063770992203295,1.496959170551148,0.47714294698641974,0.7968565821647644,0.08689346519876852,0.20777911654059278,2,False
77,2.566666666666667,1.7599999999999845,0.05151648383682894,0.01808848505332459,0.7369912394059979,0.0018707867144932594,0.04140356802485579,0.09331953348266618,0.5226168838183878,0.41186937521794176,1.3884840558102887,1.655475940591461,0.5226168838183878,0.7965375781059265,0.08185773077348742,0.1948969749011285,2,False
78,2.6,1.779999999999984,0.05703942866887431,0.018266498862342863,0.7458256457964986,0.008397920360156035,0.03819619107210786,0.07845950869526618,0.5344128840157816,0.3975562185512597,1.3163318653307956,1.9440240753577287,0.5344128840157816,0.7960990071296692,0.07839714591093012,0.18175876121051368,0,False
79,2.6333333333333333,1.7999999999999836,0.06265271804361182,0.01844136830039437,0.751376205854824,0.01986132353278245,0.038261257454120026,0.0639240201851193,0.5463136345253845,0.3732608919203692,1.2275905104002793,2.011184829003463,0.5463136345253845,0.7960990071296692,0.07863321249380817,0.16759259378832053,0,False
80,2.6666666666666665,1.8199999999999832,0.06750958310069381,0.019032746273072297,0.7530254968621956,0.030152884187025955,0.03717670059812539,0.050766387182879624,0.5485583451632141,0.33653104089772873,1.1282320565938109,1.9612257430457973,0.5485583451632141,0.7955440282821655,0.08110657289285034,0.15838786012543038,1,False
81,2.7,1.8399999999999828,0.07141992721746858,0.019969868536462227,0.7504783386514959,0.041464274325759484,0.035463524340459095,0.03802049556255988,0.5450422609181685,0.2879488248031167,1.0246561511972203,1.9242430239510149,0.5450422609181685,0.7949873805046082,0.08516731775732447,0.1496722354712782,0,False
82,2.7333333333333334,1.8599999999999823,0.07423370393856173,0.021190332489156527,0.7437320334333831,0.052971829855207056,0.03019148277870759,0.0267783807072117,0.5443632928249375,0.246229076438719,0.9177550325457418,1.855771365485083,0.5443632928249375,0.7949873805046082,0.09100300669536018,0.13979532335218142,1,False
83,2.7666666666666666,1.879999999999982,0.07669185748897137,0.02181467330572685,0.7344697180560708,0.06664126235699756,0.02314884909076605,0.020114298348606202,0.551174522538886,0.21504151271797284,0.8112293289211124,1.7207927165242547,0.551174522538886,0.7944275736808777,0.0977438790558763,0.13322186157654625,0,False
84,2.8,1.8999999999999815,0.07855234107748815,0.021740553541616647,0.7239042006332159,0.08288044879913707,0.015595862922562872,0.013682012738766769,0.5538667348172835,0.1948497569869094,0.7098869566555951,1.6315407537505344,0.5538667348172835,0.7938802242279053,0.10537462141415241,0.12933905337090804,0,False
85,2.8333333333333335,1.919999999999981,0.07959066460948189,0.02135875340038554,0.7127725540534547,0.09897992861256424,0.007932205460278747,0.008190695996940897,0.5528242197733195,0.18726686793027086,0.6164452767883435,1.6531364835985578,0.5528242197733195,0.7938802242279053,0.11365539514642718,0.1289922843061303,1,False
86,2.8666666666666667,1.9399999999999806,0.07917573457333106,0.019261692162432748,0.7034474650636172,0.11902108450091307,0.00034415087754611877,-0.0009017468947865017,0.5476771144965625,0.18647353378306944,0.5667508024926629,1.4747774798733553,0.5476771144965625,0.7933390140533447,0.12005470945970867,0.13109665845863214,1,False
87,2.9,1.9599999999999802,0.0772533977252855,0.016300078158181838,0.6960508306711253,0.13671244202226052,-0.008198183838959327,-0.013424058932398439,0.546945857996494,0.18241722018361686,0.5289219250449925,1.2462709028912988,0.546945857996494,0.7931110262870789,0.12412200314284777,0.132449656155627,0,False
88,2.933333333333333,1.9799999999999798,0.07441748039313995,0.01372367814034441,0.6894335771135018,0.15115443326081734,-0.018123094645195917,-0.0306517296697796,0.550004234098944,0.1851335605415784,0.6975454956448042,1.2390852780824948,0.550004234098944,0.7931110262870789,0.12762858905668378,0.13353307517025487,1,False
89,2.966666666666667,1.9999999999999793,0.07104603459606953,0.011219421670670741,0.6838022361701611,0.16373396405742924,-0.030165281983670172,-0.05148039464514096,0.5547004677681889,0.19496868011014892,0.8734798934781882,1.1880645622667443,0.5547004677681889,0.7932878136634827,0.13039213790437898,0.1341018560471783,1,False
90,3.0,2.019999999999979,0.06781604368607894,0.009279461974335549,0.6787151905959166,0.1731861363828375,-0.04407463272219839,-0.0741745315861239,0.570550136754145,0.20711238479616506,1.038452014144475,1.1047709201809246,0.570550136754145,0.7942742109298706,0.13364945119400679,0.13680744209899348,1,False
91,3.033333333333333,2.0399999999999787,0.06521065640528072,0.008076578589244734,0.6738297098417466,0.1799796877065809,-0.059767547058381595,-0.09790317433210818,0.5860286386118796,0.21864087503277327,1.2056464139870007,1.0271349606974387,0.5860286386118796,0.7942742109298706,0.13642129530568536,0.14336656548386797,1,False
92,3.066666666666667,2.0599999999999783,0.06370083120773991,0.008652474427770706,0.6690937728524597,0.17718473640671134,-0.07510143399290856,-0.12200804746828789,0.5999309953275704,0.22743945918953815,1.368774602103393,1.021380771469281,0.5999309953275704,0.7947897911071777,0.14023090221936943,0.14793974259351986,1,False
93,3.1,2.079999999999978,0.06348619420791209,0.010246827658294839,0.6646026183592559,0.17410591880207196,-0.09170358865972388,-0.14426795193679173,0.6005250427731531,0.22745610403735217,1.4407885509646912,1.063483638055179,0.6005250427731531,0.7950699925422668,0.1444281110118846,0.15567987696144714,1,False
94,3.1333333333333333,2.0999999999999774,0.0642417272548319,0.011810244155659079,0.6605972717193257,0.1737090043742139,-0.10885897575826474,-0.1638978445843635,0.597960091266338,0.2251115387130796,1.4551110282628321,1.052134064119944,0.597960091266338,0.7950699925422668,0.14849765364880646,0.1683633633142615,1,False
95,3.1666666666666665,2.119999999999977,0.06575813856182419,0.013494287546233963,0.6569029047129672,0.17408996960410464,-0.12574429963296585,-0.17910897510079166,0.5899014834199942,0.22259255382408147,1.4252975296997237,1.0434940629557787,0.5899014834199942,0.7950063943862915,0.15258307504357974,0.18422511133699299,1,False
96,3.2,2.1399999999999766,0.06741005826588456,0.014927181051618759,0.6540731688970328,0.17477974485484649,-0.1420090821926694,-0.19246881421804096,0.5787463078704003,0.21354602365919068,1.3647636451518133,0.9904036427485061,0.5787463078704003,0.7947971820831299,0.1559709706557369,0.20082925497160872,1,False
97,3.2333333333333334,2.159999999999976,0.06899416828939285,0.016402741986084154,0.6519558765086406,0.1748706827914549,-0.1589650461348641,-0.20300686272262294,0.5660229770177484,0.21114556160855075,1.3184570731623235,1.0017931043920691,0.5660229770177484,0.7947971820831299,0.1588400133353143,0.21526239046718584,1,False
98,3.2666666666666666,2.1799999999999757,0.07035357643593289,0.018078822721100153,0.6502050726686515,0.17482700242898536,-0.17680133540290605,-0.21083125771281322,0.5509052384848667,0.20935329957329013,1.2833351963257074,1.0640827321610833,0.5509052384848667,0.7942968010902405,0.16080113073478536,0.2305559279518248,1,False
99,3.3,2.1999999999999753,0.07150417148312342,0.02005876389728875,0.6483168656821526,0.17438173283549327,-0.19538530298214538,-0.21534998109435824,0.5446625682858263,0.19931873027880748,1.2781031603304,1.0744090095578243,0.5446625682858263,0.7931643724441528,0.16218820407737877,0.24487950377247897,2,False
100,3.3333333333333335,2.219999999999975,0.071931809713221,0.021648655495353945,0.6466896803213114,0.17512274683934945,-0.21733407859045192,-0.2192224499794946,0.5414165351177331,0.19604784403743042,1.276132410954509,1.005700050982975,0.5414165351177331,0.7931643724441528,0.16421134486305494,0.25926372055601016,3,False
101,3.3666666666666667,2.2399999999999745,0.06997626586999586,0.02269966459918474,0.6440115606859004,0.17608880952681902,-0.2550607709130151,-0.2221518001657925,0.5436368226698471,0.19080066759301634,1.2635295006728755,0.844632662663233,0.5436368226698471,0.7917159795761108,0.16455023572139613,0.28662542480809444,1,False
102,3.4,2.259999999999974,0.06639050304867532,0.02290437850190126,0.6399553227142198,0.1769486373812501,-0.28990778243433774,-0.22458428964999802,0.5477894979402694,0.18610528816917357,1.2209433015522717,0.8362651839908553,0.5477894979402694,0.7905094027519226,0.1655365861238204,0.3159644151812735,2,False
103,3.433333333333333,2.2799999999999736,0.06226158283057148,0.022111008073243843,0.6351962231209604,0.17829713138363368,-0.3180504362966779,-0.22599356815647473,0.5489806642028933,0.18685207105086962,1.2255065568096533,0.8269553727656751,0.5489806642028933,0.7905094027519226,0.16808835916938134,0.340468860722869,2,False
104,3.466666666666667,2.299999999999973,0.058308178821732316,0.020456123069884383,0.6302651017767635,0.17942027331147017,-0.34134978416302564,-0.22675463486326677,0.5452805207065556,0.1931419518409537,1.2679213737430892,0.8674312043484934,0.5452805207065556,0.7896507978439331,0.17018293210499547,0.3617302918222454,2,False
105,3.5,2.3199999999999728,0.05567686725311956,0.01793321511719802,0.6258612945799622,0.1781441080021591,-0.36282826213493874,-0.22605505728829603,0.5481282654841299,0.19424583307905893,1.3532593256395313,0.945442544531686,0.5481282654841299,0.7894881963729858,0.17296877469292482,0.38031871832502373,2,False
106,3.533333333333333,2.3399999999999723,0.054100878343397336,0.014847848387335506,0.6216029748896723,0.17639105246626327,-0.38113417584151377,-0.2263920407861594,0.5446708446630557,0.19260765613678735,1.323933914291081,0.9200519740252071,0.5446708446630557,0.7894881963729858,0.17618715772688368,0.39590073141237164,3,False
107,3.566666666666667,2.359999999999972,0.05289242021410524,0.011292451346872252,0.617156629875416,0.1744477036036118,-0.3957882223429134,-0.2272592412361176,0.5440751416895995,0.19305773739791035,1.298757813586395,0.870905428070886,0.5440751416895995,0.7895343899726868,0.1797165289919044,0.41055600023329464,2,False
108,3.6,2.3799999999999715,0.0517080304544049,0.007304290711793275,0.6127936089066529,0.17414790674867342,-0.4091006306663588,-0.22524320976072856,0.5530209500446277,0.19559216611531613,1.2842437414871686,0.7478311285974163,0.5530209500446277,0.7896850109100342,0.18356664211521842,0.42349594901029886,1,False
109,3.6333333333333333,2.399999999999971,0.050833002610318576,0.003392955046619247,0.6091952593790974,0.17537879227283248,-0.42101193405278486,-0.2217382022469026,0.5625745839368285,0.2002831180606025,1.2764619787399303,0.6914319023097718,0.5625745839368285,0.7896850109100342,0.18682328436305484,0.4337678891334237,1,False
110,3.6666666666666665,2.4199999999999706,0.05045576381747547,-0.00032190754404699774,0.6064040330375577,0.17762607883330175,-0.43115315683647376,-0.21839703576956637,0.5715839936808941,0.20225855767952344,1.2682286844646538,0.6626313781790977,0.5715839936808941,0.7896826267242432,0.18942211255443514,0.4445957189953895,0,False
111,3.7,2.43999999999997,0.05047372130409274,-0.003867644466755372,0.6041386929871045,0.1807861064062817,-0.43959452306065594,-0.2161950491664462,0.5812738999683592,0.20394374701479534,1.2611907604471357,0.6182880484271478,0.5812738999683592,0.7896128296852112,0.19177443484638912,0.45378783663080846,2,False
112,3.7333333333333334,2.4599999999999698,0.05069452858630965,-0.0074851367556436664,0.6028417077630692,0.1854261381907019,-0.44754788408985824,-0.21459453739720583,0.5888926998011984,0.20354341519836147,1.2566220786235716,0.6339307132180123,0.5888926998011984,0.7896128296852112,0.19338528037772984,0.46190464971133005,1,False
113,3.7666666666666666,2.4799999999999693,0.05116406225955448,-0.011018527872436982,0.6022551457275697,0.19022394613590712,-0.4542183180717705,-0.21190686580528137,0.5975103067521195,0.20407658558077613,1.2540460809431906,0.6391230829773613,0.5975103067521195,0.7894082069396973,0.1941566817267879,0.47137969634547894,1,False
114,3.8,2.499999999999969,0.052047557508965545,-0.014301625453082712,0.6022018263365331,0.19537341788726054,-0.4586823451359545,-0.20919310675095068,0.6060140289468456,0.20397163960783474,1.2532689182033163,0.6716511681925352,0.6060140289468456,0.7891911864280701,0.19451812618543904,0.48019253449985905,1,False
115,3.8333333333333335,2.5199999999999685,0.05335221659997322,-0.01719886649865853,0.6024879258783306,0.20086576748538232,-0.4612104730810972,-0.20607707033129383,0.6133743324374438,0.20158121681759383,1.253764733308358,0.7181977716773162,0.6133743324374438,0.7891911864280701,0.19486760700140393,0.483827392629058,1,False
116,3.8666666666666667,2.539999999999968,0.05504105904384084,-0.019628729466338663,0.6030295859665136,0.2069779051832376,-0.46130408796974437,-0.20444208308700493,0.6195446266227462,0.2010936059714416,1.2546995584571192,0.7215851874173601,0.6195446266227462,0.788968026638031,0.19486831566882512,0.4898697354237389,2,False
117,3.9,2.5599999999999676,0.057136431067225345,-0.021977717331516163,0.6035646029772609,0.21558463597184924,-0.45819491367986387,-0.2076973941706117,0.6195822848445746,0.1926752630330202,1.2545267005929244,0.6786688031512053,0.6195822848445746,0.78886479139328,0.19503044458224322,0.49579830008445686,2,False
118,3.933333333333333,2.579999999999967,0.05945969442734759,-0.024105625483753966,0.6038348214823109,0.22658787154939156,-0.45330173380177585,-0.21211183872134037,0.6257208745358855,0.1953980405936473,1.256061562294936,0.7238141190932589,0.6257208745358855,0.78886479139328,0.1956484924795452,0.49542983108727756,2,False
119,3.966666666666667,2.599999999999967,0.06199694005685924,-0.02574690707611432,0.6040699265956774,0.23950301234534144,-0.44635733981720405,-0.2180787311509175,0.6315051634012031,0.19545312300685375,1.259213803170528,0.738639860561728,0.6315051634012031,0.7890976071357727,0.19664206198415393,0.5001694497066876,2,False
120,4.0,2.6199999999999664,0.06463473319788766,-0.026843943792770192,0.604415200958943,0.2543386905536433,-0.4365604831566434,-0.22783443361697672,0.6265444570401055,0.1856770437527066,1.2608699047822758,0.6988463229655701,0.6265444570401055,0.7900024056434631,0.19817465088520753,0.5046273894938124,3,False
121,4.033333333333333,2.639999999999966,0.06712054565156307,-0.02747573150607063,0.6048648687576937,0.2693939077617462,-0.42613295912639876,-0.23752611630344725,0.6230299253951055,0.1811843053059895,1.2622703055716769,0.6504501838750085,0.6230299253951055,0.7900024056434631,0.19874364517584295,0.5025734687365662,3,False
122,4.066666666666666,2.6599999999999655,0.06983944753338861,-0.02778235665901059,0.6057542725001961,0.2833139705780119,-0.41726796321753307,-0.2443898273409974,0.62161217664925,0.18026393616396053,1.2613509758027153,0.617530641217405,0.62161217664925,0.7901291847229004,0.1991115290683804,0.5077772997028656,2,False
123,4.1,2.679999999999965,0.0729219273423821,-0.027481622211992435,0.6070444516786593,0.2959090938572017,-0.40736666791375215,-0.2533602362411101,0.6182077764509117,0.1828952120953214,1.2557775021768594,0.5732763151041333,0.6182077764509117,0.7898669838905334,0.19876870497022822,0.5130366303324355,4,False
124,4.133333333333334,2.6999999999999647,0.07619967939926453,-0.026699980401325193,0.6083289264861071,0.3061541141396672,-0.39796832083193934,-0.25853247470297996,0.6156239595056188,0.1825113046038992,1.1889639283823348,0.5658858460407111,0.6156239595056188,0.7898669838905334,0.19871311002000003,0.5114357431729928,3,False
125,4.166666666666667,2.7199999999999642,0.07962579186801347,-0.02570055253212125,0.6098340971110477,0.3149215782246116,-0.38741732458080913,-0.26429810026531336,0.6161129133669526,0.18179612258436312,1.1456504537877779,0.5087306283407604,0.6161129133669526,0.7890738248825073,0.19785650649930053,0.5150952074602176,4,False
126,4.2,2.739999999999964,0.08313120912818946,-0.024535478062363003,0.6115616436205064,0.3206327228020342,-0.37672063267956374,-0.26637789049611477,0.6147768485878863,0.17832992251674482,1.0752735197142347,0.5094834361008175,0.6147768485878863,0.7882068157196045,0.19678240523049442,0.5170939984917444,1,False
127,4.233333333333333,2.7599999999999634,0.08664604812200082,-0.022958632274713345,0.6134029408301861,0.32364672451111887,-0.3650418513726291,-0.2690030899434931,0.6161871397593837,0.17736265518065075,1.0049516496160948,0.4342138036812777,0.6161871397593837,0.7882068157196045,0.19656255907788725,0.5104478563413604,5,False
128,4.266666666666667,2.779999999999963,0.09010486957078305,-0.021541559633618187,0.6157275070281233,0.3252626697732143,-0.35323636671894315,-0.2708768386483544,0.6212402966719924,0.18277130517924295,0.9611577104155473,0.4657476586252328,0.6212402966719924,0.7871922254562378,0.19506427612308191,0.5088477661104344,4,False
129,4.3,2.7999999999999625,0.09345984025146548,-0.020285212274595746,0.6182458597720566,0.3253233848150292,-0.3415024701368012,-0.2724213569285232,0.6183247582583884,0.17979390302937792,0.9299025749055128,0.4389130882293599,0.6183247582583884,0.7860972285270691,0.19337781411493074,0.5057553459069133,2,False
130,4.333333333333333,2.819999999999962,0.09675207477568079,-0.018658953345314182,0.6206059448836451,0.3229209620929995,-0.3294650283483955,-0.27223462326779524,0.6176646544045596,0.1775800734367879,0.9069840026862214,0.44445555790709906,0.6176646544045596,0.7860972285270691,0.19274656010523455,0.49656059256087526,5,False
131,4.366666666666666,2.8399999999999617,0.09983266833481916,-0.017134676454171084,0.6231731568852522,0.32104532768243743,-0.3177102647384607,-0.2738081707798479,0.6200540146875928,0.18065230445571454,0.9011000391907116,0.361561191090977,0.6200540146875928,0.784961998462677,0.1910934543171876,0.4918292079738372,4,False
132,4.4,2.8599999999999612,0.10288908625126447,-0.01580450786215653,0.6260661356149451,0.31786674218249694,-0.30735154431921274,-0.27561403577449134,0.6234527978296937,0.18726310363485144,0.8991055987643004,0.43044037320857176,0.6234527978296937,0.78399658203125,0.1893848664653342,0.4875630128313309,5,False
133,4.433333333333334,2.879999999999961,0.10577014001763735,-0.014607416321029047,0.6291500302084103,0.31385579988684187,-0.2974410827626047,-0.27625461612713037,0.6277020969242364,0.1970308257832706,0.8839326301274637,0.47746454697076407,0.6277020969242364,0.78399658203125,0.18836001465368268,0.4788822983337569,4,False
134,4.466666666666667,2.8999999999999604,0.10851115525813056,-0.013511813598122287,0.6322171574929044,0.30913946069493664,-0.2872903100082457,-0.2772267528043206,0.6346457029583913,0.20887910150897526,0.8472931398061715,0.5537657501631239,0.6346457029583913,0.7833195924758911,0.1867762319224421,0.47349142308606035,5,False
135,4.5,2.91999999999996,0.1110777513040812,-0.012541785472839611,0.6353385833077984,0.304213270332831,-0.27783484241224404,-0.2783442689046487,0.6371537893887952,0.21481350656261639,0.8521803383297208,0.6090667949664857,0.6371537893887952,0.7832193970680237,0.18562904811937855,0.4679287963511681,4,False
136,4.533333333333333,2.9399999999999595,0.11343594938111957,-0.0118030872945536,0.6384496305524208,0.2992928496549523,-0.26895530077556745,-0.27990709470526876,0.6403986883927029,0.21888815218942198,0.8432070925889175,0.6165343296896996,0.6403986883927029,0.7832193970680237,0.1845548083588114,0.45967125286434773,3,False
137,4.566666666666666,2.959999999999959,0.11549094091857398,-0.011148609253969419,0.641288118432745,0.29435888356132917,-0.25978694598934365,-0.2819454625430122,0.645496963905357,0.2216584694326762,0.8087518687010137,0.5938151615594927,0.645496963905357,0.7830420136451721,0.1834204363854083,0.4540638879652574,5,False
138,4.6,2.9799999999999587,0.1173207441122925,-0.010482292384047381,0.6437933575046975,0.2893925738742558,-0.2515909296974731,-0.28490819418415697,0.6508250781714373,0.22652502789701418,0.8488510417457032,0.610627575125002,0.6508250781714373,0.7828260064125061,0.18239903090039616,0.4489993566151454,5,False
139,4.633333333333334,2.9999999999999583,0.1189067452944999,-0.009814694999283335,0.6459773325991951,0.2850626489618093,-0.24473289911718,-0.28857546358804625,0.6527905811221774,0.22765917592454052,0.8764616088898292,0.5767549512175443,0.6527905811221774,0.7828260064125061,0.18170226383740173,0.44299062681108314,3,False
140,4.666666666666667,3.019999999999958,0.12042451691881248,-0.009122080182819362,0.6477597569974922,0.28126997296401407,-0.23815125521884664,-0.29249064468377306,0.6503312148596251,0.22219450125001325,0.8685790656581287,0.6510051382290317,0.6503312148596251,0.7824965715408325,0.18100635623386155,0.44020823834125683,2,False
141,4.7,3.0399999999999574,0.12177818806341024,-0.008404711224543107,0.6491127592666847,0.27875498303207147,-0.23185188403324242,-0.2948434040814025,0.6471391541689651,0.22059537959020947,0.8190252429342613,0.7872939891763205,0.6471391541689651,0.781974196434021,0.1803979148157739,0.4381127524325742,1,False
142,4.733333333333333,3.059999999999957,0.12283430274591298,-0.00738512429608035,0.6499310599778183,0.277058831915833,-0.2262139553251533,-0.29790480521186935,0.6438657182929727,0.21745442760189349,0.7723854382166675,0.7456288798980616,0.6438657182929727,0.781974196434021,0.1804874453204319,0.43378300240540457,3,False
143,4.766666666666667,3.0799999999999566,0.12353458717065748,-0.006600463528469274,0.6505657997993775,0.2774662737123266,-0.2214250101511763,-0.3010394207199612,0.6403785991149746,0.21169989143227724,0.74847841296628,0.7660851004919811,0.6403785991149746,0.781065821647644,0.17982857262219262,0.4336143793831878,3,False
144,4.8,3.099999999999956,0.12362995617773896,-0.005559059008734362,0.6505439166702393,0.27744786655002923,-0.21756767535129226,-0.29954964599924283,0.6346037323328395,0.19874241760129918,0.787926707547019,0.8099948989185873,0.6346037323328395,0.7801777720451355,0.17921116583172134,0.43186886614312675,4,False
145,4.833333333333333,3.1199999999999557,0.12288945641272171,-0.004523041754790945,0.6502163820176325,0.2789287472608013,-0.21374680129062762,-0.2984618994282209,0.6273351622162779,0.1925917131640403,0.8307402495430036,0.7505661729358938,0.6273351622162779,0.7801777720451355,0.17904984718111988,0.4296274717727939,3,False
146,4.866666666666666,3.1399999999999553,0.12116297672793873,-0.0036649618551228575,0.6494906331890611,0.28060716593677515,-0.2108759650303101,-0.2946899229980513,0.6163787070489972,0.18823684859923284,0.84518322021088,0.7969566283797876,0.6163787070489972,0.7792999744415283,0.17779937558692183,0.42817285738361394,4,False
147,4.9,3.159999999999955,0.11825514231896127,-0.0033810210448235664,0.6482530437979499,0.28127169706794,-0.20686215668943786,-0.2896884618231326,0.6027649005531733,0.17755692504421217,0.8322620688105558,0.8069168960873465,0.6027649005531733,0.7789484262466431,0.1765221155593112,0.42544187083699453,0,False
148,4.933333333333334,3.1799999999999544,0.11408752298839354,-0.0038504911987716486,0.6460296294973426,0.27802551473349146,-0.2014626501503221,-0.28403147935118445,0.5899785781463571,0.1655452602024106,0.812222179661314,0.843537943910695,0.5899785781463571,0.7789484262466431,0.17543882906345967,0.41903541802570515,2,False
149,4.966666666666667,3.199999999999954,0.10872156188840625,-0.004947381180026357,0.6425891281013626,0.27114117173971153,-0.19406436528727436,-0.2783550221131299,0.5789757498233152,0.16045898243622733,0.7901909371446739,0.8146352819950375,0.5789757498233152,0.778571605682373,0.17433856978411075,0.4083295204140782,2,False
150,5.0,3.2199999999999536,0.10243032224318066,-0.006460406762131752,0.6376956961432158,0.2614800062953446,-0.18486506511205447,-0.2693605325950629,0.5711563646872323,0.1578055623854521,0.7633748810566926,0.8985251140461304,0.5711563646872323,0.7781444191932678,0.17381454130279922,0.39481936592250205,0,False
151,5.033333333333333,3.239999999999953,0.09564758587655185,-0.00792139718590619,0.630834286695857,0.2512352989139908,-0.1727314946903261,-0.2645767194497119,0.5651539522606547,0.15625751183997202,0.7528432598578839,0.9710235857369558,0.5651539522606547,0.7781444191932678,0.17500787239122068,0.3791658638364862,2,False
152,5.066666666666666,3.2599999999999527,0.08987462516225998,-0.009749557911639225,0.6232118071425726,0.24251747296028153,-0.15686083634971226,-0.26129696515389167,0.5677599952553783,0.1582015792586165,0.7995299237243967,0.9556453099778772,0.5677599952553783,0.7774968147277832,0.17799111891087213,0.3626755717702698,3,False
153,5.1,3.2799999999999523,0.08449736191113776,-0.012907432721215662,0.6170645339125979,0.2355891902997429,-0.14328456572670178,-0.25288999920472743,0.5643256425625095,0.1704056935788301,0.8453262349340425,0.8717324910516262,0.5643256425625095,0.7767390012741089,0.1802974812566067,0.34786583845438224,2,False
154,5.133333333333334,3.299999999999952,0.07848749556373372,-0.017077078973438065,0.6121307236869182,0.23028277332732497,-0.13271202739199528,-0.24195109345582358,0.5587811142883379,0.18159618212441753,0.8688599932144148,0.8895402771337071,0.5587811142883379,0.7767390012741089,0.18271932723730672,0.3330373644340401,3,False
155,5.166666666666667,3.3199999999999514,0.07219578675866191,-0.021779109905540602,0.6078044554962115,0.22753703309701792,-0.12171681960610772,-0.23178223448848861,0.5529397790573174,0.18604107855741936,0.9229088342276023,0.9174549640138431,0.5529397790573174,0.7759721875190735,0.18384407069421535,0.3220678818634937,4,False
156,5.2,3.339999999999951,0.0662407324648647,-0.026653020014641104,0.6038684708090354,0.22656197436293368,-0.11018371092472605,-0.2239187121265822,0.5317971433557092,0.19329257947388204,0.9279845970180904,1.0082164733856747,0.5317971433557092,0.7752438187599182,0.18507517952998906,0.3125147824562118,1,False
157,5.233333333333333,3.3599999999999506,0.06150806988896934,-0.03187004242331512,0.6000188443975387,0.22708397735727026,-0.08734329307198292,-0.21799546305466072,0.4586056382887398,0.21178837224688457,0.8248541665434357,1.1118220497348308,0.4586056382887398,0.7678532004356384,0.18089655735814686,0.4387716304893868,1,False
158,5.266666666666667,3.37999999999995,0.05806258807498668,-0.03776811853781869,0.5979541259926602,0.231901884562093,-0.08512610710464516,-0.18590559583959293,0.21553029507283752,0.3499133371170668,1.3056749384948565,1.717204421234333,0.21553029507283752,0.7724575996398926,0.18732934382941666,0.3809280702958887,3,False
159,5.3,3.3999999999999497,0.05638486909739949,-0.04398138010991052,0.5977928471606746,0.23992665835769694,-0.08980364782157844,-0.16679787023757003,0.18625937112048468,0.38124724056919623,1.3504914721668466,1.8790067371577859,0.18625937112048468,0.7945663928985596,0.20913391879777224,0.24507907487330952,3,False
160,5.333333333333333,3.4199999999999493,0.05596052960447532,-0.050601277812201285,0.5982655346560233,0.2495121482849348,-0.09312188671971632,-0.14996273459546663,0.20704734347757792,0.3465418988637292,1.2479223530226617,1.932997564195001,0.20704734347757792,0.7945663928985596,0.21005269806246227,0.24786651227080453,2,False
161,5.366666666666666,3.439999999999949,0.055397392999005535,-0.057005705446748704,0.5992165655718673,0.2620224478676155,-0.09703538098872358,-0.14308073824876164,0.2284913691120932,0.3131540875567752,1.157442659512615,1.7593253910016804,0.2284913691120932,0.7945579886436462,0.21080512140834126,0.2562129014309578,3,False
162,5.4,3.4599999999999485,0.055690573777308926,-0.062332118835957434,0.6006593770052979,0.2710468242571802,-0.10226614846785388,-0.13910964995379516,0.2592098674840094,0.2920229239328425,1.0480621824987078,1.650338452436131,0.2592098674840094,0.7945556044578552,0.21109756261749757,0.26509301628192833,3,False
163,5.433333333333334,3.479999999999948,0.05663711444518623,-0.06660823393673454,0.6017828783982226,0.27856154460658034,-0.10611579647688536,-0.140283454057784,0.2806996546142745,0.27392104481426627,0.94087633746781,1.520017748388609,0.2806996546142745,0.7945556044578552,0.21150743359065327,0.2730785006945231,3,False
164,5.466666666666667,3.4999999999999476,0.05812315927762741,-0.06986029388334211,0.6024300004712857,0.28505372520540506,-0.10933658808976476,-0.14223531676885137,0.2925736697219486,0.2520375288076347,0.8839185694416786,1.4487741206785922,0.2925736697219486,0.7945550084114075,0.21230297429811504,0.2804070901659015,3,False
165,5.5,3.519999999999947,0.05989602825460178,-0.07195381729657785,0.6025076715098319,0.2907206612664948,-0.11193638117733809,-0.144555433179341,0.303507787213119,0.2324009656184241,0.8746544537697225,1.4062661392842528,0.303507787213119,0.7945579886436462,0.21335888783030413,0.2867798867661612,3,False
166,5.533333333333333,3.5399999999999467,0.0618173781578763,-0.07301120781750811,0.6020208898767196,0.29823727190869537,-0.11370478494739025,-0.14818816486384218,0.3150271004990514,0.2185010355722203,0.8579250480961456,1.3470160375150184,0.3150271004990514,0.7945579886436462,0.21466019041595535,0.29404549539550096,3,False
167,5.566666666666666,3.5599999999999463,0.06380405788575164,-0.07303340561283292,0.6011668136757589,0.3081585953031981,-0.11506166425750464,-0.15377113211707283,0.32816953876404437,0.2076516985301357,0.8187376732459634,1.2910787104147636,0.32816953876404437,0.7945637702941895,0.21601876736621337,0.30425577969940043,3,False
168,5.6,3.579999999999946,0.06560804260533147,-0.07179091627787959,0.5998282654728031,0.3148826307622629,-0.09389286745429216,-0.16354785330723948,0.2532740104334916,0.15535679179548223,0.6604409426687989,1.055585853097673,0.2532740104334916,0.7457028031349182,0.17499671517208568,0.304543697930064,2,False
169,5.633333333333334,3.5999999999999455,0.06590111649647441,-0.06918017472186866,0.5982859940460593,0.31967554060004816,-0.08915025001763814,-0.13235587952186945,0.24569209540043485,0.21314203653839325,0.5132243055636418,1.545857426264567,0.24569209540043485,0.7736064195632935,0.19963854922717417,0.40907422146675665,2,False
170,5.666666666666667,3.619999999999945,0.06566228466865387,-0.0656290124703634,0.5972199898459625,0.3237260356917938,-0.08412291662617692,-0.1076622743251817,0.2955046723567525,0.21924127725489806,0.6438080968179839,1.4224493992699936,0.2955046723567525,0.7726839780807495,0.19867177611788422,0.4220305405099485,2,False
171,5.7,3.6399999999999446,0.06508160201865514,-0.06150212530255624,0.5967847092312163,0.32865571452274406,-0.07915914288890341,-0.0877005387051635,0.3404166737928887,0.21416635076906237,0.889231856788365,1.2457069868507376,0.3404166737928887,0.7726839780807495,0.19774988653993897,0.4087637538936114,2,False
172,5.733333333333333,3.659999999999944,0.06329832421974424,-0.056067371497468155,0.5965978888548387,0.3327143553628905,-0.0766752663283098,-0.06572741285800397,0.3748645406146627,0.2160333583839736,1.0733545684338266,1.1201192541650098,0.3748645406146627,0.7716519832611084,0.19500530604550229,0.4232316170007842,2,False
173,5.766666666666667,3.6799999999999438,0.060876545535944245,-0.05012038455753882,0.597277468990386,0.3396323143400069,-0.07469243101470631,-0.04631297947472744,0.39748180369564035,0.2223269936826185,1.1581693415987395,1.0153220983540652,0.39748180369564035,0.7703775763511658,0.19109418994034716,0.44031242769617535,2,False
174,5.8,3.6999999999999433,0.05806824469192495,-0.04323532594803359,0.5992709766813301,0.34689493606977023,-0.07326721491762736,-0.027460252088708954,0.41542305686261477,0.22523206775182714,1.198367335200745,0.9154825544204311,0.41542305686261477,0.7703775763511658,0.18703118033727825,0.43058648898998014,1,False
175,5.833333333333333,3.719999999999943,0.05463408059228541,-0.03519701356494584,0.6023024748519398,0.3524156767734125,-0.07364745862286921,-0.005807701136733941,0.4284735710895782,0.22691017956350026,1.2209145105642982,0.8655322748884073,0.4284735710895782,0.769029974937439,0.18044124755628288,0.4456965094289879,1,False
176,5.866666666666666,3.7399999999999425,0.050539654504860386,-0.02615176130048523,0.606094046906228,0.3556513034102871,-0.0756256258325574,0.018323036443381364,0.4379214622394976,0.22207185410518263,1.2301112681613158,0.8656239461824813,0.4379214622394976,0.7675359845161438,0.1728177206765977,0.4571326722807716,1,False
177,5.9,3.759999999999942,0.04572085440923756,-0.01632210242796498,0.6103388695140869,0.35696045058743303,-0.07731371945879972,0.0419515901529018,0.44366400229313546,0.21636650936504478,1.2283324925611874,0.8875212588464138,0.44366400229313546,0.7675359845161438,0.1661837662044785,0.44085617817554423,1,False
178,5.933333333333334,3.7799999999999416,0.040207423894845905,-0.005971524733759432,0.6147050854964693,0.35702221768090914,-0.07965764663948217,0.06853430003657004,0.44902976941323336,0.2225072101893243,1.2193099871035187,0.9755772591053955,0.44902976941323336,0.7658067941665649,0.15802462272372678,0.4479535521281921,1,False
179,5.966666666666667,3.799999999999941,0.03409638957766271,0.004659126592617865,0.6189491815322475,0.35618322583311307,-0.08313390397017603,0.09812541133361416,0.45629440717792746,0.2290058845022897,1.1883402122542532,1.1059164920087816,0.45629440717792746,0.7639600038528442,0.15036041470893255,0.4522958795368084,1,False
180,6.0,3.8199999999999408,0.027509277945010395,0.015203614495110611,0.6228797165027697,0.35538102181574655,-0.0864920877184862,0.12570764923672012,0.4667993618590042,0.23121294367507952,1.1630912814792884,1.2064336020287363,0.4667993618590042,0.7639600038528442,0.14554095635723993,0.43185534120934577,1,False
181,6.033333333333333,3.8399999999999403,0.020680978263947623,0.025230184615752212,0.6262149670057431,0.35514940629249364,-0.09096172534769514,0.15430083373922004,0.4789057949953221,0.22883697912897377,1.1339383782959709,1.272536121919117,0.4789057949953221,0.762349009513855,0.14058948245807634,0.4369437682562806,1,False
182,6.066666666666666,3.85999999999994,0.013932735334258805,0.034434566983351914,0.6287271180376985,0.35604233294187104,-0.09627105894220532,0.1842310490916879,0.47927628417607626,0.21845117655192653,1.079097342718493,1.3067900261209413,0.47927628417607626,0.7610859870910645,0.1376481120763085,0.4426545191834436,1,False
183,6.1,3.8799999999999395,0.007501503104370137,0.04275356445133991,0.6302463812340412,0.3582259719082301,-0.10091646249771187,0.21264495053418528,0.4765846621503561,0.20764073242342404,1.0176130435766095,1.314548560874916,0.4765846621503561,0.7610859870910645,0.13761531529784635,0.4246208113673817,1,False
184,6.133333333333334,3.899999999999939,0.0020403923543230833,0.04976681517882269,0.6305529676438272,0.3485412477534939,-0.12669127273731803,0.2929749276968961,0.4418701713403347,0.1797345830473206,0.8462696104568754,1.146182165380398,0.4418701713403347,0.7825098037719727,0.1594473458676077,0.845572804929736,2,False
185,6.166666666666667,3.9199999999999386,-0.0023549339759341794,0.054086803443345356,0.6316020087167173,0.368967676193717,-0.10720158305909905,0.2753598266190612,0.24287140175245175,0.18666361781999574,0.703691610849309,1.2971074052900275,0.24287140175245175,0.7964175939559937,0.1732375531396362,0.47929804943946586,1,False
