frame,video_time_s,sim_time_s,root_x,root_y,root_z,root_roll,root_pitch,root_yaw,joint_target_abs_mean,joint_error_abs_mean,joint_error_abs_max,joint_velocity_abs_mean,ctrl_abs_mean,root_target_x,root_target_y,root_target_z,root_position_error_m,root_orientation_error_rad,contact_count,fall_proxy
0,0.0,0.2200000000000001,0.012257908761221499,0.0201389180587424,0.7805408690717242,-0.016122658796397907,-0.025738277992894656,-0.004371293939665211,0.15368658075812328,0.07062697844316636,0.5740608283638376,0.2014506694975386,0.15368658075812328,0.0,0.0,0.7853488825727769,0.02356967035002557,0.06485681616032297,6,False
1,0.03333333333333333,0.24000000000000013,0.012723249423648808,0.021411482021143284,0.7792679690364573,-0.02516437618089646,-0.02353474165999124,-0.007293214670779191,0.20583567523783255,0.14482306391956956,0.7601064072445202,0.5616451578423413,0.20583567523783255,0.0,0.0,0.7799015921784745,0.024584652501185928,0.03405089819576143,7,False
2,0.06666666666666667,0.2600000000000001,0.01307929982293675,0.022726166904082173,0.7778104439058771,-0.03750188653979425,-0.02214185665717631,-0.008966360306120313,0.23329466601247642,0.17221448264451122,0.6774972649145227,0.8078857684281272,0.23329466601247642,0.0,0.0,0.7785078875094642,0.025892518209986067,0.027973028956045958,6,False
3,0.1,0.28000000000000014,0.013930817657935142,0.023615520535315727,0.776469369361379,-0.04891254868030242,-0.020473594737503684,-0.009266935182614192,0.26695369274609027,0.18877117218007894,0.7275595690687486,0.8498380335370285,0.26695369274609027,0.0,0.0,0.7754090437087298,0.027178560509511115,0.03182442637783842,6,False
4,0.13333333333333333,0.30000000000000016,0.014716647868314087,0.02446004328954434,0.7750305037684052,-0.06012442806843958,-0.02062232646471858,-0.008372308449494631,0.298270625177728,0.20033587058853913,0.8220741192663966,0.8690701937425516,0.298270625177728,0.0,0.0,0.7698480102654229,0.028810799291922533,0.038870937049381986,5,False
5,0.16666666666666666,0.3200000000000002,0.01539344101143094,0.025312336044214404,0.7731082284283936,-0.0720943078695331,-0.02233281057993764,-0.007091912823710934,0.3112972709872658,0.1949649161034545,0.8269659657998415,0.773823687576379,0.3112972709872658,0.0,0.0,0.7637630960349644,0.030944418093215412,0.04086933275055527,5,False
6,0.2,0.3400000000000002,0.016056387625936724,0.02619012956046233,0.7709110120563807,-0.08479780110774679,-0.025377872186519213,-0.004987545796881416,0.3148774838611335,0.18494760619161413,0.7832666728649467,0.7484553480834433,0.3148774838611335,0.0,0.0,0.7570819856009658,0.033674339888758356,0.04004013134856627,6,False
7,0.23333333333333334,0.3600000000000002,0.0163721777895608,0.026849649976747637,0.768527153562159,-0.096631931518121,-0.03036257999026162,-0.0019918037437297764,0.3195958498191311,0.17776076435432756,0.7455087480146301,0.7173739457140618,0.3195958498191311,0.0,0.0,0.7479396273482747,0.03779729081252213,0.0460625936188859,6,False
8,0.26666666666666666,0.3800000000000002,0.016088127233880346,0.027201797204043966,0.7657456337268315,-0.107414204378454,-0.037739988136147894,0.001462261990872042,0.32352113438276625,0.1718977893247124,0.7110901653463664,0.6772084014430277,0.32352113438276625,0.0,0.0,0.7372778580913545,0.043024687760318855,0.05637297139311565,5,False
9,0.3,0.40000000000000024,0.01510889984624516,0.027227036787541032,0.7624198798688511,-0.11706983868851763,-0.04790645171870126,0.005284710097749153,0.3261618473753986,0.17243054233260124,0.680181866830339,0.6551641434154944,0.3261618473753986,0.0,0.0,0.7249425842751638,0.049496187982291565,0.0697396846657019,5,False
10,0.3333333333333333,0.42000000000000026,0.01335665501398439,0.026867549138357313,0.7583253385975277,-0.12459709839952464,-0.06133807053990349,0.008704529748087275,0.3293899100340719,0.18181346226274775,0.6830196077109987,0.7003677726105086,0.3293899100340719,0.0,0.0,0.7096962895372134,0.058225749322497376,0.08717951790163918,5,False
11,0.36666666666666664,0.4400000000000003,0.010874701995417345,0.02621654464834522,0.7532604037793388,-0.13058329306007183,-0.07842251699625197,0.011759184217934707,0.3318636761014172,0.19167621671914403,0.6841201766633157,0.7798129449008475,0.3318636761014172,0.0,0.0,0.692790005400754,0.0682521344208801,0.10599761001116453,3,False
12,0.4,0.4600000000000003,0.0078533663314261,0.02554340902984776,0.7466652621050124,-0.1352140698941716,-0.09921513159637751,0.014201882986720309,0.33392893527910084,0.19971911893793942,0.6834291684140612,0.8370076220890634,0.33392893527910084,0.0,0.0,0.6740579434318185,0.07912718945695757,0.12681313750995069,4,False
13,0.43333333333333335,0.4800000000000003,0.0058725589088019555,0.02498816455263334,0.7408397225074332,-0.13150466811809153,-0.11403664837159633,-0.033175364523519095,0.32758260815105883,0.23135038063099594,0.6744064010908167,1.0333186887230583,0.32758260815105883,0.0,0.0,0.7439436603216292,0.026138198065671112,0.4430083198362676,4,False
14,0.4666666666666667,0.5000000000000003,0.005780988850368891,0.024429030091483877,0.739528282058332,-0.12652497173732388,-0.13177681119955537,-0.12942372505717067,0.27134748324597924,0.23465207634632604,0.6986135903703624,1.2985314181930343,0.27134748324597924,0.0,0.0,0.7862902212958095,0.053335824943348646,0.8403352850177451,5,False
15,0.5,0.5200000000000004,0.007124238634072496,0.023214606784046778,0.7429780716103642,-0.1189876167170798,-0.15092923752213838,-0.2551361741750454,0.2335805221874146,0.22392212244144102,0.6900132317132253,1.5921955513312154,0.2335805221874146,0.0,0.0,0.7906153287050073,0.05466743671774128,1.0719870647565768,4,False
16,0.5333333333333333,0.5400000000000004,0.00803563843126976,0.021539270985841186,0.7488885978799091,-0.11181197848140477,-0.1640972971507394,-0.3648832070476683,0.2518697189865153,0.20553248725928863,0.6102491285405411,1.4811594152025405,0.2518697189865153,0.0,0.0,0.7894954731293076,0.04820487587450556,0.9661262294107967,4,False
17,0.5666666666666667,0.5600000000000004,0.007123550224951725,0.019654939165533417,0.7541121126136405,-0.0989175591447446,-0.17498200022894914,-0.4653405743157518,0.2617793392075541,0.1912741682916144,0.5641250857771836,1.3499341923519705,0.2617793392075541,0.0,0.0,0.7875127793079016,0.04069870993649731,0.8692534266475143,4,False
18,0.6,0.5800000000000004,0.005067256554526103,0.018256500342350195,0.7586100790155603,-0.08885218316601214,-0.1823916818579498,-0.5555171389884855,0.264006532633301,0.17120845080837863,0.5263012477112486,1.0996581932721343,0.264006532633301,0.0,0.0,0.7849953819491948,0.03362877966929282,0.7825491518728195,3,False
19,0.6333333333333333,0.6000000000000004,0.0019517976280394261,0.01755453564297706,0.7620231904602124,-0.0787149644688667,-0.18861219973542262,-0.6390239940724475,0.26405851263210794,0.1479398882378214,0.505635640068424,0.8852859145562484,0.26405851263210794,0.0,0.0,0.7816798525770468,0.027065959692989108,0.7063704474843333,3,False
20,0.6666666666666666,0.6200000000000004,-0.0033711481642157088,0.018612073681026003,0.7630255681628656,-0.07185428692547052,-0.2044598792843955,-0.7124294093358305,0.255615736785299,0.14286591572494883,0.44711754791200564,0.7927389411206939,0.255615736785299,0.0,0.0,0.7776434946804258,0.023463435970288913,0.6530737968241275,2,False
21,0.7,0.6400000000000005,-0.00920612667417647,0.020752501003093605,0.761942826677187,-0.06462702557596116,-0.21209777844407776,-0.7844768278055573,0.26868838563838093,0.13545919323169897,0.5428914954504507,0.948621607036685,0.26868838563838093,0.0,0.0,0.7729124855103611,0.024022458587788658,0.5896104232900979,0,False
22,0.7333333333333333,0.6600000000000005,-0.014280589532674776,0.02357403100818991,0.7596425505806389,-0.060578052846556985,-0.21454895989105163,-0.8518257221809623,0.27915682669674186,0.11908608226886389,0.503693625702335,0.8385783250417363,0.27915682669674186,0.0,0.0,0.7665079046172713,0.027050701383478155,0.5301521167975832,2,False
23,0.7666666666666667,0.6800000000000005,-0.01814940111234991,0.02678651762358458,0.7563434185417762,-0.055347373791295264,-0.2132037625709071,-0.9153528418999807,0.28847891685777527,0.1055911613382128,0.44078430284091136,0.7714394224113645,0.28847891685777527,0.0,0.0,0.7589341611229554,0.031252527386531136,0.47302732693833344,3,False
24,0.8,0.7000000000000005,-0.020798867110296635,0.030466957323780335,0.7520525326817795,-0.051379354414734256,-0.2112283610103896,-0.9746522128344881,0.29756708378110397,0.0993793711842441,0.38206457563779367,0.7771269607178898,0.29756708378110397,0.0,0.0,0.7498741608602998,0.036013661270175995,0.42011595674463637,2,False
25,0.8333333333333334,0.7200000000000005,-0.022211077166215225,0.03445641277248646,0.746529158905612,-0.04964006998878325,-0.21038469330083848,-1.0272312700880375,0.3067126870943832,0.09909242384316454,0.3239659998086002,0.6954221689810416,0.3067126870943832,0.0,0.0,0.7382159791055023,0.04117350516783713,0.3696354609221033,4,False
26,0.8666666666666667,0.7400000000000005,-0.022493208398865244,0.03883099143335401,0.7402245012460057,-0.04813327290719633,-0.21000022152983577,-1.074498975783142,0.31499136981263925,0.09956271296564226,0.2720671904679947,0.7568485074542819,0.31499136981263925,0.0,0.0,0.7249121291233247,0.04716696804416556,0.3207132316271793,2,False
27,0.9,0.7600000000000006,-0.021655437391842836,0.04326873790385417,0.7326107699583846,-0.04715867077835353,-0.21221071571212016,-1.1151747564043908,0.32214201628656675,0.10223559181628884,0.2798838222945407,0.7620765210828156,0.32214201628656675,0.0,0.0,0.709530627662947,0.053739883486710494,0.2730288302897917,4,False
28,0.9333333333333333,0.7800000000000006,-0.019992358043844718,0.04758231999014273,0.7233001544919414,-0.045984803540484884,-0.21817588024774925,-1.1493938621281456,0.3286882144688872,0.10534927999788016,0.3386692748733817,0.768524661928118,0.3286882144688872,0.0,0.0,0.6911571341619062,0.061496048028192515,0.22787368448812775,2,False
29,0.9666666666666667,0.8000000000000006,-0.01762388065002222,0.05190321305962713,0.7125793479262866,-0.04739250030374146,-0.22630297363589152,-1.1769142217204662,0.3343312338704785,0.10995379809303087,0.3847810487127108,0.8333933363443642,0.3343312338704785,0.0,0.0,0.6709855303947241,0.06986817215043167,0.18520564939087586,3,False
30,1.0,0.8200000000000006,-0.01473840042357899,0.0563861033076228,0.7005701387628027,-0.049155155680446976,-0.23838628872629683,-1.197977257278155,0.3394388234464297,0.1133217636888573,0.4230919381881031,0.845504489413759,0.3394388234464297,0.0,0.0,0.6485550393260678,0.07971227072544262,0.14875076749611232,0,False
31,1.0333333333333334,0.8400000000000006,-0.011715268873463075,0.060626553912993,0.6856630720069321,-0.052528843592236085,-0.2579296770343818,-1.2115407344038618,0.3443875636771667,0.11653440404041145,0.4593872315896059,0.8784413416638931,0.3443875636771667,0.0,0.0,0.623215857434354,0.09008111931453198,0.12312889281709585,2,False
32,1.0666666666666667,0.8600000000000007,-0.009519922814787404,0.06395922979013806,0.6695428265019651,-0.052945952555547716,-0.2806186639891153,-1.2248627588562928,0.3492908378447398,0.125686485694501,0.4791811933682947,1.086956171041443,0.3492908378447398,0.0,0.0,0.5962145392711384,0.10037389265881254,0.10925839460161518,3,False
33,1.1,0.8800000000000007,-0.008950584670272857,0.06672694308096444,0.6533682417910519,-0.05079580505175145,-0.31312164155225386,-1.2300317608432556,0.35508141380512126,0.13739924917112445,0.4894614622796791,1.1217533688910026,0.35508141380512126,0.0,0.0,0.5671240902041818,0.1122271974919423,0.11054844462943961,3,False
34,1.1333333333333333,0.9000000000000007,-0.008613769421592796,0.06666371356619122,0.6413825896493209,-0.03786370655704971,-0.3157220988057944,-1.2174183925436801,0.3884936404909759,0.18263466818105603,0.4996810556656823,1.3650828085496527,0.3884936404909759,0.0,0.0,0.7095167746269307,0.09388152444190663,0.27193507313976034,2,False
35,1.1666666666666667,0.9200000000000007,-0.009029364002718403,0.06424294699364581,0.6357850506191729,-0.031067812291353948,-0.3170534476586037,-1.1655522908838283,0.43759170041396406,0.27965593832495156,0.9507757679049972,1.79983607788522,0.43759170041396406,0.0,0.0,0.8124457128487359,0.18730535126828315,0.6315443136030675,3,False
36,1.2,0.9400000000000007,-0.011391410899823892,0.0637894631812864,0.6369441937610982,-0.08011101136588941,-0.3364627375768842,-1.062019069174656,0.3984741199994123,0.3221710864066598,0.8932618857188802,1.7818303972088119,0.3984741199994123,0.0,0.0,0.8088104119963593,0.18431232545017398,1.00437239201385,5,False
37,1.2333333333333334,0.9600000000000007,-0.018672023033813444,0.0626276155334763,0.6440702828192023,-0.1364767877886066,-0.33965987264653147,-0.9391847577984025,0.29942706182314277,0.3099994924550349,1.0485040532306544,1.8371814515030445,0.29942706182314277,0.0,0.0,0.8019891070874335,0.17303129302188247,1.206703151915867,7,False
38,1.2666666666666666,0.9800000000000008,-0.02672959081358165,0.06229958713652427,0.6549816324696286,-0.17313666559113436,-0.3270178183297606,-0.8289064100444419,0.26182931016988414,0.2957046204318031,0.9008853409433373,1.6174214841048034,0.26182931016988414,0.0,0.0,0.7974584384569833,0.1600868422838104,1.134562474299141,5,False
39,1.3,1.0000000000000007,-0.033225366826870086,0.06263274213483706,0.6675028455791363,-0.18888516578877032,-0.308293586223267,-0.7292699641450421,0.24700974357764327,0.2728896269471955,0.9935586860854875,1.3927981836241423,0.24700974357764327,0.0,0.0,0.7921386003744781,0.14586962877816695,1.0465416232608693,3,False
40,1.3333333333333333,1.0200000000000002,-0.03691985379823166,0.0623319348518831,0.680555577265908,-0.2022433317351657,-0.28946455861865644,-0.6309213430144125,0.23932078761750925,0.2475508006565774,0.9976770491466156,1.3580958906051714,0.23932078761750925,0.0,0.0,0.7870591540018876,0.13135104035711778,0.9490451626036457,2,False
41,1.3666666666666667,1.0399999999999998,-0.03754906532940814,0.06172069009833085,0.6919299105064982,-0.214072854864217,-0.26927673636193206,-0.5363629168975496,0.2392371222667207,0.22566133830645424,0.9166687127462947,1.1912933138472217,0.2392371222667207,0.0,0.0,0.7818824485850111,0.11761385439448203,0.8543366320537058,3,False
42,1.4,1.0599999999999994,-0.03555025457214384,0.06154505738370597,0.701101734385157,-0.22719685060440928,-0.24788587779436624,-0.4482925310934873,0.24910437659856938,0.2103304108493977,0.8162808444579082,0.9905327584296703,0.24910437659856938,0.0,0.0,0.7763988346311357,0.10529360499407349,0.7695506495501803,4,False
43,1.4333333333333333,1.079999999999999,-0.03212032268164816,0.06172309862178228,0.7077860927941868,-0.2380961781486269,-0.22969005415888444,-0.3687095498521376,0.26426688527124625,0.20302398463031884,0.7275384215636075,0.9279422897505414,0.26426688527124625,0.0,0.0,0.7726647622746768,0.096398413083476,0.6920860495047849,2,False
44,1.4666666666666666,1.0999999999999985,-0.027886970661195203,0.06224222164260527,0.7121275820727054,-0.24445726935918294,-0.2142580162692571,-0.3020866808715126,0.2897942803320685,0.22996949971742195,0.6425481121502488,0.9381530667608416,0.2897942803320685,0.0,0.0,0.7751469759697898,0.09368343401111835,0.5703742231418633,3,False
45,1.5,1.119999999999998,-0.02392566106080125,0.06332338571424674,0.7152154065669227,-0.2391062511493608,-0.20297285951814847,-0.2595776080588765,0.25755009949551655,0.25020561984356826,0.6225858334103088,1.1814317807358017,0.25755009949551655,0.0,0.0,0.7901255374734243,0.10146194025569655,0.3708501604644851,3,False
46,1.5333333333333334,1.1399999999999977,-0.020726962052762258,0.06505218746914038,0.7169476346467593,-0.23624990246780347,-0.19244959919243665,-0.21522217766991208,0.24545565354284,0.24012933943548584,0.6921261041087506,1.0796878350090948,0.24545565354284,0.0,0.0,0.7904394298660066,0.10036649048545365,0.3952764807991678,3,False
47,1.5666666666666667,1.1599999999999973,-0.018681085892784877,0.06652863186759841,0.7184121443888071,-0.22848808100642787,-0.18205030472291886,-0.18032703177817436,0.23404944884400025,0.2337790426022985,0.5716218252362182,0.9221336736518806,0.23404944884400025,0.0,0.0,0.7880468630915285,0.09826509289477359,0.38866516977833643,4,False
48,1.6,1.1799999999999968,-0.018352054845504992,0.06690392981584779,0.7197483633250917,-0.20947364725277823,-0.18272696267167682,-0.17851318781474979,0.2221653784363343,0.2114978494574231,0.6517442417300744,0.8653728413593004,0.2221653784363343,0.0,0.0,0.7915897717842153,0.10000309091174374,0.23247326015383402,3,False
49,1.6333333333333333,1.1999999999999964,-0.018901384542451286,0.06625837823007062,0.7201586042441958,-0.1917572364831206,-0.1846867662319299,-0.18429476341975162,0.2257940974960815,0.2216402331950266,0.6745634518778966,0.9057933446989029,0.2257940974960815,0.0,0.0,0.791759441472776,0.09952845956924712,0.23592134561659436,4,False
50,1.6666666666666667,1.219999999999996,-0.019404381565669503,0.06545756160184975,0.7201875933340284,-0.1765668654950971,-0.1855922961093063,-0.19117266741506223,0.22329089582734737,0.21112378852517136,0.6643669329130318,0.8652021875702889,0.22329089582734737,0.0,0.0,0.7915590184789979,0.0989027193120859,0.2318663656797766,3,False
51,1.7,1.2399999999999956,-0.02067990772563775,0.06399927842751596,0.719743405482783,-0.1621424580769457,-0.1862413820222557,-0.1987542859568139,0.22092347162469678,0.19650367796715779,0.6367069734947599,0.7616772647304937,0.22092347162469678,0.0,0.0,0.7898746102881378,0.09722683806227517,0.2250901767115061,4,False
52,1.7333333333333334,1.2599999999999951,-0.022237814484305646,0.06255355341540986,0.7190309342476984,-0.1516833310801038,-0.1862261055254426,-0.20587365181508116,0.2197717926718178,0.18325737663421238,0.6121150315656513,0.6059508918289154,0.2197717926718178,0.0,0.0,0.7874939154860574,0.09539188605348328,0.2124791852987867,7,False
53,1.7666666666666666,1.2799999999999947,-0.023645806104627264,0.061964543218150765,0.7189075333684533,-0.14739783903608925,-0.18802951946425261,-0.20999112736608322,0.22307425761896058,0.1734891459558573,0.6152222211373387,0.5144250879467065,0.22307425761896058,0.0,0.0,0.7846149214273306,0.09333870279175115,0.20640490281526216,4,False
54,1.8,1.2999999999999943,-0.025134094589432724,0.06145089737313743,0.7185115894622346,-0.14576476157133464,-0.18821449512428784,-0.21274137044309593,0.23449195926081712,0.1655662328667653,0.649986090630774,0.44987057322660023,0.23449195926081712,0.0,0.0,0.7809125384481295,0.09105112078373503,0.20248335016720576,5,False
55,1.8333333333333333,1.3199999999999938,-0.026495308019276152,0.061394748447308835,0.7183700457478496,-0.1472382497415672,-0.18577337714591732,-0.21633223398971949,0.2507635506871978,0.17332233038848452,0.7358072941230516,0.5060558788460883,0.2507635506871978,0.0,0.0,0.7768260100766521,0.08870911089968164,0.21033794262443548,5,False
56,1.8666666666666667,1.3399999999999934,-0.027955588164021473,0.06159104307699066,0.7179827291418682,-0.1498265908094981,-0.17951536660727613,-0.21997139088091797,0.26896455140517334,0.18452914542561655,0.8613972562397635,0.5893936153690167,0.26896455140517334,0.0,0.0,0.7722856381779903,0.08651304084620773,0.22115679935878865,5,False
57,1.9,1.359999999999993,-0.029593344464769293,0.061979341304128424,0.7169905056563803,-0.1527674581304404,-0.16977791458586228,-0.22425730535676466,0.28755623774617206,0.19122187064142884,0.9919827228844382,0.6971314148555133,0.28755623774617206,0.0,0.0,0.7670404201160617,0.08459896502937468,0.23265709531279588,4,False
58,1.9333333333333333,1.3799999999999926,-0.030842563355131195,0.0618908534242207,0.715495220331719,-0.15811209663250023,-0.14659794890336322,-0.18827386794674378,0.29531355542744525,0.16100048571837292,0.7088284533287128,0.573183077039445,0.29531355542744525,0.0,0.0,0.7760471896401326,0.09153828651543973,0.46736557741011625,4,False
59,1.9666666666666666,1.3999999999999921,-0.03167680881607944,0.06158375021018505,0.7133621695996524,-0.17119090288826527,-0.1235406965899407,-0.11558918104556104,0.25244632987535176,0.1636973246616648,0.5391078493495008,0.8145090646987063,0.25244632987535176,0.0,0.0,0.7800946730828657,0.09578506799172629,0.7692704196762411,4,False
60,2.0,1.4199999999999917,-0.03190332828588662,0.06073404558871332,0.7101923603261808,-0.1765987510754082,-0.09885253711729611,-0.050773305332614566,0.24931401030003156,0.15700506519114554,0.5400113617747525,0.781628874855193,0.24931401030003156,0.0,0.0,0.7801641001042486,0.09751850158735155,0.7054702189446403,3,False
61,2.033333333333333,1.4399999999999913,-0.031552391352126764,0.05960380673144942,0.7063785316400335,-0.17729961704906158,-0.07543137373328658,0.008645185703951836,0.2472680037563293,0.14841154554394664,0.5411815335402155,0.7515257459835041,0.2472680037563293,0.0,0.0,0.778197013328492,0.09802200956232425,0.6460013549090621,3,False
62,2.066666666666667,1.4599999999999909,-0.030781996127818793,0.05836590261244033,0.7023655391615605,-0.17455994696773855,-0.054039381175327104,0.062052359539753355,0.2460338932606541,0.14266035521560141,0.5433825982769005,0.6697595509727631,0.2460338932606541,0.0,0.0,0.774887595742402,0.09756611825566804,0.5910607289958604,4,False
63,2.1,1.4799999999999904,-0.02983638555534237,0.05703593094184349,0.6984134528724902,-0.1696533622632286,-0.0357295743995007,0.10840518802381706,0.24563371805689124,0.14398979389395175,0.5452388293652649,0.5081743088176709,0.24563371805689124,0.0,0.0,0.7695239593300558,0.09546492810418503,0.5402528370039797,2,False
64,2.1333333333333333,1.49999999999999,-0.028601175304463974,0.05569561721932541,0.6946662361936402,-0.1634524926841262,-0.020194277758266235,0.1504216777975947,0.24648497844292894,0.14864254843221375,0.5468985910621557,0.6047830262142088,0.24648497844292894,0.0,0.0,0.7622795907289612,0.09177724069860872,0.4966806721958023,2,False
65,2.1666666666666665,1.5199999999999896,-0.027344888391466857,0.053760767549583796,0.6902047527332922,-0.15500494295328032,-0.0068249737845766725,0.18696497154537073,0.24853318367046434,0.15205056143272874,0.5488096277898092,0.48667269167759764,0.24853318367046434,0.0,0.0,0.7540502424196887,0.08742500434689408,0.45636934105959703,3,False
66,2.2,1.5399999999999892,-0.02625548645874103,0.051847017150039795,0.6861041137848479,-0.14815551870454893,0.004812263235011639,0.21933404556484862,0.2518983165220622,0.16035289214267412,0.5509720925551623,0.5189029326512562,0.2518983165220622,0.0,0.0,0.7449319358769099,0.08238877306717429,0.4185223311965224,3,False
67,2.2333333333333334,1.5599999999999887,-0.025111656953912723,0.050370081656623406,0.6824556277876048,-0.14359825046101524,0.013054755841993126,0.245307246500204,0.2554744712669919,0.16869738834989717,0.557885178406225,0.42607262153199277,0.2554744712669919,0.0,0.0,0.7347333316991023,0.07653117720734995,0.387311865451853,4,False
68,2.2666666666666666,1.5799999999999883,-0.02417791338094695,0.049215550140651175,0.6792641205267899,-0.1399821774300475,0.020366929947279885,0.2695027289568037,0.2590875634378332,0.1775967262711283,0.6329731108631185,0.47317244879014475,0.2590875634378332,0.0,0.0,0.7235722357700194,0.07028984579786135,0.358617168143129,4,False
69,2.3,1.5999999999999879,-0.023689552021630037,0.047854322122285055,0.6762792148476182,-0.13551105987833728,0.025766722915427507,0.2896848361327009,0.263208014684801,0.18284051863529432,0.6637444734161118,0.5095956625024572,0.263208014684801,0.0,0.0,0.7104496984203195,0.06332831098659766,0.3336968380887761,4,False
70,2.3333333333333335,1.6199999999999875,-0.0234664869739368,0.04604397427106402,0.6729694066954883,-0.1319070529186397,0.0304930129938622,0.30699214691545446,0.26850439735472,0.18767643618429364,0.706398949469749,0.45623795630865377,0.26850439735472,0.0,0.0,0.6958098867973957,0.05658114322562688,0.3111262074002228,9,False
71,2.3666666666666667,1.639999999999987,-0.023354866415804778,0.0444155949213168,0.6707599821435678,-0.13071328135029994,0.032696571576503186,0.31368379034845717,0.2971997850012307,0.18767604483259523,0.793429443446065,0.49141944899293116,0.2971997850012307,0.0,0.0,0.6976711098174806,0.05706404487098296,0.2315516413209631,5,False
72,2.4,1.6599999999999866,-0.02312812330611194,0.04241478899905114,0.6719864093691361,-0.1231409202224155,0.013428743417618048,0.2823406876581155,0.29153080445768204,0.22437994431763827,0.8479535565069459,0.8018611622803641,0.29153080445768204,0.0,0.0,0.773549856996785,0.11331153020037364,0.3498042233496069,7,False
73,2.433333333333333,1.6799999999999862,-0.023035532305496074,0.03927054526971761,0.6761729974872432,-0.10957602929388993,-0.009936399652706067,0.2377032249490266,0.27333439696921,0.22158531657500188,0.8857177330715427,0.9297150235844839,0.27333439696921,0.0,0.0,0.7946192883058799,0.12817913139910767,0.45922271319619035,7,False
74,2.466666666666667,1.6999999999999857,-0.022455798254669403,0.036309499105416705,0.6803430241909978,-0.10024094010049035,-0.032029102443398585,0.19332457217907392,0.2713871607188216,0.20741697363544623,0.829574343913219,0.8183014046810089,0.2713871607188216,0.0,0.0,0.7909822959638052,0.11983074598158368,0.4096010010815677,7,False
75,2.5,1.7199999999999853,-0.02184615682005728,0.03365307667028965,0.6844372779538122,-0.09385471829085229,-0.051907778800079594,0.15336892417258222,0.27504276693675284,0.19603379821275113,0.7791493351020491,0.7197403116849965,0.27504276693675284,0.0,0.0,0.7851494400278555,0.1095544328693401,0.3644516288204739,3,False
76,2.533333333333333,1.739999999999985,-0.020824733898666216,0.03147135675107899,0.6878985786271763,-0.0894550740577261,-0.07100966092642845,0.11474460172966937,0.2864963032396391,0.19471234128631146,0.7342530130147974,0.6610721801464299,0.2864963032396391,0.0,0.0,0.7772111054010992,0.09792818479636703,0.32285845674252406,3,False
77,2.566666666666667,1.7599999999999845,-0.01962511643137991,0.02932730556234337,0.6907376979163672,-0.08510316514856536,-0.0883068796284531,0.08061521241700952,0.298028177244995,0.19894530548202422,0.6969246848016905,0.6015672696428448,0.298028177244995,0.0,0.0,0.7677141775990847,0.08556220679405752,0.2866461523010212,5,False
78,2.6,1.779999999999984,-0.018963327903652218,0.026896466580012223,0.6924155421169733,-0.08069900271927775,-0.11180991613674052,0.05159561956022573,0.30434331471526865,0.2011846702741296,0.6629303261383099,0.6701802916210503,0.30434331471526865,0.0,0.0,0.7558060205986201,0.07190705848172621,0.25043695751025835,5,False
79,2.6333333333333333,1.7999999999999836,-0.01903030708294279,0.024352575879096696,0.6923958845159786,-0.07862600272100152,-0.1279836613916251,0.03603427044141468,0.3039732208999906,0.19114737834202367,0.6165143630916777,0.6370029838271978,0.3039732208999906,0.0,0.0,0.7648711837604988,0.07888635889109433,0.2141368714141801,4,False
80,2.6666666666666665,1.8199999999999832,-0.019298091629073737,0.021786655927758095,0.6915722769225298,-0.07896463725062808,-0.12979777899997755,0.034926528227913436,0.27763309682672876,0.18049511110289507,0.7108942114558781,0.5512824407542026,0.27763309682672876,0.0,0.0,0.782484876268945,0.0953707944151792,0.2640095170555397,4,False
81,2.7,1.8399999999999828,-0.019672198832291352,0.019872025555318956,0.6916290254529998,-0.0798967334114562,-0.1320951868665471,0.03547359413453328,0.2519986668186432,0.20286254103421966,0.7167813882328965,0.5898462225726269,0.2519986668186432,0.0,0.0,0.7896924889243788,0.10213273558782582,0.11649027287863559,5,False
82,2.7333333333333334,1.8599999999999823,-0.020395519814097554,0.018452713582324462,0.6922757224005549,-0.07879807502778519,-0.13796250855371853,0.03716537251616516,0.24223553488878044,0.21790208110351114,0.6707061213685424,0.7261273955604272,0.24223553488878044,0.0,0.0,0.7909877671497426,0.10264361213328385,0.07173638538934998,5,False
83,2.7666666666666666,1.879999999999982,-0.02113003177859201,0.01745299171683572,0.6929626897597997,-0.07773963579504478,-0.14462647894913433,0.03744087370131325,0.23945215126011787,0.20026386067712015,0.6160465474006653,0.6451363529444516,0.23945215126011787,0.0,0.0,0.7924871301921697,0.10338459248325675,0.08066528412721662,4,False
84,2.8,1.8999999999999815,-0.02180238995332858,0.017205893091961855,0.6937107261163682,-0.0776412911089906,-0.15172658610449113,0.03696554882436207,0.23559737116886914,0.1905980007231645,0.5895934291575131,0.5763872616513126,0.23559737116886914,0.0,0.0,0.7915730160360749,0.10188474237598036,0.08621458679020384,3,False
85,2.8333333333333335,1.919999999999981,-0.022389687282902325,0.017325549874021025,0.6944236838723186,-0.07758203822757968,-0.15896348906926072,0.036057943984604664,0.23144737353956132,0.18841793431519074,0.576905344345005,0.5021905438424021,0.23144737353956132,0.0,0.0,0.7888233948322286,0.09868397901201262,0.08703635900473392,9,False
86,2.8666666666666667,1.9399999999999806,-0.02292928004501962,0.0178394581244613,0.6950093941107772,-0.0774848192021591,-0.16501245359203126,0.03459832453302492,0.23348447077022685,0.18696429823019128,0.5695065722295953,0.48567288089697697,0.23348447077022685,0.0,0.0,0.7848628144220287,0.09449751150629426,0.108741229578767,4,False
87,2.9,1.9599999999999802,-0.023685000729781913,0.018487182240272966,0.6951618835140937,-0.07404302555278097,-0.16248725620491228,0.011898574672350393,0.25737206436788324,0.1598253112401752,0.6241533980113056,0.4653266154741974,0.25737206436788324,0.0,0.0,0.775310121597114,0.08550583235418373,0.3460901524506847,4,False
88,2.933333333333333,1.9799999999999798,-0.02412858985514324,0.019266030515763727,0.6946982161032488,-0.06980228702097394,-0.15332879605456884,-0.022656248109395292,0.256123080000636,0.17321833732419858,0.5517799813712035,0.6916688020499054,0.256123080000636,0.0,0.0,0.7694506238047527,0.08066784251267155,0.4198058318036243,4,False
89,2.966666666666667,1.9999999999999793,-0.024114332028420022,0.020422408625670362,0.6941720207295282,-0.07052490354079904,-0.14236148904708965,-0.051775283710318934,0.2512781695226359,0.17615450580870057,0.5710245457543848,0.6638221594847988,0.2512781695226359,0.0,0.0,0.768469482322726,0.08057789186288543,0.3869118161422478,4,False
90,3.0,2.019999999999979,-0.02400677833355546,0.02166634059538476,0.6933265307796714,-0.07260789803631357,-0.13036438789885044,-0.0789895717869673,0.24682750175911333,0.17605936755816412,0.5664083632955532,0.6028185075273192,0.24682750175911333,0.0,0.0,0.7647040764340898,0.07809665156566035,0.3571929159427817,4,False
91,3.033333333333333,2.0399999999999787,-0.023762352954958686,0.023461015232260192,0.6924124723317489,-0.07807400252221047,-0.11887389894414992,-0.10191223610184462,0.24901328637837503,0.17369976339647134,0.5666638286050867,0.5362006047082255,0.24901328637837503,0.0,0.0,0.75995013060562,0.07503136917498904,0.3306828885654958,5,False
92,3.066666666666667,2.0599999999999783,-0.023890953266661706,0.024490420766529287,0.6912098483729144,-0.08306476140482667,-0.1067511519043828,-0.12128959505288477,0.2561517503116215,0.17078503827901811,0.5698970156527463,0.5749856823779841,0.2561517503116215,0.0,0.0,0.7543825652664041,0.07150745121664469,0.3056446393559768,4,False
93,3.1,2.079999999999978,-0.02377832289477354,0.02538538618571351,0.689318422516767,-0.09100280139500026,-0.09630874654101167,-0.13868921161066616,0.26455571769433195,0.16831473789025833,0.574641191153346,0.6498112229069191,0.26455571769433195,0.0,0.0,0.747266598196863,0.06707539425087737,0.2798940366626434,4,False
94,3.1333333333333333,2.0999999999999774,-0.02373503619259443,0.025771524037579572,0.6873124898665889,-0.10056795901974021,-0.08733214259312815,-0.15238044768605416,0.2694416506257027,0.16928395112965608,0.5984484484222472,0.5809194543870478,0.2694416506257027,0.0,0.0,0.7388989821700954,0.06195375776855551,0.2589584349364533,5,False
95,3.1666666666666665,2.119999999999977,-0.023882438911823442,0.025565352324784997,0.6852284000432318,-0.10960192281285738,-0.07966921424531388,-0.1655374672555434,0.27351473494411843,0.17188536781843403,0.6190071402850444,0.5835327938833149,0.27351473494411843,0.0,0.0,0.7294191669034337,0.05595812683241532,0.2409428696908909,5,False
96,3.2,2.1399999999999766,-0.024082390258363798,0.025603614740078978,0.6833322974856831,-0.1201574771290702,-0.0743377870524867,-0.17693123082318338,0.27895491577868725,0.17524956952768875,0.6278356009392403,0.5566934427335007,0.27895491577868725,0.0,0.0,0.7176076470924637,0.048771843127683616,0.22544038441106926,6,False
97,3.2333333333333334,2.159999999999976,-0.02438768642647917,0.025391742484433297,0.6808886067045693,-0.128490643485334,-0.07045739357758996,-0.18896496344986924,0.28417337111453594,0.17705752808312872,0.6287926662318506,0.5753595608761645,0.28417337111453594,0.0,0.0,0.7040858544245566,0.04181930126110925,0.21097779642634681,5,False
98,3.2666666666666666,2.1799999999999757,-0.024512591097363194,0.025463327837456362,0.6780770195202525,-0.13710775034529096,-0.06876787553592231,-0.19867420489024382,0.29303905739456615,0.17242182471901096,0.595261524011262,0.5425553439919455,0.29303905739456615,0.0,0.0,0.6932755077140705,0.03813755784290877,0.1931199238092703,4,False
99,3.3,2.1999999999999753,-0.023609823834870237,0.025050260123393744,0.6771409872968429,-0.14352399992405607,-0.07023323382748256,-0.18542369902202255,0.29693264313053924,0.1592227694087217,0.5214158437831368,0.5071564688653831,0.29693264313053924,0.0,0.0,0.7431848650275423,0.07454932775044598,0.1456346330009698,6,False
100,3.3333333333333335,2.219999999999975,-0.022829045600677514,0.024322688121559508,0.6770071201597808,-0.14677954937493776,-0.060243480312087434,-0.13132301608249558,0.2951613400602549,0.2228907190457025,0.6132251089131466,1.0555096907668977,0.2951613400602549,0.0,0.0,0.7652206453725036,0.09431306102366872,0.5341196164683591,2,False
101,3.3666666666666667,2.2399999999999745,-0.021377480015187442,0.02282928522541553,0.6756120409647492,-0.14209730331655585,-0.03486083860398796,-0.038628790855422916,0.3490753427378457,0.2659861564090779,0.8651429882075935,1.3958083555410585,0.3490753427378457,0.0,0.0,0.7434434155775296,0.07458559870613629,1.0283870591168054,5,False
102,3.4,2.259999999999974,-0.019922486689915277,0.02086034898993818,0.673415472956014,-0.1508165627040321,-0.02709139746200388,0.07639869910846565,0.3356537815788663,0.2609838879327522,0.7405734939768001,1.4227503612398684,0.3356537815788663,0.0,0.0,0.7391311997654912,0.07158441710870346,1.2941129139528118,2,False
103,3.433333333333333,2.2799999999999736,-0.018041730003961247,0.018787222471342527,0.6698173966001895,-0.17731986582744014,-0.02061264517924342,0.20527179662396372,0.34359617893739114,0.23891139244052084,0.791562421122173,1.5769437544437095,0.34359617893739114,0.0,0.0,0.7359864136235658,0.07045921997516222,1.3558621250719864,2,False
104,3.466666666666667,2.299999999999973,-0.015242356762836648,0.015880676376521855,0.6641500268984316,-0.19629133768113488,-0.007340507462194557,0.33487435939056226,0.3295262071516516,0.21616535881390936,0.6652747825996546,1.4878394334271834,0.3295262071516516,0.0,0.0,0.7351182636333936,0.07315945144629907,1.273634950700788,1,False
105,3.5,2.3199999999999728,-0.011371473935020896,0.01412379167959526,0.657306854361183,-0.20700472157722988,0.008151507051015706,0.4592845835341055,0.32357499170019455,0.19844940342785017,0.6324911366826939,1.3240447840988474,0.32357499170019455,0.0,0.0,0.7309391909187589,0.07431058009202335,1.1690599045366545,1,False
106,3.533333333333333,2.3399999999999723,-0.007201569455768763,0.01314170870231518,0.6485542036840131,-0.2065038731412871,0.024658656050499154,0.5763649830929065,0.31878902744333043,0.17984749702767788,0.5904648936031185,1.275386786001344,0.31878902744333043,0.0,0.0,0.7247389029559935,0.07540531224861144,1.0615699612422105,0,False
107,3.566666666666667,2.359999999999972,-0.003583468748974701,0.012563198066885465,0.6375944715375483,-0.19926115818558868,0.03988126997374987,0.6906101747269524,0.3158900635139532,0.1634139451458203,0.542193365038004,1.1935697655189161,0.3158900635139532,0.0,0.0,0.7166433501567934,0.0773601992840814,0.9496998841133888,1,False
108,3.6,2.3799999999999715,-0.000783994196362108,0.012549900524472015,0.6251671244187698,-0.18643624236453243,0.05086414651754456,0.7941048516669176,0.3145345541682175,0.15242937965111994,0.5389424958852546,1.2573546046028687,0.3145345541682175,0.0,0.0,0.7052103761220453,0.07785147023683459,0.8430105187337009,1,False
109,3.6333333333333333,2.399999999999971,0.00118624291054046,0.012713535653511042,0.6115360908310569,-0.1690372272986598,0.054205166277856265,0.8863497948975481,0.3118915623374957,0.1435712968445922,0.5608831076552998,0.9231387058395102,0.3118915623374957,0.0,0.0,0.6927893464307636,0.07877275990758653,0.7367773327955944,1,False
110,3.6666666666666665,2.4199999999999706,0.0026531595577581907,0.013524921263298812,0.5969403826564166,-0.151150460399363,0.05420913085362983,0.9691269594712918,0.3116884640302652,0.13875348766612866,0.5647314668396917,1.0661045515217331,0.3116884640302652,0.0,0.0,0.6805473631432629,0.08105454378687542,0.6322119378628808,3,False
111,3.7,2.43999999999997,0.00435332632928322,0.014421804585848358,0.5838238212709572,-0.13550480318022665,0.043046416300829324,1.0142915108777997,0.31888244387644576,0.2069468453575194,0.609361017159219,1.2533201871190245,0.31888244387644576,0.0,0.0,0.7579939296621512,0.1717912366849862,0.22593584086544238,2,False
112,3.7333333333333334,2.4599999999999698,0.007759636941212976,0.01750606667668929,0.5759591123308218,-0.10722836657557118,0.032395484078387486,0.9995132169035165,0.3294613459000509,0.24231184925860974,0.9296878491493071,1.4054655019669777,0.3294613459000509,0.0,0.0,0.7931577032852934,0.21629418097485698,0.48266690147231717,2,False
113,3.7666666666666666,2.4799999999999693,0.01183025029099959,0.021577688744313595,0.574445841363603,-0.07125208611893537,0.031133741947908352,0.9475811574482002,0.2975213799314021,0.23019642942576513,1.1120563200434064,1.510070964671977,0.2975213799314021,0.0,0.0,0.7933195986499755,0.22031688740582883,0.8254215784126572,2,False
114,3.8,2.499999999999969,0.014714559909360037,0.025729940583584382,0.5769198496358784,-0.046832833713535076,0.024663798623195572,0.8840493259911256,0.29646210735943856,0.20524059551791493,1.054328337245435,1.4908341147748085,0.29646210735943856,0.0,0.0,0.790802414241517,0.21652683668444708,0.7629288713260647,2,False
115,3.8333333333333335,2.5199999999999685,0.01695303444527535,0.02877696227126065,0.5813872507997155,-0.028490266690085753,0.015758458310021033,0.8232098498218737,0.309988024968017,0.2035723812054832,0.9930227122778905,1.2789119245041094,0.309988024968017,0.0,0.0,0.786746557042673,0.2092029002296202,0.70309230901503,2,False
116,3.8666666666666667,2.539999999999968,0.017661495362927746,0.031143716459465325,0.587396199290725,-0.017685235213249793,0.00443760866249473,0.7662144316067433,0.33581462426580777,0.23303818274622595,1.0040894262533702,1.0573595675032834,0.33581462426580777,0.0,0.0,0.7810190210419009,0.1984151329128112,0.6575073112145597,3,False
117,3.9,2.5599999999999676,0.018032933673752506,0.03291212085066792,0.5940737433910352,-0.008472219763907649,-0.010640114878812251,0.7136493314294587,0.3280493968507051,0.2528302331420593,1.2041519143598123,1.1682450590642284,0.3280493968507051,0.0,0.0,0.7716267723976822,0.18304941309640596,0.6172844384515289,4,False
118,3.933333333333333,2.579999999999967,0.018961397926238133,0.033357600590376756,0.6007002178145374,0.0010239138708667194,-0.0195105526576909,0.6648198123790265,0.3756886473890278,0.2843108368704494,1.4527339686657306,1.7621445362863468,0.3756886473890278,0.0,0.0,0.7701171222896077,0.17521401107115908,0.6288695368078442,2,False
119,3.966666666666667,2.599999999999967,0.019645895752901113,0.03348457944148685,0.6070066003842394,0.005960403879568997,-0.023100263516352255,0.6159417976176115,0.2961936081051296,0.2912855888606759,1.2411916467087127,1.322892221037558,0.2961936081051296,0.0,0.0,0.7838232966285551,0.18254671462552485,0.7315084805897457,3,False
120,4.0,2.6199999999999664,0.019012338439951388,0.03242854671494163,0.6122004412656091,0.004788564547167897,-0.04115978979670737,0.5607074178996062,0.3582742155526826,0.27878506024377553,0.9769021835501625,1.387392597974835,0.3582742155526826,0.0,0.0,0.79532400785002,0.1882209211139362,0.7355955146945272,3,False
121,4.033333333333333,2.639999999999966,0.018699318513402678,0.031012268747088442,0.6168658333188554,0.0011823773872219202,-0.06535395498499189,0.5059433513412331,0.3792045473834014,0.26427539851640397,0.8936088556961395,1.4641453438339702,0.3792045473834014,0.0,0.0,0.7838828587748211,0.17212292752326908,0.5921076047462875,1,False
122,4.066666666666666,2.6599999999999655,0.02133520023739873,0.02912606781031512,0.6220312810094153,0.010992401729992794,-0.07749004105051421,0.47291520171098245,0.3123707146555241,0.20347600547361655,0.5748963471584043,0.9886516090554034,0.3123707146555241,0.0,0.0,0.7579531480739917,0.141853756640542,0.31865946901961967,2,False
123,4.1,2.679999999999965,0.024040417296658213,0.026955894974291673,0.626490317147266,0.016918656244567648,-0.08691253915449644,0.44375508642629147,0.26844428482563504,0.204002219022638,0.5994412314539035,0.952706874541762,0.26844428482563504,0.0,0.0,0.7571561330181867,0.13656973569496175,0.275115146128716,2,False
124,4.133333333333334,2.6999999999999647,0.026618128870438268,0.024726770001366517,0.6302588689930395,0.019786050385478923,-0.09431570929444733,0.4153418203360704,0.2636254389443278,0.1999360699902317,0.6055548725643216,0.9366772881111838,0.2636254389443278,0.0,0.0,0.7565672553601219,0.13224864351228519,0.25705821449783023,2,False
125,4.166666666666667,2.7199999999999642,0.02887627440719998,0.022398860490787435,0.6332925668542442,0.021617800595688918,-0.10139160948525902,0.386947792961663,0.26197264260168707,0.1920643814879238,0.6084842465274105,0.872812379547291,0.26197264260168707,0.0,0.0,0.7537413481843801,0.12652774284035967,0.24242352208182485,1,False
126,4.2,2.739999999999964,0.030653628278928133,0.020347911891560926,0.6356463827376432,0.02242853995980667,-0.10759771516055919,0.3579974513824501,0.2620038904198932,0.18244585785123701,0.6182735232112134,0.7970821036569722,0.2620038904198932,0.0,0.0,0.7486192725368398,0.11928702674028518,0.23348482233374498,2,False
127,4.233333333333333,2.7599999999999634,0.031878519387920204,0.01861420508058929,0.6372075322886915,0.02251624324118123,-0.11277406484793719,0.3285476631478538,0.2607454232505665,0.17395023296491427,0.6329516595010202,0.7607302099616142,0.2607454232505665,0.0,0.0,0.7426052511700113,0.11196058728935705,0.22789825277514916,2,False
128,4.266666666666667,2.779999999999963,0.03254105149401831,0.017165237107981242,0.6378827139957695,0.022486183814808026,-0.1169144233533652,0.2986618523679952,0.2669927759859458,0.1684797672533839,0.6495172893196246,0.7497620000509735,0.2669927759859458,0.0,0.0,0.7356220097090919,0.10454270069011551,0.22447050334337793,1,False
129,4.3,2.7999999999999625,0.032539066493092045,0.016114216213912704,0.6376189687037851,0.021760151005530252,-0.12042692023389465,0.2677649084161207,0.273238033792767,0.16249447686280583,0.6644713534877877,0.7593461853319071,0.273238033792767,0.0,0.0,0.7263751548670356,0.0958207372273213,0.22120692787943122,1,False
130,4.333333333333333,2.819999999999962,0.03188357908064997,0.01549363099697865,0.636464055569378,0.020849293286218186,-0.12311864581331662,0.23591858894738146,0.27622364315825004,0.15597357279020813,0.6822472273788496,0.7531618799957394,0.27622364315825004,0.0,0.0,0.7158575704625867,0.08671540398431861,0.21829784975020516,2,False
131,4.366666666666666,2.8399999999999617,0.03037999521482481,0.015185821750770647,0.6342952230740346,0.02044818337744619,-0.1268540923472324,0.20329854655857532,0.27859547091815806,0.15285214133168318,0.7011897368577612,0.7144503387576482,0.27859547091815806,0.0,0.0,0.7038667129324614,0.07704000434110742,0.21463331245986975,2,False
132,4.4,2.8599999999999612,0.0281652107944482,0.015325994882237806,0.6311483293889957,0.02011444416024627,-0.1291406817051175,0.17054332285469123,0.28211537128805136,0.1526101976917755,0.7197908475664327,0.6982099997411133,0.28211537128805136,0.0,0.0,0.6894780867900391,0.06604456759082876,0.20876142891702526,2,False
133,4.433333333333334,2.879999999999961,0.025429113291766392,0.015859040622417157,0.6270179392234947,0.020028296314888776,-0.1311543517948168,0.13829220640084613,0.2866090406503585,0.15711269038488135,0.7281595119619452,0.6743847386693357,0.2866090406503585,0.0,0.0,0.6735415204146409,0.0546916022886039,0.1984172910289521,1,False
134,4.466666666666667,2.8999999999999604,0.022141914177039458,0.016696891685184033,0.6217230418591252,0.02040048126859122,-0.13431117984316784,0.10712634723505476,0.29171014451321103,0.16241379128208014,0.7279527603230266,0.7318261514840582,0.29171014451321103,0.0,0.0,0.6557302002724552,0.04314992267775364,0.18511820219912622,2,False
135,4.5,2.91999999999996,0.01833079944223039,0.01782824068246525,0.6151303477839932,0.020939681813908533,-0.1388903751250964,0.07884051648095082,0.2983715303958013,0.1667398404694837,0.7238368645611395,0.7500663756627193,0.2983715303958013,0.0,0.0,0.6351383515598361,0.03182198004995355,0.16930691641204712,2,False
136,4.533333333333333,2.9399999999999595,0.014046020454700686,0.019210474488893632,0.6071050803027215,0.021221387087942023,-0.14536036977854958,0.05356599131051453,0.3063198116698521,0.16960066550624864,0.7133847712021992,0.7618497519092563,0.3063198116698521,0.0,0.0,0.6130238332861193,0.024444559441530678,0.15541710218952492,2,False
137,4.566666666666666,2.959999999999959,0.009373835924341403,0.020753961615394893,0.5975398144893902,0.020973543481276908,-0.1539871487393895,0.03137205418099688,0.31690514239886286,0.17180487117171844,0.6987488434923322,0.802176290904742,0.31690514239886286,0.0,0.0,0.5890851799030083,0.02539666343217807,0.14647532703025715,2,False
138,4.6,2.9799999999999587,0.0043829789040774345,0.022541866768161258,0.5863134688995822,0.019635559947859343,-0.16458035503959986,0.014083359830094002,0.32915078118846414,0.1733520321081643,0.6859261556124961,0.8236012345511983,0.32915078118846414,0.0,0.0,0.5626364230602292,0.035011990802253534,0.1453848977994062,1,False
139,4.633333333333334,2.9999999999999583,0.0015762943288372612,0.023687481965411237,0.5760036550768801,0.019390677346847886,-0.16004925950630292,-0.009565252493104562,0.350678331145633,0.19182069587864098,0.5845798464347509,0.9452165374340357,0.350678331145633,0.0,0.0,0.6121447720550427,0.041145206050314645,0.15707126896198473,2,False
140,4.666666666666667,3.019999999999958,0.0035786059440663636,0.023703447345719563,0.571445498126302,0.018350873361888252,-0.14546568841141963,-0.03135716021606166,0.31596308905566084,0.22441808776088318,0.6249558490442684,1.0373186840804505,0.31596308905566084,0.0,0.0,0.7760197247400586,0.2054221003841751,0.20728696215570722,2,False
141,4.7,3.0399999999999574,0.008676357414699224,0.021427837660893897,0.5739699086617391,0.013608973743666593,-0.14897928039809263,-0.042324147291389516,0.2386671078862948,0.2676054566650126,0.9666264762510921,1.4329825230974975,0.2386671078862948,0.0,0.0,0.7922529910959794,0.2205517270969334,0.13654333976944444,2,False
142,4.733333333333333,3.059999999999957,0.013882401269758801,0.018901835169854362,0.5798537983468102,0.01037885864399462,-0.1476670162764182,-0.050166116943443945,0.245809554678078,0.2570755832506029,0.8746106622345453,1.2899615026006717,0.245809554678078,0.0,0.0,0.7928185829426752,0.21593405244365138,0.1502744640138906,3,False
143,4.766666666666667,3.0799999999999566,0.017341632661996592,0.01627326620101175,0.5866922177560931,0.009350832521892904,-0.1523436757399227,-0.05282109562285395,0.24982740399545536,0.23728503857486097,0.7789418389387657,1.088689943043407,0.24982740399545536,0.0,0.0,0.7914824291124706,0.20779879965419787,0.1618936272077722,3,False
144,4.8,3.099999999999956,0.018173935432781996,0.013036939433934568,0.5930480338555696,0.008763831095476673,-0.15940995577644756,-0.05314662568475116,0.25713192535714663,0.2265409951934544,0.6990170202179458,0.9873107498944258,0.25713192535714663,0.0,0.0,0.7881604952822696,0.19804956376082009,0.17477240381077186,3,False
145,4.833333333333333,3.1199999999999557,0.01817869572828688,0.00924839341066905,0.5996747268490391,0.006951647217281476,-0.15770700434965773,-0.051730859746435716,0.26634467378392723,0.21529871654232566,0.6240748404556208,0.9854464016867215,0.26634467378392723,0.0,0.0,0.7838359056717075,0.18701351810406028,0.1784319574187316,4,False
146,4.866666666666666,3.1399999999999553,0.018111189223616965,0.005318801013116863,0.6063749180544697,0.0036564795438575035,-0.15008606745736702,-0.049010513351544674,0.30289053948559497,0.23703888555906683,0.9373571833176595,0.9956006127032725,0.30289053948559497,0.0,0.0,0.7783203395500403,0.17467014290647426,0.17256297199288728,2,False
147,4.9,3.159999999999955,0.0176946184580643,0.001893582414524741,0.6122822338017428,-0.004051959032919765,-0.13905456172696815,-0.046044335288197916,0.31153906433423156,0.230889894449708,1.0218038284010105,0.7261027719515837,0.31153906433423156,0.0,0.0,0.771483001124657,0.16155552921069477,0.16982924018998147,4,False
148,4.933333333333334,3.1799999999999544,0.01665500508846782,-0.00025396070275800046,0.6167580986008292,-0.01581031964382578,-0.12537352600325077,-0.04501043674266487,0.32142128108985496,0.23310719773312483,0.9941354678290021,0.6585211549025265,0.32142128108985496,0.0,0.0,0.7653557853311028,0.1505637186090263,0.16382492292562628,4,False
149,4.966666666666667,3.199999999999954,0.015296732753845924,-0.0020573900633720494,0.6199309391552411,-0.02843763560157287,-0.11348633755835406,-0.045303442781262346,0.33159395249205803,0.23915270374342745,0.9841062860734296,0.769239445093608,0.33159395249205803,0.0,0.0,0.7583809458554388,0.14002640911357625,0.16498091326434755,4,False
150,5.0,3.2199999999999536,0.013155643615268026,-0.0028586450080074852,0.6209062241411718,-0.040676904615150104,-0.09252861214304078,-0.03187969702485392,0.4121124024756085,0.22835041922558386,0.9783023918914526,0.9110307184204761,0.4121124024756085,0.0,0.0,0.6985334411066026,0.0789430064887969,0.33365215314540037,2,False
151,5.033333333333333,3.239999999999953,0.010946097463087145,-0.0011179445168394528,0.6190042912734279,-0.07005219750661318,-0.06832619474492248,-0.003339129560957836,0.514755387802402,0.2658399789781782,0.9625662696474595,1.2851096367267616,0.514755387802402,0.0,0.0,0.6665904489967286,0.04826263205645649,0.5086238541695042,1,False
152,5.066666666666666,3.2599999999999527,0.009676566197665874,0.001469569660312807,0.6163221241342788,-0.09706955554217032,-0.04781528470572685,0.015106738338782186,0.5260754344601452,0.29767965219339426,0.9578022942485784,1.2332534635438006,0.5260754344601452,0.0,0.0,0.7714147589762254,0.15475822051545876,0.36188059221043023,2,False
153,5.1,3.2799999999999523,0.010416467847862204,0.0035012295678114916,0.6154733196438253,-0.11432589044576638,-0.038585855688108926,0.024470520455731254,0.4806848815027159,0.28565104372201255,0.9242558675539988,1.2712648295689657,0.4806848815027159,0.0,0.0,0.7871670326852683,0.1720191560857003,0.2051587054497009,2,False
154,5.133333333333334,3.299999999999952,0.013401296630448109,0.0029391864104662247,0.6176705113512864,-0.12221278603077547,-0.04811434192264677,0.02105914880363916,0.4168659436300204,0.29718250275548513,0.8807772200871116,1.0600284841328877,0.4168659436300204,0.0,0.0,0.7811803667096264,0.16474143235373298,0.11186463613416298,6,False
155,5.166666666666667,3.3199999999999514,0.016325454623111142,0.002218615316266907,0.6207258863773629,-0.12694987770001873,-0.05525424280459058,0.02225985070935609,0.3955684840559572,0.2869795536814095,0.8694783310478966,0.960014794048665,0.3955684840559572,0.0,0.0,0.7774134037503763,0.15823069319032398,0.12431639786055944,7,False
156,5.2,3.339999999999951,0.018849930987564024,0.0012183185408884232,0.6237655748733332,-0.1306991775232174,-0.06554989842739518,0.023369066861583337,0.3935289119983295,0.27335061310110914,0.8579333192616714,0.8816081664456955,0.3935289119983295,0.0,0.0,0.7715410254180365,0.14967692579763675,0.13200480739326131,3,False
157,5.233333333333333,3.3599999999999506,0.02122989226906938,-0.00024359790834783154,0.6268874078061909,-0.13367211405816432,-0.0770629043920859,0.026360675329750886,0.39256327087158727,0.2601343267376456,0.8512292997710665,0.7922102039324024,0.39256327087158727,0.0,0.0,0.76549615103612,0.14090566821266007,0.1357954167923032,4,False
158,5.266666666666667,3.37999999999995,0.0234026713813131,-0.0015787946053611493,0.6297385215836299,-0.13940403442821797,-0.08775677699041572,0.03188499145465062,0.3984699809173687,0.2492014230391318,0.8448623905906452,0.7282228750394708,0.3984699809173687,0.0,0.0,0.7601996228479413,0.13312782690626415,0.14061998173431658,4,False
159,5.3,3.3999999999999497,0.025252325930471903,-0.002576800517720573,0.6319282282656813,-0.1479942928966889,-0.10049058891902159,0.040930716734181936,0.40558154142907454,0.23930251053264567,0.8375515281796867,0.6858048627232163,0.40558154142907454,0.0,0.0,0.7533621453176274,0.12443706648472602,0.15603618358818672,3,False
160,5.333333333333333,3.4199999999999493,0.026646764491809555,-0.003224005079945818,0.633213026007915,-0.1593684207828685,-0.11455215335375747,0.05304234539981903,0.4113561920023275,0.2300645839590952,0.8292044480646781,0.6395538578288773,0.4113561920023275,0.0,0.0,0.7454520542509409,0.11556801800903573,0.17506925410697974,4,False
161,5.366666666666666,3.439999999999949,0.02772616942874413,-0.003539021635398031,0.6335972948697329,-0.17330064420670674,-0.12955541637530335,0.06796622878426317,0.4172024615815276,0.2260877868725612,0.8197333207004891,0.6048985977641188,0.4172024615815276,0.0,0.0,0.7359203193011142,0.10602973709321575,0.1972351518901946,4,False
162,5.4,3.4599999999999485,0.028621352078587424,-0.0035466266887520066,0.6331139878967834,-0.18870487292732538,-0.14590223689890588,0.08546890941759354,0.4244007481235023,0.22394314741713178,0.8105513535044883,0.5900051357672832,0.4244007481235023,0.0,0.0,0.7249974818324607,0.09605919191940185,0.21627578467705627,4,False
163,5.433333333333334,3.479999999999948,0.029252104187826835,-0.003240089870755952,0.6316519323255335,-0.204781186531112,-0.16407124525331146,0.10643772639168989,0.4310903936822379,0.22078478324414216,0.8015594515090775,0.6007683375879759,0.4310903936822379,0.0,0.0,0.7127110306451824,0.0857698852160774,0.23140049952748343,5,False
164,5.466666666666667,3.4999999999999476,0.02965716111304631,-0.0029451271141555063,0.6291634993018694,-0.22094698106533223,-0.18569306740421168,0.12895091770396572,0.4377202984488585,0.22305309242542148,0.7919377546994721,0.6321116736983063,0.4377202984488585,0.0,0.0,0.6979906148592059,0.07432831406333792,0.24472374777599085,4,False
165,5.5,3.519999999999947,0.029856898168263535,-0.0026180351960528236,0.6255366244389997,-0.2357483427515713,-0.20946860037830842,0.15464873329531956,0.4442960447157483,0.22496959568042757,0.7826299016104898,0.6391462507288841,0.4442960447157483,0.0,0.0,0.6806651352471405,0.06184909482231282,0.2538248284319332,4,False
166,5.533333333333333,3.5399999999999467,0.029893167930451013,-0.0022812784424669713,0.620592140287423,-0.24931420137784288,-0.2354521243367289,0.18241847999284153,0.45107359500696,0.22721010988378576,0.773724143080396,0.6672728047888138,0.45107359500696,0.0,0.0,0.6618346556900063,0.04989601903161946,0.2595378812255225,4,False
167,5.566666666666666,3.5599999999999463,0.02984641324755317,-0.0019120041770578832,0.6141231668326583,-0.26074709661646084,-0.2625146082532681,0.21256196908467967,0.4584986114274648,0.22916303121091935,0.7575224138397595,0.7393006753270457,0.4584986114274648,0.0,0.0,0.6411416618664094,0.03914416337446592,0.2627915184721589,5,False
168,5.6,3.579999999999946,0.029470572378175294,-0.001761583844722203,0.6057971114737666,-0.2692278277156948,-0.2917037831091563,0.24413148589096062,0.4666354452269203,0.23237486544473104,0.7442664763050534,0.760613063328284,0.4666354452269203,0.0,0.0,0.6185466301951029,0.0314180939404202,0.26628062616109227,5,False
169,5.633333333333334,3.5999999999999455,0.028796487847455008,-0.001682970782182914,0.5953052482046896,-0.27540719470209624,-0.32110825444926194,0.27791372735442404,0.4796924898163007,0.23445742817241824,0.7325090599055585,0.8224224277661751,0.4796924898163007,0.0,0.0,0.5945794401735797,0.02921518605789269,0.2721391243799549,3,False
170,5.666666666666667,3.619999999999945,0.028161599937234712,-0.002078169743258267,0.5823938518676167,-0.27974935931686057,-0.3505451673190963,0.31232852360216545,0.49370424903452287,0.23595254013211553,0.7131444282091631,0.9077984197327235,0.49370424903452287,0.0,0.0,0.5686027195934508,0.03323175679723193,0.28008636140281945,3,False
171,5.7,3.6399999999999446,0.029779509467039698,-0.0005148726205841949,0.5706441323428766,-0.29290188587842897,-0.35084442566105367,0.3243655073092629,0.4456750318446915,0.22237845714466822,0.6941657507842159,1.0042813305025724,0.4456750318446915,0.0,0.0,0.6595147271403129,0.09091958546957137,0.16073234488133528,2,False
172,5.733333333333333,3.659999999999944,0.03546670106648474,0.003253426402032807,0.564470673207917,-0.29545761401759985,-0.32875491170406346,0.29583777472316863,0.4073918526946095,0.2609044258259692,0.8087032743489805,1.160886712934932,0.4073918526946095,0.0,0.0,0.7521754954744808,0.18961921742745314,0.5417590255619599,2,False
173,5.766666666666667,3.6799999999999438,0.04131378314569836,0.005371808205801663,0.5612830070548765,-0.2868913503290394,-0.3185795290198937,0.26040753455011434,0.3950117115711378,0.28579345502107784,0.8885637893847286,1.1504699510105902,0.3950117115711378,0.0,0.0,0.7494022238011477,0.1916719249874471,0.6824466856974151,6,False
174,5.8,3.6999999999999433,0.04439416715137405,0.005714198452526223,0.558325462339273,-0.2763753114278136,-0.3121623298134546,0.23694765195121578,0.39411336967655797,0.27697194212215587,0.9066799672704083,0.9738673302335467,0.39411336967655797,0.0,0.0,0.7463548050587311,0.1924307459979342,0.6395900359913063,5,False
175,5.833333333333333,3.719999999999943,0.046047806141087395,0.005030864267730834,0.5561991564084876,-0.26725446595822216,-0.2895569886421254,0.21219486391438566,0.3991871715031116,0.26857416160981146,0.8858088216153951,0.9198440064176947,0.3991871715031116,0.0,0.0,0.7418960129940163,0.19098176057306,0.5887420882826774,5,False
176,5.866666666666666,3.7399999999999425,0.04759120183919435,0.004756449180867172,0.5564649785890928,-0.2635229501241324,-0.2608841209882901,0.1871252454313532,0.4011894672229332,0.2621156520090987,0.8595493485888537,0.7613498482786245,0.4011894672229332,0.0,0.0,0.735249054345148,0.18520568825106118,0.5375538489307199,7,False
177,5.9,3.759999999999942,0.04893626925139883,0.0033050013877300778,0.558241889323677,-0.26097301113235294,-0.22982632771967879,0.16418201726497536,0.4018754468845187,0.2547492808958502,0.8308471531180389,0.7186491772533972,0.4018754468845187,0.0,0.0,0.7266484332374742,0.17586994161172192,0.48586135703917605,4,False
178,5.933333333333334,3.7799999999999416,0.04980382925833417,0.0017646904354455886,0.5612008163118448,-0.2608167803720818,-0.2019930974780143,0.14573953431324535,0.40145369151891075,0.24979883663297237,0.7996770381633516,0.5787561235656573,0.40145369151891075,0.0,0.0,0.7166637358900938,0.16401044066265338,0.4438071116831628,5,False
179,5.966666666666667,3.799999999999941,0.05030799735851523,-0.0005671780248868198,0.5647119989133571,-0.2591930182587766,-0.17868352116215527,0.1319172521778998,0.4008435686032821,0.24380759571725455,0.7657506502585701,0.5801956746804863,0.4008435686032821,0.0,0.0,0.7044449104769324,0.14929540632994112,0.4106568454829582,6,False
180,6.0,3.8199999999999408,0.0504036888537591,-0.003462157303002521,0.5681213724230478,-0.25681794602016567,-0.16197562144437538,0.12336958109113691,0.40031135946054747,0.2408052225273178,0.734338554128406,0.5085550735984933,0.40031135946054747,0.0,0.0,0.6901921802854544,0.1328919401349866,0.38772920037302905,5,False
