frame,video_time_s,sim_time_s,root_x,root_y,root_z,root_roll,root_pitch,root_yaw,joint_target_abs_mean,joint_error_abs_mean,joint_error_abs_max,joint_velocity_abs_mean,ctrl_abs_mean,root_target_z,root_position_error_m,root_orientation_error_rad,contact_count,fall_proxy
0,0.0,0.2200000000000001,0.010947455461053097,-0.04967366226751329,0.7457355254466121,-0.06819120128310473,0.04349042091483737,-1.3177608602568385,0.24425575343205755,0.03982759629514932,0.16543300325879454,0.15845501294255412,0.24425575343205755,0.7903743982315063,0.06585075232006106,0.09857731086248737,2,False
1,0.03333333333333333,0.24000000000000013,0.011541834186194037,-0.05602649044556654,0.7414327118414875,-0.07629869944401224,0.03799004082621202,-1.315334717892521,0.3261918493394508,0.10961159813206235,0.5725771754609184,0.7057055617472121,0.3261918493394508,0.7904356122016907,0.0736765536768723,0.10354288034125933,1,False
2,0.06666666666666667,0.2600000000000001,0.012084394307450156,-0.06187595115864933,0.7365272956389969,-0.0828886927626238,0.032384665205212396,-1.3156462597539622,0.3954272475386135,0.1660251771832657,0.9033437595005206,1.0633280641037661,0.3954272475386135,0.7904580235481262,0.08178153048935505,0.10703566291981793,2,False
3,0.1,0.28000000000000014,0.012939027607867614,-0.06870018398296118,0.733011287814598,-0.09286078872468405,0.035136001440152734,-1.3158661432485221,0.429148442228575,0.18471710327438662,0.969617347795452,1.1585139638450526,0.429148442228575,0.790461003780365,0.08964486334142564,0.11775006032543595,1,False
4,0.13333333333333333,0.30000000000000016,0.013680289066440657,-0.07493905104701343,0.7306110159960947,-0.09185909477682622,0.036339883188198134,-1.3161313601234619,0.43970691980284465,0.1861981268004912,0.8902133106056613,1.125882041123296,0.43970691980284465,0.7904387712478638,0.0967908697132287,0.11907114565226777,1,False
5,0.16666666666666666,0.3200000000000002,0.014930608928357895,-0.07980568923823833,0.7291668990563124,-0.08878999508914585,0.04214609683110129,-1.316268340732699,0.45269262113418274,0.18872006869043279,1.0565033638524397,1.0807841635759277,0.45269262113418274,0.7904137969017029,0.10230032821194271,0.11865308974965479,1,False
6,0.2,0.3400000000000002,0.016432322989214723,-0.08304418409694282,0.7282321599822156,-0.07964287246066858,0.049680034403160496,-1.3196341577953303,0.4690120247937691,0.1932442190607174,1.3415036492269972,1.1748931957649011,0.4690120247937691,0.7903832197189331,0.10619625995520023,0.11541028597765203,0,False
7,0.23333333333333334,0.3600000000000002,0.018701407701085387,-0.08447095066650025,0.7273581826419062,-0.07232541502238851,0.049173698971727076,-1.3230499740298158,0.46701191313521856,0.1872112423935551,1.2513846387815843,1.1474650734750131,0.46701191313521856,0.7903445959091187,0.10842743709955208,0.10601825725929301,1,False
8,0.26666666666666666,0.3800000000000002,0.021549950372225735,-0.08517971678278909,0.7258675029854061,-0.06015424746699,0.05058900056778487,-1.3359780064510018,0.46182505811723096,0.1851456687932305,1.1441839803044573,1.3570611277278293,0.46182505811723096,0.7903019785881042,0.11036409792087244,0.0957616410527856,0,False
9,0.3,0.40000000000000024,0.024982619681284082,-0.0850834765826985,0.7233588321440575,-0.05028180047078098,0.04684458208677457,-1.3472407523473988,0.44909589822532453,0.20568624416765136,1.0303761657080215,1.5154336484747508,0.44909589822532453,0.7902359962463379,0.11206476032154838,0.08044447187428258,1,False
10,0.3333333333333333,0.42000000000000026,0.028436248982772614,-0.08695407141484779,0.7210091545096159,-0.0405972402176262,0.050980053523668765,-1.3622135665910144,0.4818010924668451,0.2185561007974662,0.9096357138331237,1.5513818558782873,0.4818010924668451,0.7901601791381836,0.11520338542216102,0.07444730792220035,1,False
11,0.36666666666666664,0.4400000000000003,0.03170387519131526,-0.0893256080344426,0.7182399548517061,-0.031747374222194674,0.05041472337318992,-1.3794679283255844,0.5029767983567076,0.22454680853794223,0.8158153632384233,1.4784733321605936,0.5029767983567076,0.790064811706543,0.11897834038231045,0.06452041769573984,1,False
12,0.4,0.4600000000000003,0.03470756048356143,-0.09226355274819122,0.7148641237346729,-0.02114062424250656,0.049023545649051176,-1.396259438532477,0.516550605002863,0.22171292151051503,0.7863503134357208,1.4763079714022396,0.516550605002863,0.7899466156959534,0.12362139082241766,0.05761900920286547,1,False
13,0.43333333333333335,0.4800000000000003,0.03767710071761933,-0.09572280490809217,0.7105769631169303,-0.012404006833383515,0.0527563706100063,-1.414530080743648,0.535511585574165,0.21492304717819513,0.7485222655261126,1.3670646403174223,0.535511585574165,0.7898169755935669,0.12910307043572933,0.05792547211240837,0,False
14,0.4666666666666667,0.5000000000000003,0.0402038420986871,-0.10007242468962786,0.7062872434408694,-0.0030364170375690534,0.05878984663216083,-1.430435061298364,0.5532465277403031,0.21434777556752216,0.7632846152696844,1.3070693440013748,0.5532465277403031,0.7896574139595032,0.13531642664784854,0.06521578054486846,0,False
15,0.5,0.5200000000000004,0.042272580034007884,-0.10435812181983437,0.7019220618729964,0.010606547592569652,0.06061837025693695,-1.4425254382452497,0.5560947620928094,0.20328271387614,0.8316256810660436,1.2125132960463478,0.5560947620928094,0.7894909977912903,0.1416588903855324,0.07236452279236985,0,False
16,0.5333333333333333,0.5400000000000004,0.04454387355046828,-0.1086823394362147,0.6980823012451708,0.021240642708685534,0.05939646449735379,-1.449774273297805,0.5597080095144717,0.19163530945125865,0.9037246467307982,1.1608705192649642,0.5597080095144717,0.7893109917640686,0.1477015808245925,0.07749073696002706,1,False
17,0.5666666666666667,0.5600000000000004,0.04696261141146851,-0.11395542768734897,0.6956712913002668,0.03313905362718184,0.06410597034829564,-1.454259555355621,0.5617279112159304,0.1873395328605144,0.9247659485087971,1.0479412415187552,0.5617279112159304,0.7891281843185425,0.15369366847391636,0.0834339524419832,1,False
18,0.6,0.5800000000000004,0.04928398025549434,-0.11914727347419038,0.6940253471710945,0.04737320408376272,0.06930925761432422,-1.4571193017843975,0.5606252190215324,0.19249447583665866,0.8962104200749678,1.0040056991138049,0.5606252190215324,0.7889440059661865,0.1591568432979865,0.09160297959753538,1,False
19,0.6333333333333333,0.6000000000000004,0.05141372994854226,-0.12392346431628135,0.6927191437349143,0.06253961917254658,0.07758953041684528,-1.4596912429471378,0.5506540608925764,0.187777437185055,0.877264919991781,0.8700492514791024,0.5506540608925764,0.7887724041938782,0.16413511699759734,0.10380503071415682,1,False
20,0.6666666666666666,0.6200000000000004,0.05360771279130125,-0.12877377848901583,0.6913555076415954,0.07724759569819145,0.09341503216866698,-1.4591854384972058,0.5305814055200708,0.1812170193770181,0.7806695793256755,0.6934596099112663,0.5305814055200708,0.7886090278625488,0.16881448602145357,0.11890599181458578,4,False
21,0.7,0.6400000000000005,0.05610133826153998,-0.13574349108148334,0.6892244372742594,0.09950300108703058,0.12802681723899387,-1.4515547959680999,0.5133038967425487,0.1802203349731574,0.669431280301543,0.7802325586238582,0.5133038967425487,0.7884619832038879,0.17548534928405152,0.15192838894403188,4,False
22,0.7333333333333333,0.6600000000000005,0.059208888618605626,-0.142537672918922,0.6856180347150722,0.11633031075077845,0.15135102084325266,-1.4466139636108928,0.5049880232732489,0.17235112253961932,0.7209239224421208,0.7824812466288634,0.5049880232732489,0.7883409857749939,0.18349218899247055,0.18337684606374305,4,False
23,0.7666666666666667,0.6800000000000005,0.0630201472686034,-0.1472703114215571,0.6811292893361492,0.11573622151882716,0.16349097750423108,-1.446458410090711,0.4934189021951999,0.16490107573771898,0.7387217783262336,0.8095683580533636,0.4934189021951999,0.7882329821586609,0.19083023954058556,0.1957314431432764,1,False
24,0.8,0.7000000000000005,0.06695798300564544,-0.1507255692167692,0.6766079248961165,0.10437147711962905,0.17959921672180898,-1.44472981454215,0.49078041725633453,0.15415074351531236,0.7417769899504021,0.7620762695971407,0.49078041725633453,0.7881687879562378,0.1969679306717002,0.20149331663932576,1,False
25,0.8333333333333334,0.7200000000000005,0.07072708799584006,-0.1535928250648087,0.6721103268119866,0.09013311169734814,0.2015837790529154,-1.4396838520294037,0.4845895022240014,0.15706165223322774,0.7459815181892184,0.8533910677343353,0.4845895022240014,0.7881163954734802,0.2026055963476973,0.2134535469594587,1,False
26,0.8666666666666667,0.7400000000000005,0.07416652187181726,-0.155696527353457,0.666973941635172,0.0717273035199453,0.2245441500653729,-1.432641451775858,0.4824365014660087,0.15636066360708914,0.7357112811492097,0.9272110463017283,0.4824365014660087,0.7880876064300537,0.20783571172560333,0.22796370860160473,1,False
27,0.9,0.7600000000000006,0.07709838145609538,-0.15689215373173876,0.6606224212913905,0.050756609471209066,0.24899587646525054,-1.4235683371956387,0.4806647233271894,0.15475981701653033,0.6791645835447109,0.969555410003831,0.4806647233271894,0.788072407245636,0.21295473602889853,0.24694261089936015,1,False
28,0.9333333333333333,0.7800000000000006,0.07947744749461111,-0.15721471946437868,0.6530381755673978,0.026697745259148777,0.2733654925514778,-1.4138688991986408,0.4847142878171447,0.15986813960230417,0.668260572083303,1.0026882034151063,0.4847142878171447,0.7880640029907227,0.21806651690946782,0.26714323478333873,0,False
29,0.9666666666666667,0.8000000000000006,0.08094087654332825,-0.1561193531247762,0.643982828232582,0.0018164207859246015,0.29150087769017324,-1.404012986715663,0.4997873601076077,0.16347772836039012,0.7027400974593072,0.9752409859044795,0.4997873601076077,0.7880405783653259,0.22297892348363033,0.28709320458699206,0,False
