frame,video_time_s,sim_time_s,root_x,root_y,root_z,root_roll,root_pitch,root_yaw,joint_target_abs_mean,joint_error_abs_mean,joint_error_abs_max,joint_velocity_abs_mean,ctrl_abs_mean,root_target_z,root_position_error_m,root_orientation_error_rad,contact_count,fall_proxy
0,0.0,0.2200000000000001,0.0232693984691244,0.010687594642543428,0.735852498081913,0.052872638827471646,0.05950623062491442,0.07942424179646752,0.23700161707674552,0.04060252062780154,0.16222984646404315,0.1500807253313311,0.23700161707674552,0.7955343723297119,0.0642456399488336,0.02891785148521627,3,False
1,0.03333333333333333,0.24000000000000013,0.027830226022925442,0.012547763858598607,0.7349211056700127,0.061223215062150796,0.06027353381131416,0.07863105294866811,0.3591801627507658,0.1639881523715524,0.7455184261154201,0.723181478916481,0.3591801627507658,0.7955560088157654,0.06744508549830901,0.03422348040560205,2,False
2,0.06666666666666667,0.2600000000000001,0.03326148810430914,0.016168300287577608,0.7340939939825014,0.07328830271861464,0.059920670569885086,0.08669833449029518,0.43975890708329557,0.25176356887997253,0.8297104823583049,1.095380938087108,0.43975890708329557,0.7955620288848877,0.07158672657297385,0.04703556297521022,3,False
3,0.1,0.28000000000000014,0.03845591416847213,0.020926324483473542,0.7323425779150022,0.08446113562955201,0.06369365427984677,0.09500200627019491,0.5017065149689337,0.3014028889052759,1.017161027300595,1.260279881294592,0.5017065149689337,0.7955504059791565,0.07717816357885482,0.06040368094163501,2,False
4,0.13333333333333333,0.30000000000000016,0.04257354613477313,0.025558932698075017,0.729438277831328,0.09257696003494109,0.07100610565954539,0.10267790225356853,0.5396539183733242,0.31447429903371765,0.9828180527697825,1.438714853162088,0.5396539183733242,0.7955300211906433,0.08367466131150979,0.07284026624684029,2,False
5,0.16666666666666666,0.3200000000000002,0.04569345008702791,0.029973390559911377,0.7259155265391998,0.09422269068688102,0.07604671893759347,0.11338962587466497,0.5566071464377934,0.3042047736905403,0.992264407160174,1.471303654794135,0.5566071464377934,0.7954514026641846,0.09032564837562423,0.08253342084348309,1,False
6,0.2,0.3400000000000002,0.048443497272376616,0.03224190231009935,0.7213806187897317,0.0924866853536625,0.07909441555608579,0.12388997909266487,0.5871370081018832,0.3102270665258447,1.0645737356722949,1.5325794774470138,0.5871370081018832,0.795348584651947,0.09689460214811983,0.09022079291189539,1,False
7,0.23333333333333334,0.3600000000000002,0.05112204026313795,0.032424379192674636,0.7163990214776464,0.08842623871865367,0.08001778462445636,0.13332554671261507,0.6135532156332654,0.3103238573103506,0.9421921244131957,1.641789042271671,0.6135532156332654,0.7951974272727966,0.10296906344025188,0.09637087812924573,2,False
8,0.26666666666666666,0.3800000000000002,0.05376957088413979,0.030682503023774146,0.7114568877163888,0.08294522986216042,0.07957432066516425,0.14316486133162123,0.6285815388171309,0.29547308956727536,0.7709269574598895,1.6639684917990447,0.6285815388171309,0.7949985861778259,0.10829065033985893,0.10269216852864124,3,False
9,0.3,0.40000000000000024,0.05624529423247793,0.02723425318932665,0.7063542429993451,0.07797528982303918,0.07705209191513851,0.14903761489993333,0.6379670175795779,0.2762600854741575,0.6481724365217509,1.6235884351974372,0.6379670175795779,0.7947760224342346,0.11291136417105757,0.10734451865699601,3,False
10,0.3333333333333333,0.42000000000000026,0.058637509189294126,0.02253303482737295,0.7012502219154564,0.07459570555308453,0.07376956677251686,0.1501382041012611,0.6409082561937995,0.25345346178604156,0.5975993184351334,1.6344737830513791,0.6409082561937995,0.7944598197937012,0.11709861728036187,0.11022795474665785,2,False
11,0.36666666666666664,0.4400000000000003,0.06054755782481565,0.016698875715164808,0.6960969718471582,0.0741067636871594,0.07000246274945218,0.14627258877563987,0.6350545567209221,0.22569564313469362,0.5502897442324407,1.542170611267499,0.6350545567209221,0.7941030263900757,0.12096336663009219,0.11042993988966257,1,False
12,0.4,0.4600000000000003,0.06207540198070166,0.010670662736176513,0.6912533080310674,0.0754318680115987,0.06532936936893766,0.1378916649736669,0.6107902653346082,0.2182122171866105,0.5057580949922628,1.5399249053413389,0.6107902653346082,0.7936649918556213,0.124525365015922,0.10739481795681471,2,False
13,0.43333333333333335,0.4800000000000003,0.06335772741252627,0.0050841459371442944,0.6869805372113479,0.07675739445711736,0.05945161036071376,0.12560363539936228,0.6010633749212106,0.22104419397588582,0.46342931151854905,1.4006311732390304,0.6010633749212106,0.7931522130966187,0.12777106472413874,0.10184880562745821,1,False
14,0.4666666666666667,0.5000000000000003,0.06455292056633749,-3.9740687253133873e-05,0.6834140978300769,0.07808716308448596,0.052434216050656055,0.11173621170578363,0.592473073377327,0.2128596016449658,0.6261328449058496,1.256762233869229,0.592473073377327,0.792602002620697,0.13067444075572912,0.09504715025687767,1,False
15,0.5,0.5200000000000004,0.06561676099452178,-0.004823200742233896,0.68060307689556,0.07987219456632243,0.04340569501677658,0.09767239773445023,0.5907427702031522,0.19923228936416412,0.7354495162207207,1.23144552429723,0.5907427702031522,0.7919504046440125,0.1331572185915112,0.08846472725152241,2,False
16,0.5333333333333333,0.5400000000000004,0.06646700492900662,-0.009049542809304648,0.6780854143170125,0.08067376395413811,0.03454406815705478,0.0843687270898086,0.5926513824124021,0.1876134717960291,0.8096413179980531,1.1754665119880392,0.5926513824124021,0.7912523746490479,0.13531087827619437,0.08426093688048993,3,False
17,0.5666666666666667,0.5600000000000004,0.06710258487548833,-0.013119824402310765,0.676418429920734,0.08539178576762387,0.02373048765383519,0.07033412883148038,0.599451301036485,0.1744407501923884,0.8390238460764607,1.0420878000940577,0.599451301036485,0.7904615998268127,0.1369324507722912,0.08630237716143828,2,False
18,0.6,0.5800000000000004,0.06770594568837858,-0.016740837050351128,0.6757686871650471,0.09204116328186886,0.014727945213825352,0.05668268650750545,0.6027450966996466,0.1701628689586169,0.8305286437276529,1.0072395252887092,0.6027450966996466,0.7896196246147156,0.13786898288731989,0.0934192540856396,4,False
19,0.6333333333333333,0.6000000000000004,0.06788287640862277,-0.019136188644508778,0.6756172358827666,0.09787620123884723,0.010440697561083961,0.04474194409459448,0.6026137760856298,0.15820438113156718,0.8066583456910044,0.8620873737133933,0.6026137760856298,0.788752019405365,0.13820115298477623,0.10233382063353313,9,False
20,0.6666666666666666,0.6200000000000004,0.06709958602708838,-0.020471368360816523,0.6755015209622659,0.10449102245231483,0.010794310022250378,0.03484757880768744,0.6188148439352332,0.15853211629158007,0.7505647627025522,0.9588973014229936,0.6188148439352332,0.7879288196563721,0.13832053190559573,0.11078056793605613,7,False
21,0.7,0.6400000000000005,0.06608604832360335,-0.019715568973986408,0.6748445269603279,0.10344467614102126,0.02461284537684927,0.02710193295779279,0.6540233191279938,0.18458709707260154,0.7082657074833558,0.9907826935950075,0.6540233191279938,0.7871783971786499,0.13864276066352862,0.11258744628872941,7,False
22,0.7333333333333333,0.6600000000000005,0.06455327185941664,-0.01755766050553147,0.6737045477478972,0.09910307002569053,0.037125521393846714,0.015787084007558076,0.6847497644110715,0.20615136255486605,0.8715718846971053,0.966320084342775,0.6847497644110715,0.786573588848114,0.139755960066183,0.11241884445581597,10,False
23,0.7666666666666667,0.6800000000000005,0.06143887827005085,-0.014062086278997282,0.6721702618549689,0.09217367494638493,0.040223318925064096,0.004722710910849745,0.7091629047873278,0.22385221985736278,1.076990904075862,0.76058246097245,0.7091629047873278,0.7869887948036194,0.14137203493013342,0.11288091434826965,10,False
24,0.8,0.7000000000000005,0.057503102134405217,-0.008708929882526006,0.6709498465874605,0.095544289438318,0.04559692679032142,-0.00023345026746641938,0.7319202554410917,0.24178262872918774,1.2400579352046084,0.7766050345993564,0.7319202554410917,0.787913978099823,0.14328182091448188,0.12058948100938652,9,False
25,0.8333333333333334,0.7200000000000005,0.0522611544829794,-0.0021645326851470895,0.6699065575628765,0.10884678953351047,0.05333770777110737,0.003351255970415246,0.7505314242737204,0.25279864660848933,1.4352479036460761,0.8470337151217922,0.7505314242737204,0.787676990032196,0.14401455696219298,0.13368424132047627,8,False
26,0.8666666666666667,0.7400000000000005,0.04584151086268722,0.005090753361478505,0.6685037144712305,0.12778868348090214,0.06194102555484148,0.009150268973634341,0.7590379881380536,0.24784031644126564,1.4517426525205532,0.9188104141383558,0.7590379881380536,0.7873613834381104,0.14487989607515828,0.15205270451483385,6,False
27,0.9,0.7600000000000006,0.03859993149592028,0.013061605070777303,0.666531455477423,0.1439843873888352,0.06984821592260722,0.014293531279049304,0.7624574137557816,0.2386356770860788,1.338563983279424,0.8615780038921508,0.7624574137557816,0.786888599395752,0.14648396769222083,0.1698239926384437,5,False
28,0.9333333333333333,0.7800000000000006,0.030778584798246612,0.021629413289052518,0.6641924170922873,0.15862295156126993,0.0765448905465352,0.017480603181164373,0.761640175183767,0.22715017814492236,1.2404077810504113,0.8344580460087423,0.761640175183767,0.7863630056381226,0.14895234013946423,0.18703678113158576,7,False
29,0.9666666666666667,0.8000000000000006,0.02253417367037182,0.030914451974799632,0.6608366612846801,0.16914982584008886,0.08136286576653202,0.02090878991810403,0.7607131407633597,0.21668897426973047,1.141737710230785,0.7992220935316715,0.7607131407633597,0.7858110070228577,0.1529568936493071,0.19951828651037545,6,False
30,1.0,0.8200000000000006,0.013995925470185498,0.04041654737429148,0.6555942193766601,0.1698477044500329,0.08629518212353643,0.028044485046217326,0.7611420347383786,0.20340000753942505,1.0366359838745607,0.8960011474290754,0.7611420347383786,0.7851083874702454,0.15877955756018253,0.20455390814601468,5,False
31,1.0333333333333334,0.8400000000000006,0.0057019177797027224,0.04896836610406771,0.6476151934081771,0.16481878677126227,0.08846598183430693,0.032750823130869806,0.756415377922717,0.1868032750676922,0.9248422390205581,0.8346487577994272,0.756415377922717,0.7844228148460388,0.16709585596672558,0.20177976241985082,4,False
32,1.0666666666666667,0.8600000000000007,-0.0019269391123406673,0.055812189947670114,0.6369933504523427,0.1566886198143672,0.08959528950551597,0.03646650582504871,0.7498395907595207,0.17473679809836093,0.8171993693751085,0.7918379355654256,0.7498395907595207,0.7837712168693542,0.1773981688333287,0.1958069318460363,5,False
33,1.1,0.8800000000000007,-0.008777093240492424,0.06057939758189655,0.6240865718883374,0.14768324238735414,0.08781158757677941,0.037119035283160455,0.7464852415346926,0.1698641548548249,0.7266079669927377,0.7243929244139973,0.7464852415346926,0.7833368182182312,0.18909146183135414,0.18776346615791023,4,False
34,1.1333333333333333,0.9000000000000007,-0.01486796646277093,0.06305542717372394,0.6092925610272619,0.13676731661891564,0.08647330748552798,0.03940487215558289,0.7420264057085388,0.1660246133349674,0.6856458117409319,0.6443552327818649,0.7420264057085388,0.7830110192298889,0.20176459542150482,0.1775385432148907,4,False
35,1.1666666666666667,0.9200000000000007,-0.019385694094182875,0.06359592273905366,0.5928026496184842,0.1258836908982123,0.08797326501974446,0.03951565177526308,0.7330516849592045,0.16731888939661083,0.6533834922426482,0.656975921423714,0.7330516849592045,0.7832581996917725,0.2157100584781826,0.1693540643752273,4,False
36,1.2,0.9400000000000007,-0.022946141185466278,0.06227732752974913,0.5753296086675966,0.11382965872533121,0.08824353917585326,0.03923444015259095,0.7180169760173212,0.17145345289427785,0.6320659902024895,0.6276713496015032,0.7180169760173212,0.7843021750450134,0.23106333608385468,0.16001958998563773,4,False
37,1.2333333333333334,0.9600000000000007,-0.025527425815839683,0.05947222112751149,0.5574881592179789,0.10217430708210927,0.085438003999506,0.036089058725208976,0.6994280132092736,0.1777988962062112,0.7565011574919269,0.6819787813127884,0.6994280132092736,0.786939799785614,0.24810843491544007,0.15104721492239187,5,False
38,1.2666666666666666,0.9800000000000008,-0.02756924653528231,0.05520877734197861,0.5398967222587229,0.0889506449721305,0.07963480396580686,0.03189486465684453,0.6550241347665042,0.20222022509546927,0.8893598276072141,0.8536366145216476,0.6550241347665042,0.7885141968727112,0.26410037428966887,0.1393904718784482,5,False
39,1.3,1.0000000000000007,-0.029335281219426256,0.04942895287666891,0.5234198545377288,0.07297324931413694,0.06845614902788569,0.028652259913893093,0.6161819697381588,0.23052266239185026,1.397547099784771,1.0550423556644575,0.6161819697381588,0.7895569801330566,0.2787667504005416,0.12414911629521354,5,False
40,1.3333333333333333,1.0200000000000002,-0.029167713805303905,0.041398038993513936,0.5079752163811093,0.060669805242907215,0.05610488720294403,0.03124088545492359,0.6076372193528269,0.24983101890516465,1.8599743913904128,1.1618633373421796,0.6076372193528269,0.7899416089057922,0.29173291038178917,0.10689815659689163,5,False
41,1.3666666666666667,1.0399999999999998,-0.028989652124036078,0.03246980028037543,0.49457666570377984,0.044304018237787686,0.04257003583019101,0.03760860051684781,0.5962367102637472,0.2750702307051633,2.0374024141155975,1.3590632420716886,0.5962367102637472,0.7902432084083557,0.3031428376874942,0.08709193907108273,5,False
42,1.4,1.0599999999999994,-0.028143790429627658,0.02302822187993009,0.4833973401430234,0.0229473352897084,0.028650150116682347,0.04723930017490863,0.5862436142992643,0.2996419297704871,1.8553266462946603,1.5011841591520754,0.5862436142992643,0.7903788089752197,0.3127917441681629,0.06331394101113041,5,False
43,1.4333333333333333,1.079999999999999,-0.026613729638372854,0.012632685840570708,0.47541704569036397,0.0015013566786630445,0.008892085613427423,0.05707680679454341,0.6128470617502718,0.335788298338141,1.7578867965322151,1.7099578582708768,0.6128470617502718,0.7904295921325684,0.3196480934559472,0.03955540344060827,3,False
44,1.4666666666666666,1.0999999999999985,-0.022296957714735104,0.0028008249770097382,0.46961236624193375,-0.022557485553890606,-0.012083568743366033,0.06521228976261863,0.6216136090306881,0.36453604160041886,2.1734272781834183,1.8729730343542956,0.6216136090306881,0.7904379963874817,0.32493688767910733,0.035920752079011485,5,False
45,1.5,1.119999999999998,-0.016548941068855683,-0.003837193522339232,0.46544444830872733,-0.04386190381578399,-0.02895353517531296,0.09878158658004792,0.6280102846553298,0.3715543136688243,2.0050994119537453,2.12331696444317,0.6280102846553298,0.7904661893844604,0.32948965534689173,0.04854598813157858,2,False
46,1.5333333333333334,1.1399999999999977,-0.013113216313723938,-0.004731012055901672,0.46472109839290343,-0.0698604469308069,-0.05341137187417159,0.12881324981673872,0.6287228510078082,0.37518192551841006,1.940278329992021,1.7811989398144135,0.6287228510078082,0.7905266284942627,0.3321780007973325,0.08864604815177532,2,False
47,1.5666666666666667,1.1599999999999973,-0.010353071718114297,-0.004587780707321497,0.4688269636414385,-0.10079253875927234,-0.08300903648881837,0.14164245077082438,0.6291250583317225,0.3798945296470304,1.9006298095367544,1.7573553744317891,0.6291250583317225,0.7906513810157776,0.330086474929884,0.13238148642481207,1,False
48,1.6,1.1799999999999968,-0.008164935666872042,-0.003682190747997702,0.4754759960942019,-0.13389607172923912,-0.11109370583897046,0.16204739515627112,0.6261507199211505,0.3729177718325254,1.857604087743097,1.5495976326830923,0.6261507199211505,0.7907301783561707,0.3250347788259068,0.1774638983063676,3,False
49,1.6333333333333333,1.1999999999999964,-0.006427591457047729,-0.001670061310086783,0.4840247890435869,-0.1661038555089891,-0.14025907487508626,0.1794225660660818,0.6169657491196788,0.3631561092747861,1.8170605087743097,1.5998075962623242,0.6169657491196788,0.7907860279083252,0.3180668258382492,0.22211405268081527,3,False
50,1.6666666666666667,1.219999999999996,-0.004438778837968057,0.0007383552251460309,0.4936798303793527,-0.19590468190526403,-0.16774364380817897,0.19520394037040903,0.6110798775426198,0.35469814613339085,1.7699779300211804,1.626348949474127,0.6110798775426198,0.7907506227493286,0.30998092594656257,0.2627031613658025,2,False
51,1.7,1.2399999999999956,-0.0025732208238834326,0.0035313125945371426,0.503841378545602,-0.2223564284844024,-0.1922881604643994,0.2132458105358245,0.6129519148346588,0.3436058037088485,1.7220145458380987,1.5565420963255305,0.6129519148346588,0.7906888127326965,0.3014162611480524,0.3000284448894478,1,False
52,1.7333333333333334,1.2599999999999951,-0.0008956677808273242,0.00613205464091333,0.5141992348688164,-0.2439243072880838,-0.2154525051646896,0.2262064454815746,0.6077750459239055,0.32311483236257577,1.6710802160688976,1.6035917674717495,0.6077750459239055,0.7905741930007935,0.29267169537010423,0.3320596708325635,0,False
53,1.7666666666666666,1.2799999999999947,-0.0005662331656050716,0.008830866752229494,0.5237374221629941,-0.2644294488368865,-0.24143386520455903,0.24154099058893716,0.6008873272040836,0.3034209407790812,1.6164015079045817,1.511410734899374,0.6008873272040836,0.7897160053253174,0.28359671998417557,0.36260004640037163,0,False
54,1.8,1.2999999999999943,-0.001406226878220051,0.011067668614991637,0.5323276850971271,-0.28041039771090887,-0.2649500059929519,0.2564499177882661,0.5853022542121543,0.2743400203376151,1.563042393485314,1.2854087835660617,0.5853022542121543,0.7884860038757324,0.2748208646309521,0.3895169695941392,2,False
55,1.8333333333333333,1.3199999999999938,-0.003014542523917878,0.012709265744408577,0.540544198203373,-0.2926800226906326,-0.2841695367814887,0.26816831392879614,0.5716757880481315,0.2555308986659158,1.5149927889318495,1.1473399982653185,0.5716757880481315,0.7891945838928223,0.2680680082256391,0.41098813725270783,5,False
56,1.8666666666666667,1.3399999999999934,-0.005238431657057596,0.013798404907814242,0.5488521278151529,-0.30234136442829335,-0.3009633117165472,0.279381831759951,0.5549041279430128,0.2582927459000389,1.4698641642741888,1.103449560093725,0.5549041279430128,0.7899119853973389,0.26110601124201166,0.43017602666457216,2,False
57,1.9,1.359999999999993,-0.008329516812376772,0.013960121033919633,0.5570528152191534,-0.30597721527999705,-0.3160911170288105,0.2883040919492758,0.5407515674740953,0.26534481870726895,1.4251378956463547,1.0819073770214414,0.5407515674740953,0.7906469702720642,0.2538640947846912,0.4441235385576362,5,False
58,1.9333333333333333,1.3799999999999926,-0.01231572983033888,0.01344752741801464,0.5651697787912422,-0.30549167687460976,-0.32874653826198424,0.2964608149034597,0.5209149475572366,0.26261162983535485,1.386431910677237,1.0147529674145532,0.5209149475572366,0.7912843823432922,0.2463211355068048,0.45495171574368487,4,False
59,1.9666666666666666,1.3999999999999921,-0.01586653375599544,0.011590735947964855,0.5736980561704709,-0.2960107005978974,-0.3392893328049449,0.29952448691909067,0.5139490473558349,0.2636501082816988,1.3505285842258479,0.8641935057495688,0.5139490473558349,0.7918729782104492,0.23840060529697707,0.45889534151632033,4,False
60,2.0,1.4199999999999917,-0.019106031026169975,0.009172735625905207,0.5825619287205882,-0.2819838821347833,-0.34910579057322116,0.3018592042087774,0.5061965312852038,0.2677466474577611,1.226242154268691,0.8435318735517785,0.5061965312852038,0.7923398017883301,0.2302683976214706,0.45915053567029657,4,False
61,2.033333333333333,1.4399999999999913,-0.021594136901147174,0.00577452266399456,0.5910275903201226,-0.26259493315980037,-0.3535125607917488,0.2997167130757466,0.507062062467181,0.25486423027612387,0.9887855082549951,0.8192318467956592,0.507062062467181,0.7927533984184265,0.22264995667680376,0.4533040438575133,4,False
62,2.066666666666667,1.4599999999999909,-0.023765821002580283,0.002286883510284072,0.5990647449814323,-0.24148146447810162,-0.35411457565161364,0.290289785690253,0.5148413021477228,0.2414101031447928,0.8716939575937712,0.847593672242189,0.5148413021477228,0.7930606007575989,0.21567195585591628,0.4436984884444639,4,False
63,2.1,1.4799999999999904,-0.02527668983046669,-0.001969875111039847,0.6067136788899467,-0.2158562111647333,-0.35421785620596546,0.2810907763436964,0.5366390980663223,0.23866133149652957,0.7748793548609276,0.9316848711175648,0.5366390980663223,0.7932137846946716,0.20958798598681339,0.43152294222828835,3,False
64,2.1333333333333333,1.49999999999999,-0.026009163933849205,-0.008017077598303956,0.6138227032505926,-0.18480887544825325,-0.354055926293319,0.27604812729771455,0.5564761104392635,0.23472212144163118,0.8234436069858249,0.8092368651730388,0.5564761104392635,0.7932900190353394,0.20487455852229117,0.4191303179335125,6,False
65,2.1666666666666665,1.5199999999999896,-0.02598991841386392,-0.01426562430207785,0.6210817719939328,-0.15310989269881986,-0.34253932342445514,0.2607868733568441,0.570636880125072,0.22875400588441572,0.9789369280068437,0.7716415457053369,0.570636880125072,0.7928165793418884,0.2007389711017533,0.3988861442611056,3,False
66,2.2,1.5399999999999892,-0.0263329726445951,-0.019607633896534797,0.628059094697437,-0.12540215101668364,-0.3274794782504577,0.24140991863478667,0.5781751906339384,0.2320441930242651,1.1484232930046885,0.9452324042808177,0.5781751906339384,0.7919204235076904,0.197029844744658,0.374032703154522,2,False
67,2.2333333333333334,1.5599999999999887,-0.027438573136351768,-0.024043259273572207,0.6342615830025176,-0.0985816949289496,-0.30860669911124355,0.21951228943452272,0.5847830376989254,0.252336177342965,1.3104918900894393,1.1546130707588376,0.5847830376989254,0.7901785969734192,0.1935751729853342,0.34832232659316786,3,False
68,2.2666666666666666,1.5799999999999883,-0.02862557667626566,-0.02832535721922465,0.6394690363403425,-0.07524371981636538,-0.28340161034781186,0.19513813004697814,0.5769165810908833,0.26733033376753806,1.2534391443158732,1.072093523339342,0.5769165810908833,0.7891544103622437,0.19191761288013515,0.3191080229615963,2,False
69,2.3,1.5999999999999879,-0.030611727416475044,-0.03022077857159922,0.6438226609692086,-0.05092862881773134,-0.25483047696566197,0.1725361836931811,0.569123961027898,0.2780942065451518,1.196553887463151,1.118712032982704,0.569123961027898,0.7884889841079712,0.19097771193539112,0.28765497097220827,2,False
70,2.3333333333333335,1.6199999999999875,-0.034950402809038536,-0.029183086254782605,0.6461312666331103,-0.0287554176856037,-0.2214239621055499,0.1744834876244385,0.5719814460134096,0.28374973829262884,1.1629621757459416,1.1919266522416203,0.5719814460134096,0.7879778146743774,0.19004626745200653,0.25306167476305164,3,False
71,2.3666666666666667,1.639999999999987,-0.04095676123829587,-0.024823928469553724,0.6483032267110979,-0.01681756837805567,-0.19160289665329275,0.18187261560757823,0.5883112915893693,0.293403155629321,1.1487671368043029,1.2373872643508634,0.5883112915893693,0.7874867916107178,0.18753810520862516,0.22166678495403813,2,False
72,2.4,1.6599999999999866,-0.04832406356060456,-0.019085616730065185,0.649713855755794,-0.006911159887017334,-0.16589600974995375,0.18602704227409683,0.6031387568502948,0.29662585915960255,1.131560732817024,1.19889596432085,0.6031387568502948,0.7870361804962158,0.18416392190489547,0.1958740512332338,2,False
73,2.433333333333333,1.6799999999999862,-0.05574635053630862,-0.013184967710368551,0.651079118456976,0.0003109721527904949,-0.1445288777336568,0.18922779461815503,0.6091893363283327,0.29435969580104043,1.1785521187280963,1.1174329359547275,0.6091893363283327,0.7865803837776184,0.18070353265441752,0.17523637233035838,2,False
74,2.466666666666667,1.6999999999999857,-0.062451921394910216,-0.007424697284359854,0.6532104078108193,0.006328746784294592,-0.12570005736446685,0.1911510808173095,0.6310663406745719,0.2997446207426658,1.2724833386989833,1.0827311492254434,0.6310663406745719,0.7861220240592957,0.17723832634732864,0.15759596919051053,2,False
75,2.5,1.7199999999999853,-0.06845371289392985,-0.001808639108559754,0.6562407446366579,0.011820455488282146,-0.10805450095170344,0.19344582970302723,0.6420071823805548,0.3078485194460304,1.3276315370591552,1.0045075770562895,0.6420071823805548,0.7855610251426697,0.17344632118430808,0.1413347621804661,2,False
76,2.533333333333333,1.739999999999985,-0.07431236765023007,0.0036595470520195635,0.6597366506575353,0.016489367862793997,-0.09038709716069662,0.1968817136012846,0.6432306176531277,0.30489854416613804,1.3810154487879374,0.8614395988488445,0.6432306176531277,0.7849794030189514,0.16941089213720253,0.12668156376680614,2,False
