frame,video_time_s,sim_time_s,root_x,root_y,root_z,root_roll,root_pitch,root_yaw,joint_target_abs_mean,joint_error_abs_mean,joint_error_abs_max,joint_velocity_abs_mean,ctrl_abs_mean,root_target_z,root_position_error_m,root_orientation_error_rad,contact_count,fall_proxy
0,0.0,0.2200000000000001,0.00877210575490279,0.014333070641525485,0.7364095514401391,-0.004876504432382998,-0.07186209853878359,0.04907609454201003,0.17607018327350327,0.048815595677473775,0.23555931724446327,0.15041549196237247,0.17607018327350327,0.799267590045929,0.06463991579406439,0.035162144012671266,3,False
1,0.03333333333333333,0.24000000000000013,0.009932601581643493,0.016644196346465304,0.7348933072661377,-0.005294602621924556,-0.0561740534899374,0.02247837773336179,0.16860361481842787,0.06411559800838344,0.2702489010229463,0.35744957917331166,0.16860361481842787,0.7736662030220032,0.0427368714269919,0.29375040996251284,3,False
2,0.06666666666666667,0.2600000000000001,0.010548532123328621,0.01950434320597092,0.7329017033374976,0.004218309718370497,-0.03245631791177096,-0.07061544340482208,0.16508780180273622,0.08010102506882424,0.3901034536618987,0.6026251116199838,0.16508780180273622,0.7665624022483826,0.03949387464424622,0.8645648906554454,2,False
3,0.1,0.28000000000000014,0.010867280159974582,0.021541575270234283,0.7309296392030631,-0.0010875718203198726,-0.009582486774545757,-0.09629905274937241,0.1611980608053805,0.08426680662017251,0.37032330613851816,0.4657199923437204,0.1611980608053805,0.8179628252983093,0.0897386000514917,0.3166936902872447,3,False
4,0.13333333333333333,0.30000000000000016,0.009707800057635276,0.022197914484890408,0.728821027339287,-0.0029813692119767345,-0.01320593540587449,-0.08886927832064229,0.16566812922350482,0.07508480771991646,0.3147801367530994,0.3669382198965653,0.16566812922350482,0.7946969866752625,0.06970944461479218,0.11152368536032485,3,False
5,0.16666666666666666,0.3200000000000002,0.008535869385734493,0.022637671139515547,0.7269919042753091,-0.005304643324979331,-0.014133086915770235,-0.08031332330291951,0.1717231552347958,0.07828563199143607,0.3292655489626022,0.3373613954979361,0.1717231552347958,0.7856760025024414,0.06309938622350225,0.08074424956404064,3,False
6,0.2,0.3400000000000002,0.007842809688304989,0.023108370597089003,0.725733968578664,-0.010222209014781436,-0.0012093330763845989,-0.061991668738339764,0.1798406123382279,0.09403594079144341,0.40178853143928334,0.372083042984258,0.1798406123382279,0.7862216234207153,0.06495721461898753,0.20337522576952682,3,False
7,0.23333333333333334,0.3600000000000002,0.006534482705529244,0.0249440076394029,0.7237096968682246,-0.008913922756724585,0.005893361776559801,-0.14905236633784494,0.2065883645769086,0.12053206109847373,0.49377872962256136,0.7266142294616365,0.2065883645769086,0.7713003754615784,0.053441914940011374,0.8040737421514391,2,False
8,0.26666666666666666,0.3800000000000002,0.0042352558633278565,0.027058867537280998,0.7211478074994266,-0.014978632596116091,0.010965411937604487,-0.22873260914131044,0.2427594431961355,0.15401118753942405,0.6784569979782273,0.6943537992154737,0.2427594431961355,0.7713003754615784,0.05636144885035766,0.7252523677075203,2,False
9,0.3,0.40000000000000024,0.0010667992511872917,0.029199543079822365,0.7186103725609381,-0.021880520006150386,0.014233537243330752,-0.3041237060334525,0.27948115320813255,0.18539758340717066,0.7968608213587898,0.7836387343811783,0.27948115320813255,0.7708408236503601,0.05908348972775934,0.674342929883914,2,False
10,0.3333333333333333,0.42000000000000026,-0.002379831765701508,0.031459738267385046,0.7163590881451547,-0.027395628364874965,0.016172329137759872,-0.3760607526005487,0.30348736367621937,0.1988718555433819,0.7736053344986312,0.8367689644508863,0.30348736367621937,0.7705671787261963,0.061938979640135276,0.6278812193126059,2,False
11,0.36666666666666664,0.4400000000000003,-0.005395241748795865,0.03356262003853782,0.7139116040929703,-0.030999471007639688,0.018410974905783667,-0.43941441299982337,0.31867032464166567,0.2004464574749908,0.7152753737210547,0.9895023934810709,0.31867032464166567,0.7705671787261963,0.0651473685162593,0.5631377681123945,2,False
12,0.4,0.4600000000000003,-0.007803349444034344,0.03581030810839613,0.7109270800077807,-0.03523473716945003,0.021569314880809244,-0.49987808180540666,0.32916257742138944,0.19736405699300266,0.6841507418120596,0.9128367842264045,0.32916257742138944,0.770274817943573,0.0687897796051154,0.5281310558019808,4,False
13,0.43333333333333335,0.4800000000000003,-0.009691746831213176,0.03836155548926467,0.7086404119913365,-0.039044728328615316,0.025398881841637924,-0.5568960218798251,0.3316988501233681,0.18530735669568082,0.6730023781582675,0.8193360064843404,0.3316988501233681,0.7699729800224304,0.07216783358153149,0.496802446186038,3,False
14,0.4666666666666667,0.5000000000000003,-0.011095109709100555,0.04106520172556442,0.7072185165615912,-0.04242867991691028,0.029314790019233785,-0.6085984311689074,0.3314118768957258,0.1741807184323785,0.6680397129793727,0.8132722360810821,0.3314118768957258,0.7699729800224304,0.07518555485178907,0.44419078790031624,4,False
15,0.5,0.5200000000000004,-0.011932208481716973,0.043700707316393035,0.70629011473075,-0.04483284548957545,0.03324597940139504,-0.6586555086137302,0.3278461422460399,0.16744964495368858,0.660886099130261,0.82389690415299,0.3278461422460399,0.7694618105888367,0.07717137762761436,0.41750303253197113,3,False
16,0.5333333333333333,0.5400000000000004,-0.012229447640478664,0.04609657883343749,0.7056284181738356,-0.04658095986460458,0.037079142191453716,-0.7059427412647832,0.32265512710609023,0.157949624035201,0.6516796013771577,0.7965092358122008,0.32265512710609023,0.7688744068145752,0.0787719580689766,0.39231581420052597,3,False
17,0.5666666666666667,0.5600000000000004,-0.012015307663670656,0.04800690653877916,0.7052783325733585,-0.04812984790879952,0.03954008575856942,-0.7488296698484123,0.31460651034403236,0.14621615165186921,0.7070889395745683,0.7660241412721073,0.31460651034403236,0.7688744068145752,0.08029276559412275,0.34944207845472486,3,False
18,0.6,0.5800000000000004,-0.011149392658274103,0.04912231698405516,0.7050009693069464,-0.04949521714006207,0.03927596224904879,-0.7888842956983215,0.3101869303314743,0.13198527962298112,0.8208597408536613,0.7971806063942712,0.3101869303314743,0.768134593963623,0.0806044152144607,0.3304470506341386,3,False
19,0.6333333333333333,0.6000000000000004,-0.009087063471314162,0.04879589743565574,0.7044340421314341,-0.0534718275208777,0.051244002326543046,-0.8272075201855025,0.3092849828750109,0.12852507053652712,0.9262602754168208,0.6837779043311802,0.3092849828750109,0.7673659920692444,0.08030090370973794,0.3102334966845348,4,False
20,0.6666666666666666,0.6200000000000004,-0.008409184123505687,0.045004699366352256,0.7056779299444723,-0.056863724722689524,0.08103569952498335,-0.7594395522840991,0.2674363014916455,0.11774516767349097,0.8677999956234232,0.9237115238968429,0.2674363014916455,0.7734779715538025,0.08284275780111901,0.7410440692387502,4,False
21,0.7,0.6400000000000005,-0.007802631134893446,0.03848044549079392,0.7085774944050304,-0.04143589850146435,0.1065037755681935,-0.691091647210918,0.19089570397770644,0.18784059973181724,0.7343808801814811,1.2145595047965372,0.19089570397770644,0.782861590385437,0.08562250791768822,0.7272962499384017,5,False
22,0.7333333333333333,0.6600000000000005,-0.006645384333604505,0.03151526959070587,0.7130003821469084,-0.022514804120951356,0.118259307310471,-0.6316117835575713,0.2292984666472726,0.19256453012885302,0.8615744163254466,1.222351375951731,0.2292984666472726,0.785527229309082,0.0811809755770943,0.5833787672260835,4,False
23,0.7666666666666667,0.6800000000000005,-0.005363547605883464,0.025158303287866956,0.7179465617800267,-0.006012042935625762,0.1211091129620122,-0.5712110871247427,0.2576983896542743,0.18647886645051268,0.8954435959029072,1.1282779663221842,0.2576983896542743,0.785527229309082,0.07397298065646159,0.5232974450677251,2,False
24,0.8,0.7000000000000005,-0.004064639548553146,0.019908758150488266,0.7221326712249182,0.00970632790196462,0.11929682589657709,-0.5153166182582732,0.2853205920210281,0.17451801458766283,0.8999807926269974,1.0732951109038724,0.2853205920210281,0.7849310040473938,0.06732687643021561,0.46457361565611566,3,False
25,0.8333333333333334,0.7200000000000005,-0.002426893165553294,0.015509517467746396,0.7252024981114222,0.02486365235871009,0.11679400176902022,-0.46427951027219483,0.3096540770241783,0.15815250499768363,0.8710821824877055,1.0276111225667452,0.3096540770241783,0.7843490242958069,0.06210462257994947,0.4114606774625119,1,False
26,0.8666666666666667,0.7400000000000005,-0.0004195084709373054,0.011917830258425985,0.7265939353464328,0.03883469438765621,0.11389315052335425,-0.41769502057076485,0.33358308705575174,0.15111600188598817,0.8192776490614031,0.98921577038588,0.33358308705575174,0.7843490242958069,0.059335011643099025,0.3648108848051812,1,False
27,0.9,0.7600000000000006,0.0017871208106465483,0.008913304230011104,0.7259133702687971,0.053359944954917395,0.11058843524218692,-0.3754142053980163,0.35535725477405167,0.15295712264322922,0.7450280901478614,0.96814630906615,0.35535725477405167,0.7838960289955139,0.05842697813110915,0.3222698680808655,1,False
28,0.9333333333333333,0.7800000000000006,0.004091785599024753,0.006519192516195018,0.7230481159246416,0.06873410960043806,0.10764069484432146,-0.3374509422029728,0.3740963827349375,0.15662448789352526,0.6537476922250366,0.9576984497783272,0.3740963827349375,0.7834697961807251,0.060062648029687,0.28475993734419647,2,False
29,0.9666666666666667,0.8000000000000006,0.006455154440353002,0.004632883213783749,0.7182408981701504,0.08482895202974224,0.10609301234017447,-0.3031957224216238,0.3942486278712629,0.1621780321816408,0.5654374974718028,0.9256683889364159,0.3942486278712629,0.7834697961807251,0.06429834065435998,0.2534318408110045,0,False
30,1.0,0.8200000000000006,0.0087098938840688,0.0032668301414077927,0.7114947618114827,0.10088746486082349,0.10655112192420227,-0.2725879927198318,0.4094942642935274,0.1658736952405444,0.531436887693636,0.8968203053281607,0.4094942642935274,0.7830972075462341,0.07036280685775766,0.22652464287041096,1,False
31,1.0333333333333334,0.8400000000000006,0.01094728926590481,0.0023862555106649035,0.7038686180413503,0.11813717269933549,0.10971429791903707,-0.24556588428821705,0.41601487025988393,0.1649465326813406,0.624018534585922,0.8811686922313021,0.41601487025988393,0.7827097773551941,0.07764202764977043,0.20549662297191984,1,False
32,1.0666666666666667,0.8600000000000007,0.013201918734410352,0.0020047548131464006,0.696166931123686,0.13545258882323075,0.11580498032643988,-0.22076232552797004,0.4181254895565931,0.163054773063015,0.7002612669188647,0.8580053841094734,0.4181254895565931,0.7827097773551941,0.08559515636817117,0.1911952466192649,1,False
33,1.1,0.8800000000000007,0.015374983072908873,0.0019731806307462046,0.6887160726923605,0.1525520069274392,0.12355851085007678,-0.19771505560539301,0.4188572170317618,0.16471430932639552,0.7496224241323918,0.8442207969131322,0.4188572170317618,0.7823150157928467,0.09297867708938014,0.18097762627151678,1,False
34,1.1333333333333333,0.9000000000000007,0.016824985161820818,0.001302454454404383,0.6810303713718214,0.17690084367480355,0.13255274338858383,-0.17796804334372565,0.4234936113867579,0.16553478559688878,0.7879979607399802,0.6935673257538988,0.4234936113867579,0.7816286087036133,0.10002730345009264,0.18168216398449827,3,False
35,1.1666666666666667,0.9200000000000007,0.016162399886770255,-0.0007220941834881595,0.6733159549247816,0.20364062520216186,0.14101371683361422,-0.1595228654164208,0.42705885651249303,0.16966819128082677,0.8121350664701603,0.5576089811560039,0.42705885651249303,0.7816286087036133,0.10758558213759771,0.19468662084743737,2,False
36,1.2,0.9400000000000007,0.014882801382930652,-0.0028553356118283107,0.6651100144624157,0.22304430013722631,0.15023861219298576,-0.14278221169747782,0.42717478512920903,0.17122776609694562,0.8201357602401375,0.582952256823146,0.42717478512920903,0.7808011770248413,0.11474332787796397,0.20688063304720808,3,False
37,1.2333333333333334,0.9600000000000007,0.01378418351874483,-0.005290672732987004,0.6584037079317274,0.23768582749868886,0.14531264881111935,-0.11568223997277881,0.29666692265982364,0.12435011385329693,0.44629529810039986,0.61996515680922,0.29666692265982364,0.789027214050293,0.12997431289377276,0.3545765561633628,2,False
38,1.2666666666666666,0.9800000000000008,0.01234981586948458,-0.00742246991170205,0.6559838069457108,0.23531901631803456,0.13182623636581337,-0.1075196552607534,0.16816481028395272,0.23508712867936382,0.7687793665339975,1.560457206216818,0.16816481028395272,0.7947520017623901,0.13928963022491225,0.30107295044654964,2,False
39,1.3,1.0000000000000007,0.011702771356206175,-0.00869725203853536,0.6561673976567756,0.22044406632126914,0.14481535978395996,-0.14557318762246838,0.16693021235841898,0.2251235263446268,0.7001437841131949,1.504597935355894,0.16693021235841898,0.7734907865524292,0.11839317404958039,0.41128534446979736,2,False
40,1.3333333333333333,1.0200000000000002,0.010445050450970803,-0.010742293798916133,0.6580902400630868,0.20564068709438063,0.15104307027941682,-0.15651955440520757,0.17852870433877743,0.20417157378774925,0.6667472929288775,1.19407916561267,0.17852870433877743,0.7687820196151733,0.11222340866785788,0.22231005273079266,2,False
41,1.3666666666666667,1.0399999999999998,0.009641097198389643,-0.013149908938777655,0.6600512838646543,0.19184685910491936,0.1426347751047208,-0.1508508410162285,0.2071017413383793,0.19306792024598288,0.8278244455848486,0.9088577484290523,0.2071017413383793,0.7715858221054077,0.11317043244903838,0.27759794182041975,7,False
42,1.4,1.0599999999999994,0.009206565417712505,-0.015077027922900743,0.6624945881074632,0.17598429200290383,0.13352078891923827,-0.14964010535957395,0.24698590907996204,0.19770465144931845,1.0148441255932785,0.793904320874453,0.24698590907996204,0.7707449793815613,0.11031732259833628,0.26044135122159956,7,False
43,1.4333333333333333,1.079999999999999,0.008214183002006006,-0.016759911496920285,0.6652913327845039,0.15926822667597032,0.12871831408150633,-0.15119316859674625,0.2755943394124943,0.19880486986124274,1.127066807683516,0.6728413078057117,0.2755943394124943,0.7698630094528198,0.10691787920738821,0.24484048035905798,2,False
44,1.4666666666666666,1.0999999999999985,0.006533346297895404,-0.018146774073304107,0.6683425209253301,0.14359741259959385,0.12299513995318018,-0.15215381993435456,0.3038557298848822,0.19622190284168387,1.2037320461843937,0.7705441388208732,0.3038557298848822,0.7698630094528198,0.10407472456318735,0.22856366906786652,2,False
45,1.5,1.119999999999998,0.004516713092359638,-0.01927885449941253,0.670924660908139,0.1305719660722232,0.11609343505391878,-0.15260383260610966,0.3245452706881206,0.1881109715126239,1.1449090862767823,0.9645736306647102,0.3245452706881206,0.7688999772071838,0.10041649638466389,0.2150637123853699,1,False
46,1.5333333333333334,1.1399999999999977,0.0026411876325190273,-0.02014588090826046,0.671845169233467,0.12113211029749504,0.10813489705745283,-0.15435644871900264,0.3404896971502728,0.17758997195883353,1.04676822484139,0.8337084512207914,0.3404896971502728,0.7679005861282349,0.09828068733383377,0.20471658439999593,3,False
47,1.5666666666666667,1.1599999999999973,0.0007978993901791888,-0.020480271463004573,0.6717678421279495,0.11312537830052737,0.1007011872863768,-0.15727991413583503,0.35536293604921226,0.16747014688266343,0.9865207165681797,0.819968380855983,0.35536293604921226,0.7679005861282349,0.09822635993066038,0.19353267377144923,3,False
48,1.6,1.1799999999999968,-0.0008726792107057893,-0.020160949360802392,0.6709374394249467,0.1068412438375736,0.09415059254834396,-0.16103949643179508,0.37028200929399724,0.15766796510969386,0.9355981212037511,0.829034088646233,0.37028200929399724,0.7668284177780151,0.09777846777090306,0.18637501529109027,3,False
49,1.6333333333333333,1.1999999999999964,-0.002105487400567862,-0.01915577010283691,0.6694649794858807,0.10228207607263769,0.08859861189425562,-0.16475971719527943,0.3810116502890205,0.14803138898770915,0.8804705381950669,0.8145179513994534,0.3810116502890205,0.7656605839729309,0.09776046914023398,0.18161933444821504,2,False
50,1.6666666666666667,1.219999999999996,-0.00280311055289157,-0.01751549728229669,0.6673402044796112,0.09956079151389956,0.08375154985568778,-0.1675980858620951,0.38917923004769384,0.13950837616524556,0.8179862834737411,0.7720012024351142,0.38917923004769384,0.7656605839729309,0.09942584545215553,0.17618918230052247,2,False
51,1.7,1.2399999999999956,-0.002871724543160129,-0.015216473506243862,0.6649067989292986,0.09762735320224512,0.0799841184739026,-0.1706406230223901,0.3940071659862233,0.13276993279055668,0.7555549452590433,0.7108910603141654,0.3940071659862233,0.7644450068473816,0.10021517604588172,0.1753083238636635,2,False
52,1.7333333333333334,1.2599999999999951,-0.002490667018970512,-0.012410094305819491,0.6621776786424707,0.09545260095530753,0.07776002430420616,-0.17331410544373138,0.39841668017791165,0.12603974030536297,0.6971770960334184,0.6274743494998295,0.39841668017791165,0.7633488178253174,0.1013235264129848,0.17507915520013545,2,False
53,1.7666666666666666,1.2799999999999947,-0.0018864231245501292,-0.00930817229198781,0.659089230525597,0.09386730278827413,0.07692120152009219,-0.17597812145551311,0.4023763282425399,0.12238747054595608,0.6464398532612377,0.5806467721520848,0.4023763282425399,0.7633488178253174,0.10399549854360984,0.17246342113999436,2,False
54,1.8,1.2999999999999943,-0.0010351610524037456,-0.0060252747809256355,0.6560911457243506,0.09327557171498525,0.07751560868472095,-0.17883841419673932,0.4063666024014835,0.12252885080385865,0.6033711200074751,0.5620906849948468,0.4063666024014835,0.7627230286598206,0.10613576268400497,0.17429343460403374,2,False
55,1.8333333333333333,1.3199999999999938,9.33943986823816e-05,-0.0026094628012688537,0.6533968514599937,0.09302829420536317,0.07912038246790272,-0.18153340495335335,0.4118147057465478,0.12253972597434523,0.5690154738996507,0.5405752055717592,0.4118147057465478,0.7630379796028137,0.10905649035913627,0.17666823864397838,2,False
56,1.8666666666666667,1.3399999999999934,0.0014888929300202105,0.0008730109999453509,0.6510479752171672,0.09299361577079725,0.08138338670854028,-0.18366128012488547,0.4171529044042146,0.12202937095300771,0.5797765035010469,0.5210610178339815,0.4171529044042146,0.7630379796028137,0.11144039872482285,0.17709211067521394,2,False
57,1.9,1.359999999999993,0.0031333611021252196,0.00441798680631732,0.6489990983138919,0.09332948939265147,0.08412883064033574,-0.18550322207615008,0.42103870074177197,0.12190585290680485,0.5893646398845813,0.49874762739701844,0.42103870074177197,0.762812614440918,0.113414782551351,0.17969075658494466,2,False
58,1.9333333333333333,1.3799999999999926,0.004770750058858029,0.0050458961983915205,0.6496400367865967,0.09101049863629683,0.07914481000415666,-0.08348132829468424,0.2919359806853913,0.17835314347500048,0.5112222128060542,0.6952198103394116,0.2919359806853913,0.7806270122528076,0.13153649808551374,0.8576199215710213,2,False
59,1.9666666666666666,1.3999999999999921,0.007997057106046132,0.007565534022145853,0.6553109406579922,0.08330774673185727,0.07225263478117157,-0.06700181643490864,0.18374847848138004,0.2800029333594484,1.1220379287377478,1.3731947920906966,0.18374847848138004,0.8000102043151855,0.14680990395982405,0.14544154987924718,3,False
60,2.0,1.4199999999999917,0.01318971457798161,0.009741370409698004,0.6636817182099628,0.0700803490218672,0.0735726121616258,-0.05298640227587319,0.20308367356668752,0.27677610991251417,1.0906844344143676,1.485081177257394,0.20308367356668752,0.8000209927558899,0.13938039134914784,0.1350465882951666,2,False
61,2.033333333333333,1.4399999999999913,0.019020973694458126,0.010699903619451454,0.6726840496202157,0.05873258383002754,0.07138723024602951,-0.04407870629858857,0.2197662434071406,0.264977612622603,1.031585605406998,1.655974619312898,0.2197662434071406,0.8000209927558899,0.13112752971839434,0.126757177206301,1,False
62,2.066666666666667,1.4599999999999909,0.024906674082615658,0.010055630170884585,0.6797009362449866,0.0526072323763323,0.06544590336190154,-0.03594493837938859,0.23409601701340402,0.24717162691169262,0.9386557164480064,1.6527669062802282,0.23409601701340402,0.8000329732894897,0.12456173371038808,0.11776733934086536,2,False
63,2.1,1.4799999999999904,0.03011469052529403,0.00922358669486711,0.6853990997902543,0.04629799784691564,0.059151767146941696,-0.029370596531890655,0.24087872441716815,0.22409094903543975,0.833353076954885,1.4518900985992165,0.24087872441716815,0.8000450134277344,0.1199186688909868,0.10856026095977472,4,False
64,2.1333333333333333,1.49999999999999,0.03408822501104772,0.008273405765321241,0.6898779146265489,0.04320911493575412,0.052967108379171804,-0.024420945007369143,0.25022413303960594,0.21158734770705795,0.7480378859590551,1.2319416091183013,0.25022413303960594,0.8000450134277344,0.11628171202144966,0.10073876877734751,1,False
65,2.1666666666666665,1.5199999999999896,0.037277389839328295,0.006328119866095284,0.6920704204632192,0.04490149233286388,0.04685627383272894,-0.019932764129189186,0.2596117584463885,0.19511248879526322,0.6638740617970977,1.1026316149951398,0.2596117584463885,0.8000569939613342,0.11448342327581416,0.09414252990818942,2,False
66,2.2,1.5399999999999892,0.039497201480073935,0.004027902645134125,0.6927208620800294,0.04395198682168215,0.03917771503336402,-0.016136800502882288,0.2712412301930089,0.18389157635722014,0.6382459917393425,0.8644532332143284,0.2712412301930089,0.8000689744949341,0.1145701409770328,0.08732767596450727,4,False
67,2.2333333333333334,1.5599999999999887,0.041835735386501954,-0.001278914702863115,0.6936983231284994,0.047625574278535025,0.025452370910558526,0.23698886204222452,0.21538423752305616,0.1400859335815343,0.5591333137331949,1.3763951111927606,0.21538423752305616,0.7465230226516724,0.06710232581580229,2.1772920892198373,3,False
68,2.2666666666666666,1.5799999999999883,0.04346507748434752,-0.0005107933997318319,0.6951880393090893,0.06030781892900835,0.044122099827693606,0.2175276048751885,0.16778292377497706,0.1529081937158898,0.4463957912691885,0.8121929484845571,0.16778292377497706,0.7964540123939514,0.11056698123311902,0.19147943795140773,2,False
69,2.3,1.5999999999999879,0.04373974910648182,0.002033690995001545,0.6971752160757111,0.060327459644313436,0.059576301790848434,0.20473805185804628,0.17420683117671376,0.14519522612980976,0.45092791507285396,0.6677937021630977,0.17420683117671376,0.7964419722557068,0.10892396670628643,0.1814612046938844,3,False
70,2.3333333333333335,1.6199999999999875,0.04314885799391459,0.004889228645695043,0.6992734518456247,0.054971687769058517,0.07049394829338142,0.1930778670681501,0.1764892516724448,0.13963382911248795,0.4762421001183018,0.5395198910685659,0.1764892516724448,0.7964419722557068,0.10697902856456043,0.16904238686918638,3,False
71,2.3666666666666667,1.639999999999987,0.04233347648822703,0.007769581790236197,0.70167460976381,0.04729329339056779,0.07747246617918517,0.18240992514540108,0.1775967642276702,0.13475468757903367,0.49691853353108784,0.4904941757760946,0.1775967642276702,0.7964311838150024,0.1046607188955782,0.15747098111043653,3,False
72,2.4,1.6599999999999866,0.04169851622863209,0.0103776792912509,0.7040276147381188,0.039666327345010396,0.08101830253780574,0.17258705158477464,0.18329834855375343,0.13199469933876082,0.4622107998466932,0.47179295425039,0.18329834855375343,0.7964227795600891,0.10239835295613853,0.14663040189788762,3,False
73,2.433333333333333,1.6799999999999862,0.041632162539262614,0.012562989403141461,0.7067472277343024,0.03003701958530482,0.0795842658669994,0.16021883244689658,0.21983494599654424,0.16886738984768657,0.542831502002507,0.7073036856516567,0.21983494599654424,0.7892907857894897,0.09377632225619521,0.18716796656873577,1,False
74,2.466666666666667,1.6999999999999857,0.0426005778165751,0.013903071416893195,0.7105746396901191,0.017912817799484483,0.07391582498248997,0.14362873716840452,0.31265458728811896,0.24213947667021374,0.7179659161598945,0.9661469626727479,0.31265458728811896,0.7969363927841187,0.09809373670609162,0.24870467214323147,4,False
75,2.5,1.7199999999999853,0.04495875118556889,0.01413618943050509,0.7158563554513689,0.012370133296025565,0.06807433700659392,0.12655904047282496,0.41526823171379945,0.3317840633244149,1.1591084740251463,1.3620553882158926,0.41526823171379945,0.7968565821647644,0.09460582476988012,0.2338870191312384,4,False
76,2.533333333333333,1.739999999999985,0.04821494200701877,0.013849307304348763,0.7229525333439484,0.008069968168269513,0.05845258708585766,0.10878035031085832,0.48717064814217825,0.38692733320649,1.4579056100042251,1.5190451920308004,0.48717064814217825,0.7968565821647644,0.09047704511151748,0.21394904779981308,2,False
77,2.566666666666667,1.7599999999999845,0.05302683634074366,0.013198457549867842,0.7317414978312448,0.007245965699030254,0.04932645747697963,0.09322859602656954,0.5245590934924249,0.4054187500011851,1.3866100543339028,1.656417325688455,0.5245590934924249,0.7965375781059265,0.08574022087410707,0.19822327228203138,2,False
78,2.6,1.779999999999984,0.05916036364922156,0.012290126460382337,0.7397778505599307,0.01516033672154547,0.04464193237107026,0.07666586994030306,0.5337235946913252,0.38560073952239854,1.2936726721082028,1.9184972759877017,0.5337235946913252,0.7960990071296692,0.0826757390509812,0.1828715268040606,0,False
79,2.6333333333333333,1.7999999999999836,0.06535324647230516,0.011908884941651467,0.7447017240253885,0.02556781490611854,0.04175499560436996,0.061407478590825494,0.5399776246877406,0.3558124902104487,1.2031264758964215,1.8863370421044947,0.5399776246877406,0.7960990071296692,0.08348877887356643,0.16727844655353366,1,False
80,2.6666666666666665,1.8199999999999832,0.07111030373958838,0.012123724058206591,0.7461583259323281,0.038571672303040386,0.041103749039757595,0.04628361806021352,0.5404054998926054,0.3160413810893577,1.1036873985415319,1.9344337819752193,0.5404054998926054,0.7955440282821655,0.08630178043670031,0.15687996109166713,0,False
81,2.7,1.8399999999999828,0.07583611191269318,0.013169352829896633,0.7441275698612914,0.048855536462718875,0.0368676579853993,0.03473990692797349,0.5391431576357116,0.27671666931457284,1.0007939041067724,1.8403009710157963,0.5391431576357116,0.7949873805046082,0.09081725439671039,0.1484601172381536,0,False
82,2.7333333333333334,1.8599999999999823,0.07945182574085571,0.014606939454816644,0.7381346806822973,0.060164456382697254,0.030498388894694375,0.023690800427759985,0.543828249926393,0.24065284178253718,0.8958220951155496,1.8084799777534604,0.543828249926393,0.7949873805046082,0.09705277052441343,0.13866893539796873,1,False
83,2.7666666666666666,1.879999999999982,0.08269436377556783,0.015149003499260101,0.7300193042365218,0.07398422768421115,0.023037825309726524,0.015269038510136243,0.5497032637998376,0.21258722714360453,0.7928737241017265,1.644172139211652,0.5497032637998376,0.7944275736808777,0.103938664606551,0.13076217807850798,0,False
84,2.8,1.8999999999999815,0.08518876450316949,0.01510766933608117,0.7206575642176632,0.08940324779289473,0.015939136004597648,0.008400979724792581,0.5510204044982918,0.19291576802738197,0.6967754275071131,1.61409779672123,0.5510204044982918,0.7938802242279053,0.11139133659542964,0.12874400973414327,1,False
85,2.8333333333333335,1.919999999999981,0.0866519038789453,0.01426425096915676,0.7113234982349521,0.1086289899465493,0.00915168292706466,0.0010874472489168627,0.5470025466505628,0.1903637049326995,0.609968031266257,1.5601617493445477,0.5470025466505628,0.7938802242279053,0.11887303513019686,0.12890562652494392,1,False
86,2.8666666666666667,1.9399999999999806,0.08652537648373014,0.012484354267998404,0.7032660539224838,0.12798138821083765,0.0018067877693036236,-0.008960977028955775,0.5426272037546273,0.19126794731345004,0.5675051073364504,1.2764480223931705,0.5426272037546273,0.7933390140533447,0.12421989066554287,0.13249091835925553,0,False
87,2.9,1.9599999999999802,0.08497689505803625,0.010663392762739006,0.6960582181556672,0.14481364162839191,-0.006185605474941226,-0.02333860380339489,0.5451098558105624,0.18254223167714564,0.5284878324635346,1.2967750939676472,0.5451098558105624,0.7931110262870789,0.12856061864427482,0.13361621289405276,1,False
88,2.933333333333333,1.9799999999999798,0.08240407695114546,0.008613802342883996,0.6901012595606679,0.15950221107627383,-0.016026526171212644,-0.04200325004613597,0.5488127292439242,0.1912158239820649,0.6645000184151123,1.2460812045125265,0.5488127292439242,0.7931110262870789,0.13156721161451332,0.13639937067011257,1,False
89,2.966666666666667,1.9999999999999793,0.07953669007562122,0.007007276335784214,0.6848469537316939,0.17039510611637582,-0.027900141243390717,-0.06356580168851664,0.5636988390140956,0.20385276121773832,0.8479070744435321,1.1990641904111232,0.5636988390140956,0.7932878136634827,0.13406454124150471,0.13778953711800748,1,False
90,3.0,2.019999999999979,0.0769256641784463,0.005998115135397555,0.6798356291116906,0.17869396630282555,-0.04178308412554644,-0.08659200157925279,0.5810382651430246,0.2108318099459604,1.0423507824956064,1.0930324321393678,0.5810382651430246,0.7942742109298706,0.1373318522091792,0.14128717203319605,1,False
91,3.033333333333333,2.0399999999999787,0.07498777438930347,0.00591217608887623,0.674727246778857,0.1835101448106035,-0.0576872893900913,-0.10970432546800195,0.5956300723731273,0.21994370930023097,1.223802505062785,1.0284944297861074,0.5956300723731273,0.7942742109298706,0.1404243705262308,0.14760372135277683,1,False
92,3.066666666666667,2.0599999999999783,0.07379518224021941,0.006613496900647775,0.6700422454172548,0.18232531894309556,-0.07425460142522801,-0.13457157146903437,0.6068614853915734,0.227713226156157,1.3881983430833449,1.0253764888430945,0.6068614853915734,0.7947897911071777,0.14419193797851837,0.155423158788634,1,False
93,3.1,2.079999999999978,0.07383395915400646,0.008327608969593687,0.6658588636716056,0.17799485480869984,-0.09089408714789425,-0.15710638284930004,0.6029563754403867,0.22903227012391159,1.4184703362099498,1.0561046497132929,0.6029563754403867,0.7950699925422668,0.14810786514249744,0.16387528221752254,1,False
94,3.1333333333333333,2.0999999999999774,0.07480311979417698,0.010092139175618882,0.6622801309323265,0.17644541866282243,-0.10772678484958811,-0.17635622479973334,0.5986060632822318,0.22584184914082875,1.4042873180626625,1.0351283337979382,0.5986060632822318,0.7950699925422668,0.15182892997255207,0.17606143938027896,1,False
95,3.1666666666666665,2.119999999999977,0.07638510433025576,0.012070605864351627,0.6589763728959099,0.17633339407261808,-0.12451061955260434,-0.19036017534493396,0.5884885688475558,0.22087487734916433,1.3588709954822713,0.9815338922788991,0.5884885688475558,0.7950063943862915,0.15553766101214617,0.1913536323914976,1,False
96,3.2,2.1399999999999766,0.07813986110512235,0.014014942072393073,0.6562749450366494,0.1765061311062625,-0.14087548450908705,-0.20171745876847577,0.5787371189739389,0.21247890973376918,1.3234725696821887,0.9814165189521225,0.5787371189739389,0.7947971820831299,0.15887740838307826,0.20674118904786434,1,False
97,3.2333333333333334,2.159999999999976,0.07971493833641705,0.01590492941112392,0.6541932324782689,0.17596876818535162,-0.15789639247708018,-0.21073943526365363,0.5679905568485911,0.20903608381911185,1.2840770004882653,1.031434219078196,0.5679905568485911,0.7947971820831299,0.16177177386614278,0.21989324543803335,2,False
98,3.2666666666666666,2.1799999999999757,0.08088851331271742,0.017867847091375406,0.6524648303911555,0.17563877071227482,-0.17633139814361656,-0.21606085039988993,0.5544650950210283,0.2051022662727468,1.2470801150973847,1.1017114192222643,0.5544650950210283,0.7942968010902405,0.16365209865182498,0.2344427840196825,1,False
99,3.3,2.1999999999999753,0.0817854902544652,0.02006972522115285,0.6508708365736879,0.17507458418524774,-0.19612266996549155,-0.21965832814801411,0.5474353834022955,0.1967252302096017,1.291434798321611,1.0897154065218013,0.5474353834022955,0.7931643724441528,0.16484166115731358,0.24806174478372076,2,False
100,3.3333333333333335,2.219999999999975,0.08233279363050425,0.021832701639869365,0.6495102661235076,0.17448745124227066,-0.21583916142851958,-0.22239243837512165,0.5454926755584828,0.19142245278775535,1.3039309114491142,1.0614934663619406,0.5454926755584828,0.7931643724441528,0.1666493640125019,0.26163115459719233,3,False
101,3.3666666666666667,2.2399999999999745,0.08087392517870093,0.02320058139385581,0.6468611571652297,0.17417643482435638,-0.25044051882582286,-0.22280025039510062,0.5519879824330381,0.18431050807131416,1.2777232345653549,0.8741461381027746,0.5519879824330381,0.7917159795761108,0.16705557539350863,0.28325051812859675,7,False
102,3.4,2.259999999999974,0.077235034179897,0.023803170003086866,0.6425629403118026,0.17341606938264786,-0.2858092211802223,-0.22507386069455104,0.5536882199907202,0.18172080050606335,1.2202435644907719,0.820215321855069,0.5536882199907202,0.7905094027519226,0.16800186864243163,0.3118533512107382,7,False
103,3.433333333333333,2.2799999999999736,0.07282471325417172,0.023431605508807195,0.6373734569412141,0.1728454229856107,-0.31468560349943947,-0.2267524011335791,0.5528289442882728,0.18384801613691695,1.2299592229474423,0.8352164083740533,0.5528289442882728,0.7905094027519226,0.17050074402643126,0.33639271201329346,8,False
104,3.466666666666667,2.299999999999973,0.06860626319530594,0.02213212628638548,0.6318744794974941,0.17214058637165364,-0.33844272535792486,-0.2263089214643053,0.5499078018244499,0.1891108389075475,1.290973134381835,0.9099545288143096,0.5499078018244499,0.7896507978439331,0.17264763090581878,0.3574040373486055,6,False
105,3.5,2.3199999999999728,0.06548466779077194,0.02004015785745075,0.6265771509061727,0.17008480833629938,-0.3585019306160115,-0.22676179688148318,0.5475539735917087,0.19116953859024963,1.295202257921881,0.9367962349024327,0.5475539735917087,0.7894881963729858,0.17587606666686412,0.37463405220394336,6,False
106,3.533333333333333,2.3399999999999723,0.06329918835199791,0.0172654919114109,0.6218144150027675,0.16832686954016118,-0.37776260686502433,-0.2247066326838271,0.5419004714395627,0.19176449940973442,1.2727929995758633,0.8001622098390139,0.5419004714395627,0.7894881963729858,0.17924570744005489,0.3905939387293034,6,False
107,3.566666666666667,2.359999999999972,0.06157741049429712,0.014593211395048052,0.6171734850069985,0.1665408210470333,-0.39351615283842717,-0.22026665240374796,0.5430455943233585,0.19112282348936935,1.2580345528395405,0.7236370036965554,0.5430455943233585,0.7895343899726868,0.18272578139158016,0.40472602777177397,6,False
108,3.6,2.3799999999999715,0.06002832090950494,0.011570425561380361,0.6131294435314449,0.1681002254457253,-0.4076774058442111,-0.2178108114286702,0.5549782767298505,0.19317850130489211,1.2493369282101867,0.6687345489483346,0.5549782767298505,0.7896850109100342,0.1861413608140238,0.4185285000849727,5,False
109,3.6333333333333333,2.399999999999971,0.05878967328742342,0.008244841530338205,0.6101826535642648,0.17144449604074868,-0.42076763794885313,-0.21597489581948598,0.5647545479812283,0.19694139284654053,1.2415149810860877,0.6301623706959675,0.5647545479812283,0.7896850109100342,0.18858479646690693,0.4307177741038194,4,False
110,3.6666666666666665,2.4199999999999706,0.057902299849190805,0.004698927192361926,0.6082727663713756,0.17608033159189976,-0.4323103003567794,-0.21497000161178564,0.5720775996933135,0.19736952831139867,1.233648764414065,0.6015402108240887,0.5720775996933135,0.7896826267242432,0.19018718224896866,0.44352177428033096,1,False
111,3.7,2.43999999999997,0.05740001403821387,0.0011006320687949429,0.6072054813132665,0.18061040503901674,-0.4420090308832475,-0.2132715555244361,0.5790810704325413,0.19702564424548297,1.2249408183009856,0.5938454238093074,0.5790810704325413,0.7896128296852112,0.19106380630638717,0.45521832971210996,1,False
112,3.7333333333333334,2.4599999999999698,0.05737439964623096,-0.002323795051662241,0.6061402872982916,0.18356739847074047,-0.44853460841609544,-0.21026551900927545,0.5851981513339413,0.1973452506700193,1.215289921670158,0.6078488549084496,0.5851981513339413,0.7896128296852112,0.19201818183965622,0.4618870216439203,1,False
113,3.7666666666666666,2.4799999999999693,0.05759873429322655,-0.005822060605255601,0.6055186694455009,0.18903852013215988,-0.4536467713240281,-0.20944494216362897,0.5946312112141691,0.19694109384813738,1.2116925832400112,0.6059738057536047,0.5946312112141691,0.7894082069396973,0.19263232462372792,0.470319564307733,1,False
114,3.8,2.499999999999969,0.05827791310870235,-0.009152604532476209,0.6054712350243997,0.19526588575542275,-0.45693776307703304,-0.20869000760968673,0.6005100735593722,0.19528823650469998,1.2100256696150027,0.6402362452699687,0.6005100735593722,0.7891911864280701,0.1928894395571116,0.4785852614499781,1,False
115,3.8333333333333335,2.5199999999999685,0.05938377454290197,-0.01216380415560623,0.6058549186366358,0.20148822713656797,-0.4584637690047645,-0.20721534576372463,0.6060345636152636,0.19500893560987667,1.2091985632480227,0.6734920835619771,0.6060345636152636,0.7891911864280701,0.19307432033891894,0.48175716187763645,1,False
116,3.8666666666666667,2.539999999999968,0.06083809336428431,-0.014733631845518805,0.6064611296150298,0.2076663096270364,-0.4578077131956689,-0.2054943887762202,0.6111872268610253,0.19566312112746964,1.2096324829867477,0.7006617895623548,0.6111872268610253,0.788968026638031,0.19292720515384484,0.48713185730782693,1,False
117,3.9,2.5599999999999676,0.06260675708577308,-0.016908392981353316,0.6070003646866007,0.21601583233166102,-0.45458921702267585,-0.2055981778967443,0.6162165296043384,0.18874156635680148,1.2123228121338483,0.7266118194811663,0.6162165296043384,0.78886479139328,0.19299380320933104,0.4925234721666033,1,False
118,3.933333333333333,2.579999999999967,0.06459517781805446,-0.018398566208813288,0.6074246099511544,0.22702161812978755,-0.4498345133402995,-0.2063925230868708,0.6236465375430742,0.19088730442973623,1.2165247381828512,0.7683043475633432,0.6236465375430742,0.78886479139328,0.19337063270235438,0.4917320355845434,1,False
119,3.966666666666667,2.599999999999967,0.06673631715255901,-0.019063875789954412,0.6080484034951039,0.24008101596223053,-0.44335102026856943,-0.20899374376295604,0.6315990727127531,0.1909853854673523,1.2202483350208957,0.7277382664555762,0.6315990727127531,0.7890976071357727,0.19387337434282081,0.4965989868009805,2,False
120,4.0,2.6199999999999664,0.06895449638208195,-0.019346274395154683,0.6087008077761589,0.2549368136989763,-0.4333421437899519,-0.21829478339310132,0.624023024820006,0.18020149522899526,1.2199915136881456,0.6855130717228374,0.624023024820006,0.7900024056434631,0.19488931458564232,0.5007748766939036,3,False
121,4.033333333333333,2.639999999999966,0.07087968526667446,-0.019410862849901282,0.609425901157694,0.26985010198760156,-0.4227849511015079,-0.2274026317674116,0.6196734667006057,0.1763078890786339,1.2215403878964088,0.659992667600405,0.6196734667006057,0.7900024056434631,0.19497330915538189,0.49853961690179893,4,False
122,4.066666666666666,2.6599999999999655,0.0730408796336,-0.01933547752103412,0.6104879221123027,0.28340664443004004,-0.4128065431350148,-0.2338588999785701,0.6196254492945467,0.17975196055182785,1.2213499303222506,0.6502611809960912,0.6196254492945467,0.7901291847229004,0.1949554205837567,0.5028371408841971,3,False
123,4.1,2.679999999999965,0.07563968774085271,-0.018956636234438055,0.6118245282721035,0.29543554783245257,-0.4021725322916063,-0.24194802784264904,0.6189204271858767,0.1798059695526951,1.2161420960453033,0.602034116755265,0.6189204271858767,0.7898669838905334,0.194440296797084,0.5069143976219623,3,False
124,4.133333333333334,2.6999999999999647,0.07853337503697877,-0.018247654335078117,0.6133425944389583,0.3054893245391977,-0.39216600135964286,-0.24717752908729185,0.6195745244594759,0.17825356069457032,1.1810586368547185,0.5530780728071795,0.6195745244594759,0.7898669838905334,0.19413679299046965,0.5048184176277164,2,False
125,4.166666666666667,2.7199999999999642,0.08170467397028087,-0.01712997370111067,0.6147746963944423,0.31196323404724335,-0.38085320587937554,-0.25049751859347374,0.6213392058321467,0.17441799331104568,1.0931883435373784,0.4955444767184839,0.6213392058321467,0.7890738248825073,0.19327867584818884,0.5064796957621363,4,False
126,4.2,2.739999999999964,0.08495960518106156,-0.016311574207101193,0.61639799873295,0.3176924840173673,-0.3683065986787781,-0.2551713613043221,0.6204842630351604,0.1760443075800408,1.0474476483961652,0.4787951360814584,0.6204842630351604,0.7882068157196045,0.19237049310941998,0.5069309389094884,3,False
127,4.233333333333333,2.7599999999999634,0.08833005254849711,-0.015214480951960145,0.6176851948447691,0.3197853906696005,-0.3557367760533474,-0.25709980136672944,0.6226370734827128,0.17572812749677413,1.017997506777326,0.4578715993493673,0.6226370734827128,0.7882068157196045,0.19256103582635403,0.4994953413059639,5,False
128,4.266666666666667,2.779999999999963,0.09169858094059712,-0.014114237668244099,0.6190053152852969,0.3207292682320838,-0.34313189033208186,-0.25885208830780476,0.6255783679621871,0.17282630920001335,1.0113612335873627,0.47541575456302637,0.6255783679621871,0.7871922254562378,0.19191910786510072,0.49719611314542467,1,False
129,4.3,2.7999999999999625,0.0950376739903734,-0.012902487358922405,0.6201723919566761,0.320392181102726,-0.3297142238306021,-0.26234378843849454,0.6245999193347015,0.1690978039149629,0.9721130615527963,0.41594400036169893,0.6245999193347015,0.7860972285270691,0.1915509262342355,0.49245040628795533,4,False
130,4.333333333333333,2.819999999999962,0.09826913522813337,-0.011438866275978496,0.6212475613102497,0.3180096652753384,-0.31733225320006525,-0.2632159602919023,0.6256025778488276,0.1676178144763459,0.9429788367176609,0.3823615834204884,0.6256025778488276,0.7860972285270691,0.19213647003994258,0.4827701186426971,4,False
131,4.366666666666666,2.8399999999999617,0.10145436214603668,-0.010129879163288842,0.6229428570037792,0.316685112818365,-0.3064924664485467,-0.26556090320529213,0.6288992923582092,0.17075294328024967,0.9335247654011115,0.38961511034571683,0.6288992923582092,0.784961998462677,0.1914283148427308,0.4793726144450037,5,False
132,4.4,2.8599999999999612,0.10468412392121722,-0.008645021702479595,0.6249002164254662,0.3131138100656219,-0.2970652493119213,-0.26616529672427747,0.633272007752566,0.18085147708688598,0.9176448622786428,0.5066515827516309,0.633272007752566,0.78399658203125,0.1906347674928524,0.4752937347206131,6,False
133,4.433333333333334,2.879999999999961,0.10770620692800108,-0.007157463327646244,0.6270811370417827,0.31028913632441957,-0.2874634023449414,-0.26806053827640364,0.6377854974780776,0.19337256006649203,0.8970968451325508,0.5106555622791499,0.6377854974780776,0.78399658203125,0.19052715999178416,0.46747318558292544,5,False
134,4.466666666666667,2.8999999999999604,0.11070988203999017,-0.005677631398944552,0.6291696327285421,0.3053471862145171,-0.2788249705343465,-0.27124189465574405,0.6427692435134349,0.20495109889817237,0.8643731339804942,0.5401582331925294,0.6427692435134349,0.7833195924758911,0.18981960528455932,0.46368270511025117,3,False
135,4.5,2.91999999999996,0.11351446328206255,-0.00407583148854315,0.6306461591973472,0.2992314196622912,-0.27068861223272556,-0.27438186264781733,0.645826153277443,0.20895229996007786,0.8552926417666051,0.6187666907732138,0.645826153277443,0.7832193970680237,0.1900920975031196,0.4587968748514795,5,False
136,4.533333333333333,2.9399999999999595,0.11606031628608052,-0.0024934549764203877,0.6321140264790974,0.29426945845203734,-0.26280081766931424,-0.2790335843590139,0.6483126963742316,0.21159797485646936,0.8327914835043964,0.5722669386344338,0.6483126963742316,0.7832193970680237,0.19048338584539476,0.4518809775648962,5,False
137,4.566666666666666,2.959999999999959,0.11835598007626615,-0.0009007353762344027,0.633532147189484,0.289708518038012,-0.2547402238627863,-0.2828150342376744,0.650631774785024,0.2148742622303029,0.7846335191192382,0.6270762405120177,0.650631774785024,0.7830420136451721,0.19059307518949886,0.44837593642668017,3,False
138,4.6,2.9799999999999587,0.1205246009534212,0.0008567337512527418,0.6348418107525433,0.285523851657399,-0.24646892700174872,-0.2873681857083687,0.6550947867560936,0.2187526160039987,0.8213749066580645,0.6142348069007286,0.6550947867560936,0.7828260064125061,0.1907779677469139,0.4439573386298196,4,False
139,4.633333333333334,2.9999999999999583,0.12242758181381914,0.0027456803184843412,0.6359820603484322,0.28165597075728954,-0.2397626817127166,-0.28995691715535016,0.655084247195071,0.21971951320055408,0.8394501597717583,0.6157114319093894,0.655084247195071,0.7828260064125061,0.1911197310477053,0.43819176961817086,5,False
140,4.666666666666667,3.019999999999958,0.12408594824477008,0.004366219128971354,0.6368887851790863,0.2787756614053253,-0.2339703373246197,-0.29142718786820937,0.6492709932053188,0.2190891061802171,0.8123958601665742,0.6465679188136226,0.6492709932053188,0.7824965715408325,0.1911734260882259,0.4364154694166485,2,False
141,4.7,3.0399999999999574,0.12533022359976032,0.005786819778835,0.6372164544795513,0.2771202458996866,-0.22660379117752347,-0.29359699214482415,0.6435296621836608,0.2189669128123152,0.7234833242088639,0.6395687923700092,0.6435296621836608,0.781974196434021,0.19141804157750048,0.433171846481619,2,False
142,4.733333333333333,3.059999999999957,0.12629688738974096,0.006883583831918205,0.6373634465823841,0.2763115504934195,-0.21944981831083885,-0.292612687871387,0.6383616384025701,0.21563878546131565,0.6912809827061269,0.7238938632623099,0.6383616384025701,0.781974196434021,0.1920083274806841,0.427527746450079,4,False
143,4.766666666666667,3.0799999999999566,0.12702343914095926,0.007860210348310099,0.6375906539236793,0.27637696612711343,-0.21286254960826342,-0.2920936086535546,0.6319124928574634,0.2058811417237474,0.6841816077611379,0.7114006585975442,0.6319124928574634,0.781065821647644,0.19168043301479606,0.4251513667729238,2,False
144,4.8,3.099999999999956,0.12733016973975045,0.008958340573320534,0.6373957454502608,0.27640629874537664,-0.20557718827647167,-0.2884145241311968,0.6210056764332583,0.1935333713646556,0.7048665380939574,0.7263590720332942,0.6210056764332583,0.7801777720451355,0.19146636815160617,0.4203111219770979,4,False
145,4.833333333333333,3.1199999999999557,0.12700798104504574,0.009897337591023127,0.6372738103667084,0.27757944353677905,-0.19910019271387983,-0.2846463437613812,0.6098283542220206,0.18588424749697796,0.7182099556619671,0.7494168274510769,0.6098283542220206,0.7801777720451355,0.191507850325564,0.41550990657632975,3,False
146,4.866666666666666,3.1399999999999553,0.12573052918436706,0.01057436146193272,0.6369386838757225,0.2784345021853748,-0.19399930780628397,-0.27847292174415017,0.6023903290808006,0.1793130953889141,0.7220836958892664,0.7988175847647,0.6023903290808006,0.7792999744415283,0.19041797556143483,0.41147617121724983,2,False
147,4.9,3.159999999999955,0.12325044755176491,0.010579094910357316,0.6361600408573873,0.27653943639791395,-0.18831341000166724,-0.2724140777269271,0.5916014754883473,0.16613632765445943,0.7171431736539865,0.813711765958749,0.5916014754883473,0.7789484262466431,0.1892637815656064,0.40506658693997033,3,False
148,4.933333333333334,3.1799999999999544,0.11957359079037762,0.00978530398617643,0.6351702818587532,0.27128295908057176,-0.18306857520976405,-0.2643732821851763,0.5804940338426197,0.15484474439179288,0.70121144611236,0.8923594713601752,0.5804940338426197,0.7789484262466431,0.1876086124137153,0.39725278470927833,0,False
149,4.966666666666667,3.199999999999954,0.11478325258204557,0.008297480820861432,0.633185127306858,0.262821019359504,-0.17619026410478458,-0.25853309408890796,0.5704924583487849,0.15364489936425849,0.6939769053718179,0.9000966319263732,0.5704924583487849,0.778571605682373,0.18590181189015514,0.3851732099646958,3,False
150,5.0,3.2199999999999536,0.1090871362798745,0.006451229968676122,0.6297865457820621,0.25246562112281196,-0.1668459455958439,-0.25352466043991195,0.5673134386298669,0.1497231284024183,0.6906189291298178,0.9960246975441718,0.5673134386298669,0.7781444191932678,0.18427812379664166,0.3720277084364582,3,False
151,5.033333333333333,3.239999999999953,0.10385021583116998,0.003789934515621157,0.626186235927797,0.24418732029558615,-0.15380320838406839,-0.25257555815163363,0.5649194935595369,0.1536376371834563,0.7582840231633019,0.9058070154234162,0.5649194935595369,0.7781444191932678,0.18417560755516543,0.35769229983600953,5,False
152,5.066666666666666,3.2599999999999527,0.09868870916048429,-0.00044231844979324836,0.6234686785251458,0.2369599397815732,-0.1418735196742096,-0.24700378044723864,0.5631708727694518,0.16385883816124186,0.8486104752265207,0.8444846525498432,0.5631708727694518,0.7774968147277832,0.18312375415783666,0.3443787771037582,4,False
153,5.1,3.2799999999999523,0.09299449034083145,-0.005669977634218393,0.6208658674250949,0.2286452647538083,-0.13162756545192203,-0.23631856238187376,0.562772518732641,0.17684146125876488,0.9087565510326029,0.9081704798924661,0.562772518732641,0.7767390012741089,0.18179585841203824,0.33068757925760955,1,False
154,5.133333333333334,3.299999999999952,0.08639199224345556,-0.011245273929733629,0.618114433790354,0.2191335695546492,-0.12313261510791766,-0.22364965228293965,0.5581454829426465,0.18674619283375984,0.9353533873340284,0.9230714001636297,0.5581454829426465,0.7767390012741089,0.18109523936554692,0.31520875256891284,1,False
155,5.166666666666667,3.3199999999999514,0.0793610307924632,-0.016791989035279106,0.6147114482760905,0.211601765358445,-0.11403483974863624,-0.21354395197031484,0.540650158452936,0.19303216747098584,0.9375397186416066,0.9640601943221443,0.540650158452936,0.7759721875190735,0.1804600714336815,0.30231653176728857,1,False
156,5.2,3.339999999999951,0.0721952317662303,-0.022418027493921668,0.610731032463428,0.2070996038151357,-0.10564651696759962,-0.20645927139229625,0.5193284332294728,0.2020651897146468,0.9490853544010556,1.0403509864238543,0.5193284332294728,0.7752438187599182,0.18065560040677958,0.292391823599854,3,False
157,5.233333333333333,3.3599999999999506,0.06642326907570911,-0.02854563176629448,0.6067492368905346,0.20647329659218405,-0.08446990475143965,-0.20432574981988774,0.45100977454255164,0.22043402840234377,0.858130490740099,1.0865671319274548,0.45100977454255164,0.7678532004356384,0.17597328768269413,0.42134098874951775,2,False
158,5.266666666666667,3.37999999999995,0.06194085102431954,-0.035250194540127275,0.6043641517380226,0.21254047198102313,-0.08330687649078213,-0.17401112161397198,0.21651915801403804,0.35508484846969923,1.2662890793257842,1.7505816533104195,0.21651915801403804,0.7724575996398926,0.18216542146839268,0.3596452303196527,2,False
159,5.3,3.3999999999999497,0.058465551813139886,-0.04179911928961696,0.6040998949785992,0.22326587199971715,-0.09148117873282267,-0.15209782235684322,0.19129109348967077,0.38393726138933676,1.3125332843839208,1.9745352132046108,0.19129109348967077,0.7945663928985596,0.2036183946328284,0.22469955496709532,1,False
160,5.333333333333333,3.4199999999999493,0.055602078582378374,-0.0484841222496477,0.6047286351826059,0.2363468117063508,-0.09880481250973537,-0.13729283988435245,0.21191465001924686,0.3489955499155066,1.2261254940877602,1.687280777184552,0.21191465001924686,0.7945663928985596,0.20367586139357147,0.23190230228760841,3,False
161,5.366666666666666,3.439999999999949,0.05407717590669576,-0.055313061985852625,0.6063268476557985,0.24717411668245462,-0.10419374384472582,-0.12904814411565763,0.23543164932564806,0.31489434512452324,1.1343195603668714,1.6544285438859907,0.23543164932564806,0.7945579886436462,0.20358185969559447,0.24133590914284647,1,False
162,5.4,3.4599999999999485,0.05266926792398271,-0.061561372794850314,0.6080414737818998,0.25542876162425443,-0.10781465474261442,-0.1259326893335039,0.26043156439250564,0.29112476904754425,1.0334465878718953,1.6324574442629323,0.26043156439250564,0.7945556044578552,0.20329088907229587,0.24917842899746262,2,False
163,5.433333333333334,3.479999999999948,0.051213448833524126,-0.06666391476208687,0.6091036827412424,0.2604543960078215,-0.1120725728453043,-0.12381509955028777,0.2790756586271911,0.2686248350443674,0.9373243575607034,1.5194143236271018,0.2790756586271911,0.7945556044578552,0.20356697380784702,0.25555922977613393,2,False
164,5.466666666666667,3.4999999999999476,0.050522599941910745,-0.0701827623818099,0.6102172020057456,0.26132101377237554,-0.11492473001815798,-0.12402765253366171,0.29284547554372625,0.24499314052617316,0.8799013689355375,1.4556728262406797,0.29284547554372625,0.7945550084114075,0.20363910342583327,0.25794257003738325,1,False
165,5.5,3.519999999999947,0.0502022165451871,-0.0722822903169448,0.610862585355233,0.2586001164916416,-0.11644040803663741,-0.1231883798964844,0.30301291380454026,0.22240825348087961,0.8618904990083672,1.4647905335831217,0.30301291380454026,0.7945579886436462,0.20362027375449582,0.2568792888612473,0,False
166,5.533333333333333,3.5399999999999467,0.04950673025002193,-0.07277230596293523,0.609918033942147,0.2528819336761426,-0.11759830337199308,-0.12217125117785636,0.31114349709966005,0.20078854163186569,0.8318710347299287,1.4132773403066348,0.31114349709966005,0.7945579886436462,0.20424090378815138,0.25199121000998265,1,False
167,5.566666666666666,3.5599999999999463,0.04828047028181633,-0.07197807016110692,0.6070350881154615,0.24532488662349006,-0.11865915223779232,-0.12119059279778185,0.3214742531958913,0.17926310436530815,0.7894174623193185,1.3709611896581615,0.3214742531958913,0.7945637702941895,0.20596109191097398,0.24569644600968418,0,False
168,5.6,3.579999999999946,0.04662876950006601,-0.070080585952855,0.6026364431597886,0.24281284555449142,-0.09591592709765753,-0.1318338462046208,0.2633378729752495,0.1494611489899463,0.6375757248111231,1.0696943126000826,0.2633378729752495,0.7457028031349182,0.16527155330335785,0.26179824692650844,1,False
169,5.633333333333334,3.5999999999999455,0.04376946528476246,-0.06754417717504294,0.597561001332836,0.24487677764088941,-0.08786791941554001,-0.10435934038088218,0.26884632319283547,0.22000664749613302,0.6307179397229232,1.5667619773498893,0.26884632319283547,0.7736064195632935,0.1928534339184423,0.3465671437929142,2,False
170,5.666666666666667,3.619999999999945,0.04104289870595155,-0.06486795809320905,0.5932932995218541,0.24915794094320476,-0.08390415193073655,-0.08049706789397724,0.3248601202256832,0.22393988595397257,0.8872168151470644,1.446744726526104,0.3248601202256832,0.7726839780807495,0.1946901398988688,0.36040166593678846,2,False
171,5.7,3.6399999999999446,0.04002513339687102,-0.06229158297928055,0.5921882004655667,0.25032126100578045,-0.08129478323855908,-0.06404292541468716,0.36316828126610523,0.2237266440607971,1.0860459946598093,1.2645946952363813,0.36316828126610523,0.7726839780807495,0.19535081581242783,0.3467373946418116,2,False
172,5.733333333333333,3.659999999999944,0.04006072996139579,-0.05957777171134974,0.5932560066810862,0.2542659726095146,-0.07890512375407678,-0.04713558515498229,0.3897189508368443,0.23516214913703698,1.2059978735229344,1.079232335939942,0.3897189508368443,0.7716519832611084,0.19282669202276723,0.36575703901412787,1,False
173,5.766666666666667,3.6799999999999438,0.03924756698076875,-0.055390855046923274,0.5943756045169414,0.2622621885368439,-0.07684651324006532,-0.027967296460185545,0.4046680659799523,0.24598844264240166,1.2369868921491427,0.9739933204779211,0.4046680659799523,0.7703775763511658,0.1893316143682747,0.38438576622787407,1,False
174,5.8,3.6999999999999433,0.03755657048625781,-0.049533665808402204,0.5956635165716138,0.2709962015092348,-0.07447555883134352,-0.01058271717128526,0.41920695305866,0.24902614540537985,1.2607121249095634,0.8782588029369262,0.41920695305866,0.7703775763511658,0.18631221210514506,0.373782599039825,1,False
175,5.833333333333333,3.719999999999943,0.035216024650945005,-0.04226331878751367,0.5973006334892512,0.2796253342286153,-0.07276260041074549,0.008869453541785175,0.43134894303342974,0.2476760492203556,1.2819311004882468,0.8720101099586448,0.43134894303342974,0.769029974937439,0.18134763532183718,0.3923613374682085,1,False
176,5.866666666666666,3.7399999999999425,0.03241519234735203,-0.033811846805673,0.5994025184976369,0.2872291236397251,-0.07163776131585482,0.030733888592393798,0.44017642924659445,0.24217674839197453,1.2932967850512653,0.930538600909465,0.44017642924659445,0.7675359845161438,0.17566893679647763,0.40807780608279554,1,False
177,5.9,3.759999999999942,0.029136696472508414,-0.024314145624645636,0.6019284863990009,0.2936224219259586,-0.0698692739649582,0.05211279953690629,0.4443494303999903,0.24052864667320273,1.2903873368732504,0.960658697581632,0.4443494303999903,0.7675359845161438,0.17106890613514708,0.39410683485088616,1,False
178,5.933333333333334,3.7799999999999416,0.025354973989110692,-0.013973819985883849,0.6046989094686166,0.2986095819663558,-0.06873499866390116,0.07642720933630776,0.4484783917665184,0.24499347970648175,1.2767361951133376,1.0389202571798446,0.4484783917665184,0.7658067941665649,0.16479476803238113,0.4060494207820515,1,False
179,5.966666666666667,3.799999999999941,0.021133946612855455,-0.0030097980104458015,0.6075866996337883,0.3022657030721156,-0.06869822202213648,0.1032046447028881,0.45738948356729947,0.25538377222177927,1.2314364647171332,1.2038478048557142,0.45738948356729947,0.7639600038528442,0.1587783886928056,0.4151887052362023,1,False
180,6.0,3.8199999999999408,0.016595455311377426,0.008164558076944255,0.6104378869417164,0.306017621917593,-0.06885659486171625,0.1281478669418589,0.46684919626153965,0.2554506987456199,1.1997107449615578,1.3091114268841315,0.46684919626153965,0.7639600038528442,0.15533983985547062,0.3971964762686717,1,False
181,6.033333333333333,3.8399999999999403,0.01200605458833508,0.019392374140598877,0.6131901307792011,0.3076327844470655,-0.07088791552089557,0.1559370210060851,0.4745999773210812,0.25174471680389593,1.1689318814783904,1.2807166374370538,0.4745999773210812,0.762349009513855,0.151379774533773,0.40540346946495703,2,False
182,6.066666666666666,3.85999999999994,0.007237618390980988,0.03051854378397347,0.615793811298685,0.3031331359523114,-0.07519674516878373,0.18682318424496036,0.47386288597192044,0.24185004665593096,1.1115104463146943,1.3801795333198774,0.47386288597192044,0.7610859870910645,0.14874959793883616,0.40779488466984687,2,False
183,6.1,3.8799999999999395,0.0024199670502140754,0.04019400773473895,0.6174657614119374,0.29940422116361,-0.07991580211957776,0.21441906620818565,0.46979599928791366,0.2277877028007749,1.0595279491321186,1.379435818807508,0.46979599928791366,0.7610859870910645,0.14890350903428615,0.38440269053412196,2,False
184,6.133333333333334,3.899999999999939,-0.0009813861375606127,0.04759963083263821,0.6180649860367585,0.2895567385620914,-0.10089927260643311,0.2918057726170954,0.4345153463307301,0.19903275311246227,0.9186151000941051,1.2560107561379015,0.4345153463307301,0.7825098037719727,0.17083407507878254,0.8257194669251279,1,False
185,6.166666666666667,3.9199999999999386,-0.0028015791309209726,0.05375846256902864,0.6200767846201398,0.29813627403919335,-0.08115129306517604,0.273775248828424,0.239374779623449,0.1741628031355949,0.6216722743537945,1.339154024654562,0.239374779623449,0.7964175939559937,0.18440511681946217,0.41740041780240617,0,False
