frame,video_time_s,sim_time_s,root_x,root_y,root_z,root_roll,root_pitch,root_yaw,joint_target_abs_mean,joint_error_abs_mean,joint_error_abs_max,joint_velocity_abs_mean,ctrl_abs_mean,root_target_z,root_position_error_m,root_orientation_error_rad,contact_count,fall_proxy
0,0.0,0.2200000000000001,0.008347919108188431,-0.05364790655315092,0.08155528670935225,2.344907039221028,-0.9631488091721891,2.8418923273596595,0.16952945664196475,0.1685345682481673,0.9348552710164625,7.650236073883,0.16952945664196475,0.05123699828982353,0.06138196967790175,0.5353728354771301,2,True
1,0.03333333333333333,0.24000000000000013,-0.0053925291195609255,-0.05930020279543295,0.09298541201079838,-2.632689907992297,-0.7800678563934315,1.3829336945677673,0.19597422305150408,0.24462990923122066,1.1437705892532046,7.677299020314022,0.19597422305150408,0.0516510009765625,0.06850337672441935,0.5878718944259049,2,True
2,0.06666666666666667,0.2600000000000001,-0.005321413908894589,-0.05222843008649129,0.12931553734250217,-2.096657171168056,-0.8465515327423535,0.1383761534692907,0.1984876178476277,0.25902892342340994,1.0581602244163573,12.558941739673328,0.1984876178476277,0.052117399871349335,0.08556493813379192,0.8807443370841368,0,True
3,0.1,0.28000000000000014,0.02372109096688874,-0.034207098880327864,0.18222233856126477,-0.8265564710500601,-0.9020257852880783,-1.5968373245756025,0.2249130553970114,0.33124511234530707,1.3410925972470267,7.427971817611305,0.2249130553970114,0.05260999873280525,0.12896338747853026,1.2745966067822052,0,True
4,0.13333333333333333,0.30000000000000016,0.024232170932765654,-0.0023928630970584362,0.1835536918705658,0.2454341047470844,-1.3969683827360706,-2.304827996989414,0.22383157691211092,0.2390742851375797,1.2238701399703102,12.516387421083177,0.22383157691211092,0.05321719869971275,0.14050383020479879,0.9637737988724345,3,True
5,0.16666666666666666,0.3200000000000002,-0.003655986892963904,0.0043753272825412205,0.17369921577499087,-2.7854169742904205,-0.6546114559289701,1.124538928751519,0.2171821272301805,0.28252282068645107,1.2509211305634342,7.111594544916852,0.2171821272301805,0.05381060019135475,0.11301383713514648,0.6692209051074179,2,True
6,0.2,0.3400000000000002,-0.02375279436213293,0.028431719658376122,0.2168222638846826,-2.4764194170228278,-0.0002474611910486112,0.6205997794916922,0.2116380403037491,0.3912766522390266,1.7177151815188811,8.694043965909698,0.2116380403037491,0.054376401007175446,0.15633979015271432,1.4474714239728217,9,True
7,0.23333333333333334,0.3600000000000002,-0.005419439513004954,0.05407373127401696,0.24979891659512365,-2.305885552698214,-0.5458370938900222,0.020240329437147167,0.21806937035555424,0.299997045852211,1.4683148428445396,9.62603879101448,0.21806937035555424,0.05438140034675598,0.19613193363797068,1.4627012538129314,2,True
8,0.26666666666666666,0.3800000000000002,0.012196153361604557,0.06867161474290667,0.28965996667927124,2.3009275843347776,-1.3587830310369053,1.8050939984690948,0.21275224150171151,0.24012507164698127,1.2442988856765105,9.203754122323206,0.21275224150171151,0.05410600081086159,0.23470965155614196,0.8352094093689177,0,True
9,0.3,0.40000000000000024,0.006161447669756511,0.09374186840547165,0.3248730402048619,1.5683781858747734,-0.5388697197711946,2.7315915594079603,0.19934534633426415,0.26544122338709675,1.1192542506438843,7.038498993486117,0.19934534633426415,0.05283519998192787,0.28160010613252345,1.0304377047241986,2,True
10,0.3333333333333333,0.42000000000000026,-0.018806273625927135,0.13210715372827103,0.329636394374932,2.036508121498766,0.15516241798097807,-3.085278296336289,0.20084886390570264,0.35702630263159835,1.1713071598661051,8.466537177329313,0.20084886390570264,0.05138780176639557,0.3093666871865243,1.5202065561450502,1,True
11,0.36666666666666664,0.4400000000000003,-0.06331200971352888,0.16935567743951177,0.33433192472193834,3.1251087139672746,0.602905747414853,-2.3291785731699086,0.21683348204188993,0.41751049587758193,1.290325693765257,4.425153883939438,0.21683348204188993,0.049587201327085495,0.33752041421950346,2.4825838089099337,13,True
12,0.4,0.4600000000000003,-0.12223947437329065,0.19779724013747468,0.30679457771981866,-2.695426931210798,0.5044710005728931,-1.802189079315133,0.2147105599323184,0.4227717418562348,1.3781203500026016,7.098689286731311,0.2147105599323184,0.048002999275922775,0.3513993016150316,3.034691484180081,11,True
13,0.43333333333333335,0.4800000000000003,-0.16983235715482617,0.2016749592406444,0.30185993199121847,-2.6056012884187463,0.6985399145251405,-1.2804842779943983,0.22147232459885996,0.3687611774344707,1.5103601214330522,9.782516255913878,0.22147232459885996,0.04652699828147888,0.3674683262722271,2.9790084653558013,2,True
14,0.4666666666666667,0.5000000000000003,-0.18859403178514547,0.18603987204042866,0.3435300337202551,-1.6536242347825447,1.455247141979963,0.18353404991445132,0.23878421860577342,0.39135186110676123,2.2035888490747477,14.672968055272992,0.23878421860577342,0.04608960077166557,0.39684380064692765,2.800101295456961,0,True
15,0.5,0.5200000000000004,-0.11405067456414181,0.16136502971118047,0.3643370324309578,1.4576191770639335,0.4971219035955522,3.0968036559722383,0.26673567635757733,0.5105577022669654,3.24740317887079,13.789620773719427,0.26673567635757733,0.04587579891085625,0.39552695944437016,2.4964757336929186,1,True
16,0.5333333333333333,0.5400000000000004,-0.03121717356781576,0.13476153788193945,0.3042688125662601,2.6677414748300086,-0.19281187316932644,-3.026209954843942,0.29449519331201907,0.6293951594529147,3.3982426911924715,12.21799072697706,0.29449519331201907,0.04610919952392578,0.31272306984510845,1.5891484879317452,2,True
17,0.5666666666666667,0.5600000000000004,0.05987773985876885,0.15095984926119052,0.30153476161881004,-3.0834748988754166,-0.4929471217004737,-2.9687802266164205,0.3139618413754246,0.6648116129274989,3.317503691499949,8.21143657639138,0.3139618413754246,0.046448200941085815,0.2958978730581733,1.777171106535066,1,True
18,0.6,0.5800000000000004,0.10231762592266022,0.203183995472305,0.3080457430687464,-2.7511003799841935,-0.5698035094928042,-3.1014501184353946,0.3337334329682368,0.615280144594986,3.3709465504428633,8.814615870469648,0.3337334329682368,0.04684000089764595,0.33682059224785105,1.9075018312039762,2,True
19,0.6333333333333333,0.6000000000000004,0.0980335686379045,0.25046904260135633,0.31116509152983973,-2.5964623616993747,-0.6313843539972515,2.9226099329869797,0.33980372490052263,0.5596394680744514,3.1772693166863237,8.856754226256292,0.33980372490052263,0.04712500050663948,0.37094077570966705,1.8695116774142886,0,True
20,0.6666666666666666,0.6200000000000004,0.07290215172939941,0.2964429006235183,0.32173013235514947,-2.4977579788232105,-0.7279149920284818,2.4073847290967474,0.34087912214194865,0.5174352075906538,2.4076481119174393,8.506169911046179,0.34087912214194865,0.04738239943981171,0.40348346648373334,1.511012499226445,0,True
21,0.7,0.6400000000000005,0.06465555917157026,0.32080744319322685,0.33917468249641236,-2.6603488160939506,-0.907914404218548,2.2147130879456767,0.3289161778325447,0.5347714131368041,1.5184918889162637,7.264985090464531,0.3289161778325447,0.04758460074663162,0.4374159919240765,1.0949191982659987,0,True
22,0.7333333333333333,0.6600000000000005,0.0718414690894383,0.31955235591788356,0.3357168342755678,2.8236012534647723,-0.9871365437271323,-3.078669975872898,0.3173445130995239,0.43468726530222884,1.3163009114904454,9.16946711871343,0.3173445130995239,0.04772479832172394,0.44151538659278844,1.0997192078648508,0,True
23,0.7666666666666667,0.6800000000000005,0.10547014444957448,0.31270279500672243,0.3381344395144245,3.0387032047792872,-0.9917934578858617,-2.930352239153288,0.30473196473011294,0.3417615033650737,1.0576097232060402,6.68154517949583,0.30473196473011294,0.04783400148153305,0.4395839845639435,1.5139216218144316,1,True
24,0.8,0.7000000000000005,0.1485700711450425,0.3236227492981133,0.3474495279613366,-2.4949992273637247,-0.773624003604543,2.2718208981432046,0.3084776560390394,0.38540159824341663,1.0826286937803957,6.555834822389498,0.3084776560390394,0.04792160168290138,0.4578301400032544,1.348626622644373,0,True
25,0.8333333333333334,0.7200000000000005,0.2102240591990891,0.33935075645649115,0.3344319810435129,-2.7287138209972923,-0.7021798515908241,2.0422869170267823,0.30648635459848944,0.44842139490420907,1.2545151828612242,5.33258134608482,0.30648635459848944,0.04801519960165024,0.48589939557827827,1.0262861519685578,0,True
26,0.8666666666666667,0.7400000000000005,0.2549258893375978,0.3331486664087124,0.31277910220297367,-3.084335889549214,-0.8337430941416322,2.382686287927922,0.3165142458388473,0.4514189403265492,1.4497814098513457,5.296226918858472,0.3165142458388473,0.04812080040574074,0.49517450329195506,0.8634102909032881,9,True
27,0.9,0.7600000000000006,0.2764330717214481,0.3183838581625875,0.28796972194019405,3.0813309508137725,-0.8363901217772726,2.7566157787117,0.3226712507985601,0.39595110114532495,1.2352717541392733,4.722430503945115,0.3226712507985601,0.048248399049043655,0.4860474490007193,1.0407678130068323,5,True
28,0.9333333333333333,0.7800000000000006,0.2773044262856725,0.30413030071385316,0.2673919944596371,-3.025303516892024,-0.8182666334095747,2.6494116438736324,0.32792519983908314,0.35067498861045787,1.0371138959779058,2.8972520045207153,0.32792519983908314,0.04838699847459793,0.46821234054275007,1.1808716515187092,4,True
29,0.9666666666666667,0.8000000000000006,0.2555704334314054,0.30704579980904,0.25569978982072017,-3.080886457101541,-0.8863576191971443,2.1881619470428144,0.3301258338413788,0.34793008468581443,1.1606658517293864,5.635501324194245,0.3301258338413788,0.04856700077652931,0.45099846359725276,0.857021454100569,6,True
30,1.0,0.8200000000000006,0.2305187245788063,0.3270508296434548,0.24969716279333815,2.5911275347215525,-1.2287461429690694,2.146421855082044,0.3432556366960994,0.40293617551352556,1.651797795125161,5.947403224358674,0.3432556366960994,0.048752401024103165,0.4453985485707546,0.32319182366603083,0,True
31,1.0333333333333334,0.8400000000000006,0.2194437328538052,0.34782569648820105,0.24791379495584664,1.317690883194052,-0.7154378311404455,-2.786012744783744,0.3561918860105674,0.41066255381933847,1.8723261148630996,9.851551000641638,0.3561918860105674,0.04894860088825226,0.4559357154329162,0.7499820793436075,1,True
32,1.0666666666666667,0.8600000000000007,0.214975233838245,0.34413753520213874,0.23628000593078816,1.679574336642543,-0.17608574912389321,-2.328887324967759,0.36786108452172117,0.32292876536739007,1.3169689807639196,13.027373940406195,0.36786108452172117,0.049120400100946426,0.4485847228983741,1.5728298054115573,0,True
33,1.1,0.8800000000000007,0.24733777204713805,0.3367289665078858,0.23293431240742252,1.6602593367781577,-0.4604778454634744,-2.744411168152976,0.3809025717532069,0.2874395233485518,0.8341293011783726,9.610721585681885,0.3809025717532069,0.04927999898791313,0.45201466079707603,1.4060829509346497,5,True
34,1.1333333333333333,0.9000000000000007,0.2920409293669442,0.3088725410333862,0.24496930930074548,0.7566262609982484,-0.8684488604813533,-2.5824950424686373,0.3927749177509081,0.310003657409435,1.1933863067142796,8.128548301368907,0.3927749177509081,0.04938020184636116,0.4655930734322893,0.9007507854272973,8,True
35,1.1666666666666667,0.9200000000000007,0.31511954900554273,0.25176351062811403,0.22784499385497822,0.13200889080437558,-0.1761136212897355,-2.3964967310845053,0.40596629304600756,0.37946524544222365,1.4099200204345008,8.991219416468072,0.40596629304600756,0.04946859925985336,0.45108866385174384,1.588283537415427,11,True
36,1.2,0.9400000000000007,0.31576198415175455,0.23347197005848316,0.20209733036414193,0.14824708953279317,0.0941948486703699,-2.5065524501115855,0.42144739522192803,0.42544523419452174,1.7054934583856212,6.223404294497719,0.42144739522192803,0.04953340068459511,0.415117443835889,2.063323344232429,3,True
37,1.2333333333333334,0.9600000000000007,0.3611768986004932,0.2478371978671371,0.20076141826765684,0.43178753178896495,-0.9705071000229558,-2.686822928505981,0.437716228367714,0.46559758985374666,1.3052006037834896,12.449529159250853,0.437716228367714,0.04958539828658104,0.4461034657386645,1.4274913574932762,2,True
38,1.2666666666666666,0.9800000000000008,0.3585682834404709,0.19893235651608834,0.20012530159526087,-3.0854568087935736,-1.5468089767834232,0.6486321591477104,0.4484459706208139,0.41693199874980746,1.3761919311484518,8.591424998840099,0.4484459706208139,0.04963099956512451,0.4419247217190774,1.047719019315174,1,True
39,1.3,1.0000000000000007,0.3253496047003714,0.1517770373377873,0.22213389390078597,-1.7505312694258672,-1.3072775109971353,-0.902159640104714,0.46431107694670964,0.3788583249550202,1.282638909194,7.320615481036628,0.46431107694670964,0.04965920001268387,0.3960043002582471,1.2584990493008579,1,True
40,1.3333333333333333,1.0200000000000002,0.30344421360806406,0.11021308618752516,0.28769236561354605,-0.6132377906318254,-0.5844708808452637,-2.447875070583696,0.4856648937603628,0.35305328324559815,1.5005938626461899,11.508675242587845,0.4856648937603628,0.04967980086803436,0.3897299673714016,1.7570846026768705,2,True
41,1.3666666666666667,1.0399999999999998,0.2755490899600103,0.07716408339822446,0.34191866438247903,-0.629780060636015,0.15513140157071423,-2.930393824896515,0.5062344644913328,0.44056029578130945,1.7274174658728874,5.066292913368929,0.5062344644913328,0.049685198813676834,0.3994599946006775,2.6114648346955445,2,True
42,1.4,1.0599999999999994,0.25886687324096214,0.08165652860497545,0.35512257414239734,-0.39109882437118604,0.3055486982082681,-2.8062590275100225,0.5253495800745449,0.44433662476239905,1.7071026918694132,7.329309141578958,0.5253495800745449,0.04969180002808571,0.39954922829909006,2.673902150053117,0,True
43,1.4333333333333333,1.079999999999999,0.3003537138028821,0.09831320818856967,0.32526174432793237,0.2275257018604979,-1.1135903532058902,-2.9158200121063116,0.5384772099764255,0.45311159406124385,1.6452071814227134,12.66031039829309,0.5384772099764255,0.049699001014232635,0.4137358606264976,1.6856744886425157,4,True
44,1.4666666666666666,1.0999999999999985,0.30367864209398415,0.015488291439234452,0.37777129708294566,1.5213266843777498,-0.991491546123,1.9511426984664715,0.5500766998846836,0.47556510325569495,1.7923444945220386,9.502085232605797,0.5500766998846836,0.04971640184521675,0.42097369581790306,1.5084484581235398,4,True
45,1.5,1.119999999999998,0.2785250871137787,-0.021756434229815977,0.502134125313679,0.789389478501431,-0.2707334691373169,2.932525858380167,0.5607328991510667,0.48386071639230654,1.7659597940287313,13.715045773134502,0.5607328991510667,0.0497342012822628,0.49905233443660046,1.661543256670028,3,False
46,1.5333333333333334,1.1399999999999977,0.20058904422183096,-0.04900620314575127,0.6367874393787138,0.7836839101612643,1.1880295088414234,-2.422114250608139,0.5724381292820182,0.5537136876020009,1.5201287629631324,13.85435859189247,0.5724381292820182,0.04975280165672302,0.5935659564700483,2.7236408426065886,1,False
47,1.5666666666666667,1.1599999999999973,0.18411222147494255,-0.07671221166156428,0.7089638590627071,1.3324075482259852,1.3177327287553418,-1.5529477352489336,0.5833616573243493,0.4939832130232889,1.6588877222836023,10.186408748753705,0.5833616573243493,0.049780599772930145,0.6699049647369438,3.130232556147729,0,True
48,1.6,1.1799999999999968,0.18276796366162537,-0.06289933873334629,0.7554953549170099,0.9236104726853855,0.440572426127432,-2.4119797887426224,0.590817513107526,0.46617534655025306,1.8056805449231426,20.578084233068992,0.590817513107526,0.04981299862265587,0.7169224943335082,2.518277972959995,0,False
49,1.6333333333333333,1.1999999999999964,0.18853828570061212,-0.09769354473329928,0.7444692788506724,1.4350178869134966,0.13195240581837928,-3.0507028014682986,0.5985250370512006,0.6119614163400889,2.4922764749931234,11.340407421544068,0.5985250370512006,0.049851998686790466,0.7254836471416023,1.7948769929297979,1,True
50,1.6666666666666667,1.219999999999996,0.16724120502532475,-0.1965599587368032,0.6948257258188563,2.3395584325168732,0.04789886217735709,-2.314057978399231,0.6030087322590499,0.5973589201045931,1.8004861133994683,12.30101062475777,0.6030087322590499,0.0498926006257534,0.6886338382066173,1.9962535889774287,1,True
51,1.7,1.2399999999999956,0.17279822855634702,-0.2867007552333065,0.7539183929051213,-2.7457503075019716,-0.5300775966479279,2.8319670099687397,0.609824681392902,0.5977989851048965,1.7098192854023346,10.42046817704533,0.609824681392902,0.04993639886379242,0.7401862324322769,1.8298698358871257,0,True
52,1.7333333333333334,1.2599999999999951,0.19151598372463297,-0.23412503551134092,0.8324222647634575,-2.9995731516282116,-0.004142857615441435,2.3162715037599417,0.6107333808173985,0.6417875777204181,2.2107335147812197,21.68623698224531,0.6107333808173985,0.04997580125927925,0.8290576202860921,1.466945126229896,0,True
53,1.7666666666666666,1.2799999999999947,0.16138341941619022,-0.20697248127094223,0.7857340379296951,-2.7927973626869527,0.5927489597691329,-2.7381626335356444,0.61413785695671,0.6115145335804724,2.3149483287816017,18.364040089116923,0.61413785695671,0.05001299828290939,0.8035257822564467,2.3555939376486195,0,True
54,1.8,1.2999999999999943,0.27505971477505486,-0.3142180501762826,0.6983109585333588,-1.0620078870847964,0.07273141298490889,-1.1097067136150434,0.6146888861118124,0.6783755703002361,2.8108428994845465,30.606310858383846,0.6146888861118124,0.05004420131444931,0.7460508656144542,2.5356997928981357,0,False
55,1.8333333333333333,1.3199999999999938,0.27182040030752497,-0.23556922570977396,0.8041183327824737,0.5889845275385068,-0.8669408021135815,-1.5708278980341288,0.6113068662106041,0.7902137668352645,3.489399332158864,13.773777743850314,0.6113068662106041,0.050074800848960876,0.820413018828662,0.9122516875291641,0,False
56,1.8666666666666667,1.3399999999999934,0.2396552259877957,-0.05322261383849364,0.7335180373135008,1.8950877894229106,-1.2208957816051198,-2.469299693619572,0.6095073389061564,0.661859429787701,3.013891415143191,18.70196559623591,0.6095073389061564,0.05010420083999634,0.7514437967694525,1.0313166841500654,0,True
57,1.9,1.359999999999993,0.29912255155052775,0.11150474760321825,0.6349898137932859,1.9693346282685265,-0.6442057529043608,-2.7329477403754394,0.6112327266513317,0.7811086226401488,3.5137685549019686,19.515841614995846,0.6112327266513317,0.050128400325775146,0.6643604905165059,0.851015017608945,0,True
58,1.9333333333333333,1.3799999999999926,0.13913850543131157,0.06610875650682649,0.5931338534184856,2.6956758264260574,0.09472450458145962,-1.9448432201220587,0.605481950972412,0.8567495336748459,3.9260079989352548,12.450556789922901,0.605481950972412,0.05014999955892563,0.6074589014212912,2.24642336937363,18,True
59,1.9666666666666666,1.3999999999999921,0.03458851054276818,-0.005071038919624276,0.3641349454407718,-2.151381180040551,-0.17596244891891963,-1.9783585524856997,0.6032839149759789,0.856788636240658,3.7616173677747984,19.89126491770475,0.6032839149759789,0.050169799476861954,0.37126090636467673,3.082761109068198,14,True
60,2.0,1.4199999999999917,0.08805415797611943,-0.016826681780841103,0.3632735840661084,-1.600199448675651,0.03805529610666225,-2.0171619554325066,0.5982912598112007,0.6954588039724899,3.152346429714451,15.48008017816756,0.5982912598112007,0.050186000764369965,0.30090272283963737,2.6864481931484203,11,True
61,2.033333333333333,1.4399999999999913,0.13551622770831528,0.012523237250093529,0.47157342604433017,-1.3338710838396877,-0.1256234389768967,-1.6305774149573016,0.5933783384107619,0.6003707508820869,2.1031345848113636,13.110615234109998,0.5933783384107619,0.05019500106573105,0.4062861915725925,2.2804904204390697,10,True
62,2.066666666666667,1.4599999999999909,0.1071760092028145,0.03706317756597112,0.6053883025044743,-1.2834824326047993,-0.6480663412879413,-1.1801376448303538,0.5837969467301789,0.5802075983355562,1.5782812785488507,10.597183683753583,0.5837969467301789,0.05020679906010628,0.5338313906711963,1.6180115246103057,0,True
63,2.1,1.4799999999999904,0.04144934858922149,0.05519384312531512,0.7272780281389413,-1.7273625112972686,-1.0371183007609919,-0.23531710047754442,0.5769077178579632,0.5724425328543654,1.8636212336249,8.468302644562314,0.5769077178579632,0.050220001488924026,0.65376972970302,0.9507971802130152,0,True
64,2.1333333333333333,1.49999999999999,-0.006835825460638642,0.08553536322068545,0.7939535055389085,-2.510232901250304,-0.8140260479087562,0.9683557372808546,0.5764855488925834,0.5150277712182435,2.213711311147186,7.788165223101285,0.5764855488925834,0.050243400037288666,0.739844930225077,0.5470941853626803,0,True
65,2.1666666666666665,1.5199999999999896,-0.017560351778891013,0.11177460231160702,0.7945844687017086,-2.4982554451764303,-0.36943422787576413,1.148698426137428,0.5716398848082265,0.4402647133232698,1.9498160636003028,9.119460162410343,0.5716398848082265,0.05027259886264801,0.7597041337551627,0.9230944660723368,0,True
66,2.2,1.5399999999999892,-0.020614905694202674,0.1344640667107762,0.7521077286921264,-2.4441357760315614,-0.22851650803872664,1.0409255388660619,0.56945117306074,0.4231623896546901,1.1468050908356693,9.362497346750173,0.56945117306074,0.050313398241996765,0.7280889678717859,1.187522808890903,0,True
67,2.2333333333333334,1.5599999999999887,-0.018365479413058015,0.135037178424407,0.7274427749526565,3.0850522650888506,-0.9096560276574545,2.022551446555853,0.5700123694445406,0.3741690486326779,1.3209302368149944,15.38760746565375,0.5700123694445406,0.05035980045795441,0.6979155511416503,0.6657035496162664,0,True
68,2.2666666666666666,1.5799999999999883,-0.05901635275809862,0.060620406369906996,0.7779501346675112,-3.062780666191809,-0.49483772288000755,-3.0012438489301223,0.5687329428991643,0.5456998820624326,1.9021285707487845,12.159197043587259,0.5687329428991643,0.05040900036692619,0.714641444048713,1.5894219949752237,1,True
69,2.3,1.5999999999999879,-0.20608252845642372,0.0866169244389979,0.8869619411668672,-1.8274664459318262,0.6528297376218125,2.340899350408213,0.5672033859714424,0.5251650027053961,2.1597359799966815,22.479477939780686,0.5672033859714424,0.050453998148441315,0.8380185922119318,2.2101389786490335,1,True
70,2.3333333333333335,1.6199999999999875,-0.38678888844260095,0.17622818597956005,0.8044127343966672,1.169563063663439,1.1316915312789406,-1.5342746208877998,0.5690986768026546,0.5977288356536019,1.7951240287585328,13.60395511464482,0.5690986768026546,0.05049600079655647,0.8945746140437646,3.0639020120846485,1,False
71,2.3666666666666667,1.639999999999987,-0.4064896745809173,0.11365875908569595,0.7988214960260323,0.9619434052274428,0.185798302946924,-1.9792093189949882,0.5648449841309109,0.5691805017846647,1.7766053063030667,15.746836275625153,0.5648449841309109,0.05053199827671051,0.8547160627460788,2.176253506174111,0,False
72,2.4,1.6599999999999866,-0.3749451056537216,0.07420592936970645,0.9695689459842911,0.3373660122836567,-0.5438332762214323,-2.23940810364113,0.567188608280726,0.5737629518263789,1.9182652494019738,18.799434328892083,0.567188608280726,0.050567999482154846,0.9627706633244565,1.3582365271200836,3,False
73,2.433333333333333,1.6799999999999862,-0.3483306939460662,0.295781884407566,0.957903854667473,-3.1122957267208307,-1.3409995250492368,1.306214684720928,0.5647808825811877,0.5238161392143647,1.5756872413868568,20.070369625104554,0.5647808825811877,0.05060400068759918,1.0698298336760723,0.7928217979877177,0,True
74,2.466666666666667,1.6999999999999857,-0.3249389472094373,0.23546683400387733,0.6852829273887812,-2.837123655997653,0.23144906199894322,0.23464315974960734,0.5593720001972289,0.5706594552477333,2.35007119342066,29.74926833494079,0.5593720001972289,0.05068020150065422,0.8057294541983666,1.5814901164592525,0,True
75,2.5,1.7199999999999853,-0.0630850215783327,0.583861022537352,0.6846128033271024,0.20340360215106448,0.2815946149422707,-0.2920403769958044,0.5554910373282598,0.7765028690031857,2.4773368586323374,63.1675980320278,0.5554910373282598,0.05080980062484741,0.7740786096298602,2.6980032637590314,8,False
76,2.533333333333333,1.739999999999985,-0.0601137469011752,1.0080510310114696,0.4075348646666404,-3.0015776134495176,-0.3188214652790045,0.5318302223764354,0.5549455934455438,0.8946400183907678,2.7241654861164792,113.10524011965303,0.5549455934455438,0.05104620009660721,1.0539678502471748,2.1996183427928364,2,True
77,2.566666666666667,0.005,-1.1480881223846488e-20,-1.3123904640009874e-20,0.7927547500000001,6.034580954058631e-20,0.0,0.0,0.5508384518559286,0.5508384518559286,1.5898467669875147,3.376579830850873e-17,0.0,0.05123100057244301,0.7420121936566358,2.0351869003953516,0,False
78,2.6,0.025,-0.0070017710822796436,0.004908464562251356,0.7921385722137803,-0.051049316875443715,-0.1288090147254664,-0.08510581414907277,0.5526613735477403,0.5097733716708717,1.4027906787725564,3.3663269755405043,0.5526613735477403,0.05138999968767166,0.7409151654699951,1.9143080751727086,4,False
79,2.6333333333333333,0.045,-0.0072524360034755845,0.01251221170752461,0.7875812363181592,-0.11970900931360767,-0.24553752887525476,-0.16375741580956674,0.5527435850003876,0.4591645669064994,1.256149452717613,3.3225775382235736,0.5527435850003876,0.05048760026693344,0.7398040121680577,1.7569609279948084,2,False
80,2.6666666666666665,0.06499999999999999,-0.0021993353107159198,0.02012582480889501,0.7725726411146256,-0.18668812960740147,-0.3515594550685604,-0.236129466833129,0.5480545971438644,0.4044418427297456,1.2234711376811274,2.8972631299199407,0.5480545971438644,0.04979480057954788,0.7281834603327771,1.6017265133070313,1,False
81,2.7,0.085,0.00514095045755746,0.0254187072881454,0.7484673978972992,-0.24365407096188882,-0.4506886812926768,-0.2961776920464661,0.5426566915545744,0.35938880253993105,1.1799993824482493,2.68186498470078,0.5426566915545744,0.049521200358867645,0.7064310453384742,1.460487076264835,2,False
82,2.7333333333333334,0.10500000000000002,0.012812124104895671,0.027614137284347265,0.7170414795776802,-0.29597906391797346,-0.5430993404370003,-0.34328835984089456,0.5498916996334114,0.3223858576119516,1.1193211695887506,2.3121251618387095,0.5498916996334114,0.049372799694538116,0.6771045935753286,1.3337865198541548,2,False
83,2.7666666666666666,0.12500000000000003,0.019232632742278738,0.025907971915654186,0.6795791577227206,-0.3431863719567754,-0.6326921164776597,-0.3774180500889612,0.5522995256061397,0.28946626693970284,1.0454334467852173,2.36394566077631,0.5522995256061397,0.04928699880838394,0.6409179011574567,1.2169527627195145,2,False
84,2.8,0.14500000000000005,0.02352966091768153,0.01987932918547789,0.6393143199520184,-0.38765977661189505,-0.7196600866141567,-0.3997431982696253,0.5529575942448315,0.26177165614798764,0.9602673234157164,2.3490821826215242,0.5529575942448315,0.04925220087170601,0.6008190454600136,1.1100735455087276,1,False
85,2.8333333333333335,0.16500000000000006,0.025119939485653095,0.009806680582809889,0.5989089516769625,-0.43499863232123087,-0.8035344195842868,-0.40871054445738103,0.5527780847227097,0.23091555302120076,0.8657845672710826,1.975558476898613,0.5527780847227097,0.04922400042414665,0.5601276057380556,1.0100374285923328,2,False
86,2.8666666666666667,0.18500000000000008,0.023466936742021292,-0.004606851378601775,0.5610508876582914,-0.4880246702909574,-0.8848901043221536,-0.40171239639571893,0.5453242766167317,0.2104268285947283,0.7646485291044441,2.0321548609433764,0.5453242766167317,0.049208998680114746,0.5211187318930451,0.9135552267960286,2,False
87,2.9,0.2050000000000001,0.01786437790597682,-0.021220328783600216,0.5252395656937666,-0.5498461349889155,-0.9559941006302918,-0.37643991616263156,0.54258058176347,0.20035318664694374,0.6634592031690629,1.9102593896921078,0.54258058176347,0.049204401671886444,0.48519886647985216,0.8270792137329817,0,False
88,2.933333333333333,0.22500000000000012,0.008056607374751487,-0.03714965916977994,0.48858693656605595,-0.6206956528227229,-1.0213455585978521,-0.33920434317068054,0.538309768701573,0.19327500663129274,0.7144033249285073,1.854539548780615,0.538309768701573,0.049205001443624496,0.44927383332420556,0.7499459082750103,1,False
89,2.966666666666667,0.24500000000000013,-0.005657459291071315,-0.05212745212907938,0.4518124539431374,-0.7075607824117073,-1.0806435657678124,-0.2812006083951252,0.5313559064447051,0.18361581594423154,0.7898655800933277,1.7445021363650257,0.5313559064447051,0.04921159893274307,0.4142119866560426,0.6762649758657934,1,False
90,3.0,0.2650000000000001,-0.022545325957390967,-0.0651465737369673,0.41410702683660333,-0.8093817341724918,-1.1344173586461792,-0.20522219186069543,0.527650195220257,0.17516415443033553,0.8455405440960921,1.6360731154934296,0.527650195220257,0.04921939969062805,0.3798407984494928,0.6073266543960019,1,True
91,3.033333333333333,0.28500000000000014,-0.04972622932821929,-0.07608151397810468,0.38491576776432423,-0.9630790978439521,-1.205668479529659,-0.05063771150768183,0.5214940215250049,0.1753045049421405,0.8995955537442669,1.820221382598036,0.5214940215250049,0.04922959953546524,0.35325606642194946,0.5354996730643868,2,True
92,3.066666666666667,0.30500000000000016,-0.07910016853174116,-0.08025748837748334,0.35636231193912504,-1.212994139348482,-1.2463604827741026,0.17835099254526268,0.514879410560574,0.1820828820155581,0.9516000514952431,1.4067594183367997,0.514879410560574,0.04923899844288826,0.3352658888021852,0.4723009321580688,2,True
93,3.1,0.3250000000000002,-0.09548383489782211,-0.07803460540473076,0.32563795588028355,-1.3644235563319416,-1.292635243656575,0.25583859681654714,0.508224629419819,0.18250316279664347,0.9798074158017294,1.8817639553172856,0.508224629419819,0.049247998744249344,0.3113328887201295,0.38265343277566244,9,True
94,3.1333333333333333,0.3450000000000002,-0.10682967881217616,-0.07511311871544772,0.30064859338539407,-1.40837241886379,-1.378696658411061,0.283792929012957,0.5073509756717407,0.17745368576718948,0.9709252126655581,1.9551352808456581,0.5073509756717407,0.04926300048828125,0.2922544915683919,0.30873798207650455,3,True
95,3.1666666666666665,0.3650000000000002,-0.1136045428035354,-0.07143644676193081,0.2793487034299979,-1.4855412606923668,-1.4034201725836795,0.3506255395124041,0.5030713907361628,0.1758109227095793,0.9319116719106023,1.3592437928573686,0.5030713907361628,0.049278199672698975,0.2758270067434705,0.28464201484521684,2,True
96,3.2,0.38500000000000023,-0.11827762783788588,-0.06805491649804092,0.258189939097486,-1.4593636687911433,-1.452017223467467,0.31484986821350086,0.5028253107231854,0.1723588915346793,0.8668238165318598,1.3574074296590106,0.5028253107231854,0.04929380118846893,0.2599327859458498,0.26750665687116815,1,True
97,3.2333333333333334,0.40500000000000025,-0.12063026013439453,-0.0642340641884138,0.23616278718145567,-1.4964782259171545,-1.46475945548788,0.3344712444917942,0.5017386359319262,0.17573969355914762,0.8262956750086288,1.0184314551356133,0.5017386359319262,0.049316998571157455,0.24278290690927004,0.2521384697975207,4,True
98,3.2666666666666666,0.42500000000000027,-0.12065572680825468,-0.06333609015887794,0.21506176762052276,-1.0865486867008232,-1.5114140358952988,-0.08671762729293171,0.5002268012044628,0.1781797970486597,0.797227406488334,1.1454525258664512,0.5002268012044628,0.04934399947524071,0.22638521329154113,0.25660505450812715,1,True
99,3.3,0.4450000000000003,-0.12034985018777553,-0.060736168764660106,0.19370839259766584,-1.2928101638710392,-1.5237845041071985,0.11575901012783125,0.4961428748631257,0.18558246100258902,0.7867366093828212,0.9600376784661865,0.4961428748631257,0.04937940090894699,0.20975937764992647,0.2533521087611718,2,True
100,3.3333333333333335,0.4650000000000003,-0.11883817065090065,-0.05665866600183742,0.17520955512615782,-0.24276076045152215,-1.5329976597403767,-0.948914079134048,0.49880092333618226,0.18863090390675546,0.8365574689531822,0.9365018590364936,0.49880092333618226,0.04941299930214882,0.19500075609190456,0.2615602357221657,1,True
101,3.3666666666666667,0.4850000000000003,-0.11767685348845666,-0.053692135957180455,0.15536847252847044,0.3399168312621716,-1.5402238546076794,-1.530701054642474,0.5031118226618692,0.19162182129598565,0.9024872213590762,1.0115991359537242,0.5031118226618692,0.04944299906492233,0.18062981968070024,0.27235915962572615,1,True
102,3.4,0.5050000000000003,-0.11533377733991726,-0.04978998021271263,0.13865900528267094,0.5931006268421731,-1.5184938774388261,-1.7996353626852024,0.5045691696177703,0.19135942611944684,0.9520430404778805,0.7474725083065606,0.5045691696177703,0.0494690015912056,0.1677960940443203,0.27384273414052057,3,True
103,3.433333333333333,0.5250000000000004,-0.11321958954138499,-0.04628680654948196,0.1217758229177614,0.868457282025639,-1.5007712953016008,-2.0735653546454857,0.5033607316701839,0.1914789968529851,1.0069582511701367,0.9658091650018423,0.5033607316701839,0.04949299991130829,0.15662993155492297,0.2963801596780222,4,True
104,3.466666666666667,0.5450000000000004,-0.11014202483988833,-0.04258845874490705,0.10703229320581274,0.8598901854864361,-1.477844112336217,-2.0778039499875933,0.5037095701700984,0.1913189291701158,1.0626584651203717,0.7281384560324111,0.5037095701700984,0.049531400203704834,0.14616357171694272,0.3011084445961695,9,True
105,3.5,0.5650000000000004,-0.1071595701665501,-0.03973606699880917,0.0938749762944562,0.934552711818891,-1.4510807674481088,-2.1495668189759107,0.5026758123285326,0.19324014967347858,1.1157033790973525,0.76533962057441,0.5026758123285326,0.049572400748729706,0.13790729284068884,0.329686965840481,5,True
106,3.533333333333333,0.5850000000000004,-0.10271884986853297,-0.03820224008451995,0.08317265862377235,0.8972856205902281,-1.4324041906993572,-2.116058609291917,0.5069960657011445,0.19245505810200536,1.1216430434820652,0.8371305102523332,0.5069960657011445,0.04961860179901123,0.13012395469287016,0.34698224474034517,9,True
107,3.566666666666667,0.6050000000000004,-0.09830115719638924,-0.03680966542098771,0.07475399028888365,0.828371447562484,-1.4427286137448507,-2.059755351225446,0.508880254716452,0.19510643366106298,1.13643197393799,0.8378890428923791,0.508880254716452,0.049670398235321045,0.12354305434185317,0.34255222229125415,6,True
108,3.6,0.6250000000000004,-0.09302192759531695,-0.03477905833020575,0.0700860125643373,0.6750799746481726,-1.4475241010826945,-1.9309499570299482,0.5109632764688484,0.1942242398815627,1.1434074613695937,0.6464077072456657,0.5109632764688484,0.0497249998152256,0.11720664343628903,0.3277619264094504,6,True
109,3.6333333333333333,0.6450000000000005,-0.08767571424030778,-0.032270046615069825,0.06697037213894458,0.5599792484281232,-1.4552153353880664,-1.8357263594163604,0.5120074393838142,0.18862920037792424,1.1602670189548667,0.5504350956891094,0.5120074393838142,0.04979339987039566,0.11103644091864162,0.31685806562495505,4,True
110,3.6666666666666665,0.6650000000000005,-0.08260583995063943,-0.029332335873523446,0.06670489347994085,0.3871400512891297,-1.4680354305639665,-1.6824175423585097,0.514441578455471,0.18295128243402656,1.1274119078618328,0.633909835143395,0.514441578455471,0.0498615987598896,0.10546481135568254,0.2994886795066045,6,True
111,3.7,0.6850000000000005,-0.07791654248223774,-0.02613691413679976,0.06728739342476973,0.2531140685611613,-1.471738901820614,-1.5650531605559448,0.5130285187026542,0.18235334760226157,1.0992431271131191,0.46953212643947917,0.5130285187026542,0.04992939904332161,0.10050849796267834,0.2894728185988872,4,True
112,3.7333333333333334,0.7050000000000005,-0.0736598018247932,-0.022779585626202303,0.06699396818441897,0.07775559385039886,-1.4829880018352855,-1.4022258824188834,0.512534168305934,0.1780901673867057,1.074340421593362,0.5239960738353124,0.512534168305934,0.049997199326753616,0.095871586790083,0.27495083742870036,6,True
113,3.7666666666666666,0.7250000000000005,-0.06983790787433881,-0.01931536526204128,0.06728940238363929,-0.131190495093494,-1.487363440385947,-1.206849476280045,0.5139674668291289,0.16953713478665589,1.0635464412977331,0.44317875884398694,0.5139674668291289,0.05006499961018562,0.09194777316468822,0.2616762851098658,5,True
114,3.8,0.7450000000000006,-0.06587375676132169,-0.015784181803956323,0.06699291417560914,-0.3814345954137261,-1.4915830487303494,-0.9685356515812384,0.5142765914190176,0.16627961378685185,1.0449355571487997,0.46532190255680517,0.5142765914190176,0.05013459920883179,0.0880558547880257,0.2478370365938268,5,True
115,3.8333333333333335,0.7650000000000006,-0.06206410605146566,-0.012399199643233149,0.06608218538971995,-0.5919530406524208,-1.4906638873785094,-0.7695171024186714,0.5125027352373931,0.16221216409118314,1.0182119205391558,0.4096168251031049,0.5125027352373931,0.05020400136709213,0.08421779002960333,0.23664607345087607,5,True
116,3.8666666666666667,0.7850000000000006,-0.058317643743673646,-0.009415437979291072,0.06481223795332706,-0.842494675939419,-1.488885071792492,-0.5260294208527175,0.512189667650976,0.1608950567130734,1.0174392658167237,0.48659846429466436,0.512189667650976,0.050273001194000244,0.08056419640289791,0.22338464819202758,5,True
117,3.9,0.8050000000000006,-0.054777272326822085,-0.006655921857866695,0.06332829925930351,-1.0514034312609815,-1.4807451513502201,-0.3254204441801154,0.5143377619739324,0.1601744818922652,1.0043158067494504,0.4020966684901163,0.5143377619739324,0.05034159868955612,0.07713651104495979,0.21046108637040206,3,True
118,3.933333333333333,0.8250000000000006,-0.05196945572746444,-0.004477735204967568,0.06260899183769138,-1.2000692167511233,-1.4783920378599393,-0.17960370613656781,0.5146883980970284,0.1629020031746069,0.9807735880024258,0.38059570473234006,0.5146883980970284,0.05040999874472618,0.07441227290737631,0.20104966812038846,5,True
119,3.966666666666667,0.8450000000000006,-0.04975033721358804,-0.002809131684196357,0.062379365881158805,-1.3805713462442737,-1.4795276271585192,0.0038366862718168847,0.5155291742030187,0.16353938716332111,0.9627151924927058,0.3749432415136063,0.5155291742030187,0.050477199256420135,0.07252207422648381,0.18509615529902124,5,True
120,4.0,0.8650000000000007,-0.04789387080079107,-0.0014261718150227508,0.06248749249787816,-1.5907908383005065,-1.4736696327015655,0.21956607741686668,0.512159884053385,0.1644543126452125,0.94586157975874,0.39924887288304656,0.512159884053385,0.050544001162052155,0.07101739903351947,0.16455132264574532,4,True
121,4.033333333333333,0.8850000000000007,-0.046471847858140305,-0.00035094148698618316,0.06294427671344886,-1.7545620459927989,-1.4694590940056143,0.3916669214952256,0.5100593124660149,0.16535388979838433,0.9326327539166522,0.3921445154274333,0.5100593124660149,0.050609998404979706,0.07001608937446704,0.1467751497638077,4,True
122,4.066666666666666,0.9050000000000007,-0.04514257980641874,0.0005874695607229713,0.06359289889068923,-1.9094237500411415,-1.4600115441847177,0.5570004406299506,0.5117010534645813,0.16543792279345937,0.9215531659072587,0.4278648002211002,0.5117010534645813,0.05067479982972145,0.06922400845574665,0.1277590611884777,2,True
123,4.1,0.9250000000000007,-0.04368340162887696,0.0016589548237107602,0.0648625165896919,-1.9697229094281379,-1.4517932706585144,0.6233528675819792,0.5124113997807423,0.1675551792295481,0.9094934709544377,0.26639841165241585,0.5124113997807423,0.05073900148272514,0.06840789871359013,0.11380879017346508,5,True
124,4.133333333333334,0.9450000000000007,-0.042592022264660176,0.0024941402729622524,0.06577272465019858,-1.9944573608779994,-1.4517812186270571,0.6567075921678526,0.5137011920703017,0.16611906879174335,0.9023107733314949,0.2863430521449406,0.5137011920703017,0.05080080032348633,0.06794351718248945,0.11115802612734767,3,True
125,4.166666666666667,0.9650000000000007,-0.041705971244032414,0.0030122236347447395,0.0660446034313723,-2.0175800638421704,-1.4529511861751725,0.6893928164733246,0.5163793311824844,0.1665922672696451,0.8975798556241227,0.29425309797979676,0.5163793311824844,0.050861600786447525,0.06741183229681885,0.10919081243970671,6,True
126,4.2,0.9850000000000008,-0.040700716538830194,0.0033751144357662063,0.06568426913368135,-2.038760700259154,-1.452702060595776,0.7201645246877502,0.5199320480362568,0.16295217607018161,0.8946177505249648,0.2946993690188849,0.5199320480362568,0.05092040076851845,0.06671093465884197,0.10872691343979057,6,True
127,4.233333333333333,1.0050000000000006,-0.03959460115495171,0.003657487217635557,0.0647340388093515,-2.0592272851229763,-1.454073843717156,0.7504279748519127,0.5147605146962749,0.16071224064209896,0.8932134930751585,0.32323520541537243,0.5147605146962749,0.05097559839487076,0.06578858420354754,0.11046822092272669,5,True
128,4.266666666666667,1.0250000000000001,-0.038141217954438464,0.004027576313207292,0.06358891315465777,-2.070790590562206,-1.4545547660644815,0.7691399245193467,0.5113211277318779,0.15813688032642753,0.8890440486075755,0.2649998692772756,0.5113211277318779,0.05102900043129921,0.06443657382813313,0.11119259449206038,5,True
129,4.3,1.0449999999999997,-0.036807701117140434,0.004354203066287265,0.06232130990313297,-2.067818275156186,-1.4557893489846885,0.7738166869326126,0.5140643875591026,0.15465296601940334,0.8876410634943322,0.22955218984794684,0.5140643875591026,0.051072798669338226,0.06322297064425775,0.11562295007563632,5,True
130,4.333333333333333,1.0649999999999993,-0.035413031013328315,0.004638890933392028,0.060713538626032355,-2.05272686679615,-1.4614886025886378,0.7648218695384612,0.5126709691089556,0.15714637384654848,0.8856810686868719,0.28471921007434736,0.5126709691089556,0.0511137992143631,0.06185506312063225,0.12130237433888678,4,True
131,4.366666666666666,1.0849999999999989,-0.03431444514240793,0.004887985262181816,0.05952254542314275,-2.0346765107172,-1.4664367340101307,0.7556707907231054,0.5128186315056905,0.15931555459789767,0.8811880137408763,0.2573459848005209,0.5128186315056905,0.05114920064806938,0.060731960994055846,0.12973239195453265,5,True
132,4.4,1.1049999999999984,-0.03360102061405013,0.005249438663952551,0.059631928306135264,-2.020267188120276,-1.4688635163505408,0.7480632479975946,0.5112980153765353,0.15771150097932432,0.8724461550769085,0.2020770317402205,0.5112980153765353,0.05117740109562874,0.06022045405790587,0.1357255231639163,6,True
133,4.433333333333334,1.124999999999998,-0.03286945972324974,0.005597345439392107,0.05966495474801222,-1.9832910110097097,-1.4672798155596816,0.7152797499149978,0.5096083674962599,0.1549010211633879,0.8653401389871926,0.23635735892842288,0.5096083674962599,0.05120199918746948,0.059831194847791085,0.1400008012549617,6,True
134,4.466666666666667,1.1449999999999976,-0.03185904712191501,0.006029146533232838,0.05932763944393387,-1.952421600725853,-1.471471678453251,0.6853428909082802,0.5089585463802528,0.1510522672617402,0.864004190200858,0.21084526670054943,0.5089585463802528,0.05121460184454918,0.0591962365661966,0.14381862546743354,6,True
135,4.5,1.1649999999999971,-0.03108416851316166,0.006318672482262489,0.05912645623981338,-1.9050414458832376,-1.473046445922767,0.6404421857704637,0.5078571097092947,0.14915659920047783,0.8598437537142367,0.1977118539203391,0.5078571097092947,0.05122679844498634,0.05862118642308802,0.14971162940471996,6,True
136,4.533333333333333,1.1849999999999967,-0.030393580290234156,0.006587867906794656,0.05883954721189609,-1.8643351363709018,-1.4767182618674477,0.6006289537404081,0.5065366297947186,0.151117131973453,0.8583966704514471,0.17465210190416214,0.5065366297947186,0.051238201558589935,0.0581328363475337,0.15368427390244221,7,True
137,4.566666666666666,1.2049999999999963,-0.029924191422010794,0.006734502495834969,0.058785427087122526,-1.8276684110131347,-1.4771099311424924,0.5659665722292507,0.5064401364350886,0.15194721434962788,0.8557820257633248,0.18546632573714883,0.5064401364350886,0.0512503981590271,0.057822468573672,0.15834140286608578,6,True
138,4.6,1.2249999999999959,-0.02938304862540925,0.006859190864026546,0.05845025361884582,-1.7757820981838348,-1.4805269600257656,0.5137786903979565,0.5062726600138971,0.15027293178298398,0.8548001304478317,0.19259505917562073,0.5062726600138971,0.051263000816106796,0.05740975059024293,0.16162393184119242,7,True
139,4.633333333333334,1.2449999999999954,-0.029128186830386916,0.006880413204620769,0.05848722625537989,-1.745749713874046,-1.4829647297378048,0.4853375042393436,0.5062150490585847,0.15042474757690302,0.8544159484396296,0.16314319601934124,0.5062150490585847,0.05127739906311035,0.05723669799278679,0.16658817917685542,6,True
140,4.666666666666667,1.264999999999995,-0.028287533004695657,0.007132332157402762,0.05869208437845132,-1.71855947114808,-1.4798956074398386,0.45591552862392226,0.5042745618624378,0.14891965420892064,0.8519934717658127,0.18973700001861843,0.5042745618624378,0.051291998475790024,0.056816231115945026,0.16574088307408621,5,True
141,4.7,1.2849999999999946,-0.027852157207509894,0.0072633892095050135,0.05881518349239833,-1.7006834306582608,-1.4820782819403713,0.4370305985547608,0.5027292351361389,0.14869051703977662,0.8474687300653189,0.14392540822405012,0.5027292351361389,0.05130700021982193,0.0564401811054196,0.16752883553240702,7,True
142,4.733333333333333,1.3049999999999942,-0.027552515805879755,0.007319028123510839,0.05875715592599049,-1.7123956996422907,-1.4820241011982995,0.4494121412177549,0.499038436384666,0.14586855372021293,0.8314831368845933,0.16254427350483933,0.499038436384666,0.05132560059428215,0.05629728771779173,0.1671605707810033,5,True
143,4.766666666666667,1.3249999999999937,-0.02721964780238958,0.007379895949071253,0.05877735397760729,-1.7197007099426773,-1.4807383572583,0.4572233814455816,0.4996438726112166,0.14763692684428364,0.8222410362353519,0.14650941318580138,0.4996438726112166,0.05134600028395653,0.05604760524154556,0.1661662632013136,8,True
144,4.8,1.3449999999999933,-0.02685027113897417,0.007509121412291377,0.05871453107991798,-1.7282130725519123,-1.48000411197441,0.4669447707727173,0.49391178214887127,0.1448736189195662,0.8024818842521734,0.12385892428270598,0.49391178214887127,0.05137300118803978,0.05585133788223334,0.1655817885215801,7,True
145,4.833333333333333,1.3649999999999929,-0.026551433321007546,0.007664804475501692,0.05875385574213277,-1.7287475077185142,-1.4794086355188882,0.46922119359553865,0.4919547092608487,0.1440054394759122,0.786089167389138,0.1219176766658704,0.4919547092608487,0.05140199884772301,0.05569506979352051,0.16589133543337203,8,True
146,4.866666666666666,1.3849999999999925,-0.026207441887196273,0.00780868670451623,0.05872514862672889,-1.728319072719999,-1.478786536983289,0.47086378856183053,0.4932334950559609,0.14625284183725618,0.7811066152909754,0.1255619520705863,0.4932334950559609,0.05143500119447708,0.05553000248741212,0.1666406946016001,9,True
147,4.9,1.404999999999992,-0.025882149856195684,0.007933498888550751,0.05874162657247667,-1.722638666915228,-1.478150017458188,0.46709981232815745,0.4949328549222494,0.14675998958034292,0.7870238262582053,0.13215524369513046,0.4949328549222494,0.05146719887852669,0.05537416855971665,0.16740406006558742,5,True
148,4.933333333333334,1.4249999999999916,-0.025650904377949688,0.008013664603199293,0.05887080691457062,-1.7119309495195714,-1.4779603821586222,0.4579244499963733,0.49526489008521246,0.14673742536030127,0.7986330313408134,0.11406755681594935,0.49526489008521246,0.05149900168180466,0.05523049012712628,0.16872139313580467,8,True
149,4.966666666666667,1.4449999999999912,-0.025423005994678224,0.008064465016610702,0.05897447695098346,-1.6972871340752176,-1.4778530491882242,0.4450033158026769,0.49575305078100435,0.14708686525169837,0.7982594706686805,0.1077293867474973,0.49575305078100435,0.05152779817581177,0.05512391805229754,0.1703618446400757,7,True
150,5.0,1.4649999999999908,-0.025279393819793963,0.008058658171780907,0.059042068401603524,-1.682127577261658,-1.4785712711864316,0.43141913258929426,0.49240096721546556,0.1483895590945207,0.7874905847459364,0.11817958371059135,0.49240096721546556,0.05155539885163307,0.055047751580961056,0.1721785467592971,6,True
151,5.033333333333333,1.4849999999999903,-0.02519896709698444,0.008018153524599373,0.05918630842478185,-1.666521755935933,-1.4794246871657164,0.4168297474561953,0.4938483663962475,0.1453359418797231,0.8007431995929515,0.09716141035171885,0.4938483663962475,0.05158060044050217,0.05502407897742716,0.17392890497155508,6,True
152,5.066666666666666,1.50499999999999,-0.024951111101230328,0.008082284703759615,0.05926716690935415,-1.6485533015334748,-1.4802350584965138,0.3993637104557932,0.4933219077066539,0.14638249615943186,0.8024952705038026,0.09481819133728606,0.4933219077066539,0.05160579830408096,0.05490640150910235,0.17551994275871555,9,True
153,5.1,1.5249999999999895,-0.024750322361556363,0.008148185990786452,0.0593087040154775,-1.637582540799522,-1.4803377364165589,0.38854424802723875,0.49241684304079764,0.14366093022882248,0.8034170156494104,0.11619407763377981,0.49241684304079764,0.05163099989295006,0.05483066969449685,0.17638228337817635,8,True
154,5.133333333333334,1.544999999999989,-0.0246001177857035,0.008141842856547616,0.05944103113363183,-1.619814867697727,-1.4804503311753732,0.37028588868447254,0.4916905003361513,0.14227869142783328,0.800526618713236,0.13235809778070803,0.4916905003361513,0.05165620148181915,0.054748910886017244,0.17701308923755615,6,True
155,5.166666666666667,1.5649999999999886,-0.024353345721224308,0.008222455447443119,0.05960664742739814,-1.603968185308803,-1.480643854495814,0.35342031215651826,0.48909601778456746,0.14183550098592332,0.7951327524026228,0.14679543313967838,0.48909601778456746,0.051683198660612106,0.05466975134142142,0.17750197862048933,7,True
156,5.2,1.5849999999999882,-0.02405861256673434,0.008367941613814867,0.05960655703971118,-1.5820514915540158,-1.4810963600742029,0.330490480289859,0.4939939916788867,0.14357133331089225,0.7967886684234815,0.14167901826129578,0.4939939916788867,0.05171379819512367,0.054521985785185946,0.17831283427727965,8,True
157,5.233333333333333,1.6049999999999878,-0.023740071921263064,0.00846007079701869,0.05984271375765692,-1.569485003348108,-1.4789065142936635,0.3170337535071358,0.49777398449647936,0.14778429240505253,0.8059689684206404,0.19121643388015566,0.49777398449647936,0.05174560099840164,0.0544402711991427,0.17839525654307906,8,True
158,5.266666666666667,1.6249999999999873,-0.023198417638600675,0.008634163761739807,0.06012040998497132,-1.521332998524465,-1.4800492857431622,0.2660385959459764,0.4998313674314639,0.15034615712353713,0.8124682116344177,0.1892738278175232,0.4998313674314639,0.051777999848127365,0.05414818043725244,0.1793408071051751,7,True
159,5.3,1.644999999999987,-0.022987770801783044,0.008715770671574957,0.060162381735918084,-1.5067766254061534,-1.481957239013618,0.25110236133732666,0.4995626706028432,0.15061911271418868,0.8207176287947044,0.1746476350205937,0.4995626706028432,0.051812801510095596,0.05403912537316239,0.18086258737545333,5,True
160,5.333333333333333,1.6649999999999865,-0.022203931445189787,0.009111061208766829,0.060320017414309986,-1.4990749324591666,-1.4780542073043226,0.23985045787095577,0.49856240232194177,0.14951307116760582,0.7995846652276563,0.22845014348800086,0.49856240232194177,0.0518484003841877,0.05375432816255639,0.17880291089245637,8,True
161,5.366666666666666,1.684999999999986,-0.02172893309261787,0.009440860317970694,0.06054612763945277,-1.4762961320852677,-1.4789096709327816,0.21471795175733116,0.5000425018102108,0.14983583250285026,0.8033802789677614,0.20486388444409534,0.5000425018102108,0.05188560113310814,0.05356379140934282,0.1792250395077091,6,True
162,5.4,1.7049999999999856,-0.021129841280975295,0.009826022445300075,0.06058025744590107,-1.480650581793969,-1.4762388586672828,0.21689795520875157,0.4997179675293548,0.15297280383095677,0.7921268330131034,0.23361435754736584,0.4997179675293548,0.05192279815673828,0.05339158738959835,0.17787650858516396,4,True
163,5.433333333333334,1.7249999999999852,-0.02057726941948916,0.010134205662199247,0.06071373969849873,-1.4497746792964874,-1.4775809222090392,0.18393240339099884,0.5022346357776944,0.1539660196023972,0.8011941429503666,0.23778392056486175,0.5022346357776944,0.05195999890565872,0.053150894489038,0.17833815515668286,8,True
164,5.466666666666667,1.7449999999999848,-0.01991424915026524,0.010548645585932229,0.06075533976844229,-1.4606780361130758,-1.4750326159917826,0.1928629878683867,0.503435082220276,0.15436564786000234,0.7999460229022142,0.2502427284273853,0.503435082220276,0.051993001252412796,0.052960011425518004,0.17667048870778138,4,True
165,5.5,1.7649999999999844,-0.01936550492404337,0.010967205761338472,0.06078328135988745,-1.4699847810028672,-1.473797976240382,0.20080212047721357,0.504040903934499,0.1558933606813919,0.7942042486050822,0.26547200686202366,0.504040903934499,0.0520251989364624,0.05279347483666967,0.17599411762570516,7,True
166,5.533333333333333,1.784999999999984,-0.01876452986189633,0.011378969435733063,0.06078544669191795,-1.4773720020340784,-1.472631755937844,0.20737742726713698,0.5049333214334955,0.15828825741699404,0.7828413729728023,0.2804839575786494,0.5049333214334955,0.05205579847097397,0.05260035155879008,0.17477050354107077,6,True
167,5.566666666666666,1.8049999999999835,-0.018148114711991306,0.01177837021975858,0.06057380592942293,-1.500871148518217,-1.4721132487476674,0.230446055110845,0.5032527255577761,0.15812216132687298,0.7693713831370761,0.24164254453950723,0.5032527255577761,0.052087198942899704,0.0523539506956744,0.1722456445114893,6,True
168,5.6,1.824999999999983,-0.01757497491168468,0.012103138842723085,0.060182770075671646,-1.5460980896636922,-1.4675302815094728,0.27546492752782753,0.49976272247240333,0.15749552727798496,0.7553115986068752,0.24552420335945865,0.49976272247240333,0.05211900174617767,0.052081900853492465,0.16842961409967688,6,True
169,5.633333333333334,1.8449999999999827,-0.017198396892873502,0.012438553423871679,0.06015424039453149,-1.5854930403734597,-1.4674169616041677,0.31608679143583124,0.4965230856249772,0.15786381254210544,0.7189488925724918,0.24855523070728644,0.4965230856249772,0.05215439945459366,0.051993693968609644,0.1651714546889373,6,True
170,5.666666666666667,1.8649999999999822,-0.016618798047486807,0.012809462345609778,0.05972843145311793,-1.638654039135487,-1.4599012797717943,0.3699526166907702,0.4956028549966202,0.15834536956531547,0.7433012749305494,0.26761785866030785,0.4956028549966202,0.05219139903783798,0.051740087826214816,0.15998041648823602,6,True
171,5.7,1.8849999999999818,-0.016064028051610838,0.013175265998043976,0.05949407522813084,-1.673226811375467,-1.456537536543619,0.4073633440503047,0.49869277119690036,0.1596135525277514,0.7411340511969089,0.3528289758925529,0.49869277119690036,0.052231598645448685,0.0515893029683239,0.1573492352227037,4,True
172,5.733333333333333,1.9049999999999814,-0.015430194339769044,0.013653750103172014,0.0592681237762982,-1.7107642983804994,-1.4505565338621866,0.4461574784925489,0.499097966468018,0.16049294973194908,0.7380490221730766,0.27802271903146863,0.499097966468018,0.05227179825305939,0.0513000361306522,0.1531922720786756,6,True
173,5.766666666666667,1.924999999999981,-0.01454330658891731,0.014308979620744336,0.05916389199878842,-1.737629578161357,-1.4438656254244662,0.4741279543591276,0.50051791366425,0.15972631839750306,0.7379290764925054,0.34928845423471705,0.50051791366425,0.05231200158596039,0.05113702633058971,0.14991038844003818,5,True
174,5.8,1.9449999999999805,-0.013541529523575754,0.01505656203620225,0.0591936568212772,-1.7503555245038958,-1.4373874133273132,0.4864288829079043,0.4998085499002298,0.16022923525717558,0.7288943627855041,0.3324123882056354,0.4998085499002298,0.05233540013432503,0.0508662382880559,0.14745296203988442,7,True
175,5.833333333333333,1.96499999999998,-0.012504359213084414,0.015882771946119267,0.05906941767611511,-1.7464586362501038,-1.430390979191766,0.47979549169125496,0.5010461784441982,0.1569528938109821,0.7352440861864419,0.37470095556917615,0.5010461784441982,0.052354201674461365,0.05070391960612003,0.14612039648032318,4,True
176,5.866666666666666,1.9849999999999797,-0.011352879685428398,0.016639236266969202,0.0596136614323151,-1.7338756336772314,-1.4240019113430664,0.46279856700470556,0.5014320861231308,0.15583005669073918,0.7061996647431228,0.35393987506373903,0.5014320861231308,0.0523638017475605,0.05057003249656461,0.14507184530847933,5,True
177,5.9,2.0049999999999795,-0.010263200896290599,0.01733452609185568,0.05972105098090372,-1.7069243194627568,-1.4174598593026808,0.42885962726080634,0.5012880240707622,0.1538600859862744,0.6728985109952899,0.4040948251621251,0.5012880240707622,0.052365001291036606,0.05038537687243071,0.14590574586373076,4,True
178,5.933333333333334,2.024999999999979,-0.009448509333806428,0.017831741926036156,0.06007711328133306,-1.6932887246884283,-1.4126601884888386,0.4099296121032906,0.501848746214413,0.1509874101388044,0.6407537680099751,0.42989911136823566,0.501848746214413,0.052361998707056046,0.05035848485090908,0.1462663811517925,5,True
179,5.966666666666667,2.0449999999999786,-0.008197162851036204,0.018436364560981806,0.06073369159688241,-1.6643815425331763,-1.4085497143770318,0.3714458937892151,0.5029891015435094,0.14740984992017303,0.6097319804072348,0.4287819767755271,0.5029891015435094,0.05234939977526665,0.05017681104343306,0.1478910650135169,5,True
180,6.0,2.064999999999978,-0.007667556180008056,0.018663010844246354,0.060869192506098915,-1.655353892574024,-1.409576575706463,0.3560631996869169,0.5000870595056705,0.14513694991153514,0.602588058135389,0.41674233362967916,0.5000870595056705,0.05233379825949669,0.050098177876807044,0.14810002096534192,6,True
181,6.033333333333333,2.0849999999999778,-0.00713962621091729,0.018889880890372565,0.060838893496065666,-1.6625113058218919,-1.4105533196385098,0.35734206586092493,0.49697723186703135,0.14585894485328757,0.595594916995687,0.44665489468895675,0.49697723186703135,0.05231219902634621,0.05001267961381741,0.14582876541470505,5,True
182,6.066666666666666,2.1049999999999773,-0.0067533015297607,0.01894070302079078,0.06063859231329966,-1.667065377447209,-1.4133184249264972,0.3570261455356256,0.5023784784152425,0.15177120964080312,0.6385249554255109,0.46846569539581734,0.5023784784152425,0.052292600274086,0.049842305481652305,0.14347340106632597,5,True
183,6.1,2.124999999999977,-0.0062530771800967735,0.01899218548760675,0.06062378507894465,-1.674822922514792,-1.4139773314233866,0.36006784900286964,0.5037208124490918,0.15037210485739821,0.6558315433853138,0.4299466418483422,0.5037208124490918,0.05227399989962578,0.04965030218443193,0.14116524555242965,5,True
184,6.133333333333334,2.1449999999999765,-0.005909944336987166,0.018915479964751878,0.06042464350418724,-1.6811997424734422,-1.4157760433081947,0.3623492003515283,0.5040500384226124,0.15114108435456883,0.653278666777599,0.4096783388231167,0.5040500384226124,0.05226320028305054,0.0494275143757506,0.1394115973898525,5,True
185,6.166666666666667,2.164999999999976,-0.005796709110562528,0.018570610392779317,0.06027276417889399,-1.697812994942027,-1.4165514181697505,0.3772464355794689,0.5058768638337715,0.15571735266537304,0.6737463376751835,0.43741336584716334,0.5058768638337715,0.05225519835948944,0.049126854375221324,0.13702583352758446,4,True
186,6.2,2.1849999999999756,-0.0057817275760760475,0.018191140888355287,0.05999023117128185,-1.721453166256212,-1.4167272983215238,0.4002938465927276,0.5063312520807565,0.1553074726757851,0.6692421163085333,0.3944874512204102,0.5063312520807565,0.05225279927253723,0.04879118563940871,0.13314042608324717,6,True
187,6.233333333333333,2.204999999999975,-0.0058472266200251845,0.017855091628606268,0.05968262758250884,-1.743995155767405,-1.417176474543718,0.4227347155066577,0.5084460462962925,0.15758847389047587,0.673350555356344,0.36398019243650753,0.5084460462962925,0.05225919932126999,0.04851867430934144,0.12943967488165137,6,True
