frame,video_time_s,sim_time_s,root_x,root_y,root_z,root_roll,root_pitch,root_yaw,joint_target_abs_mean,joint_error_abs_mean,joint_error_abs_max,joint_velocity_abs_mean,ctrl_abs_mean,root_target_x,root_target_y,root_target_z,root_position_error_m,root_orientation_error_rad,contact_count,fall_proxy
0,0.0,0.2200000000000001,-0.001328447226331937,0.0021664158411318214,0.7865389091366443,0.02260247172943294,-0.11338127850439003,-0.05245775561148533,0.14282617218299512,0.056918398858880066,0.4479127656683003,0.12478052372414362,0.14282617218299512,0.0,0.0,0.802790625194684,0.01642959797886615,0.03211558349659623,8,False
1,0.03333333333333333,0.24000000000000013,-0.0022753115001981797,0.0013703369813951555,0.7865337708568215,0.021020396334762045,-0.11417006632225404,-0.053260199571647654,0.19639100280797053,0.11191223726972349,0.4058283765702458,0.4556596327947897,0.19639100280797053,0.0,0.0,0.7884252099843295,0.0032185483868899466,0.10246065306578515,7,False
2,0.06666666666666667,0.2600000000000001,-0.0029732075777652795,-0.0006022534311510219,0.7865469497041065,0.018712294133142675,-0.11133326624910525,-0.04895982622218437,0.2017384395152134,0.11418520205903081,0.4265039567681061,0.5961172454073081,0.2017384395152134,0.0,0.0,0.7834495300881994,0.004183517330794113,0.15509419373896835,6,False
3,0.1,0.28000000000000014,-0.003282216211427026,-0.0037906804578648015,0.7859920894350926,0.01765444895171303,-0.09961571806728577,-0.03803349382983694,0.2425943875884745,0.13899930586862783,0.5922933353673245,0.7725600002152846,0.2425943875884745,0.0,0.0,0.7909488706994587,0.006422263819908292,0.20802700086566941,7,False
4,0.13333333333333333,0.30000000000000016,-0.0032523132432873514,-0.007468748999722152,0.7857309745054043,0.015419493096039561,-0.08452108101947885,-0.03190662624550207,0.2561328581571715,0.12095027671668004,0.5404187174182087,0.6718829230826151,0.2561328581571715,0.0,0.0,0.7818362445947686,0.00823931367887099,0.21694783735784293,8,False
5,0.16666666666666666,0.3200000000000002,-0.005718268599695468,-0.01072977917204759,0.7845875508729259,0.019211347684285777,-0.0798989917136193,-0.049557883538179845,0.26249549627223534,0.16555799427682732,0.7472744457502902,0.8002460529709492,0.26249549627223534,0.0,0.0,0.7717633218907141,0.017313194010292906,0.27884560508117595,7,False
6,0.2,0.3400000000000002,-0.010609670634651047,-0.012859004899835555,0.7839260962323252,0.031181336261718425,-0.06524334685260583,-0.0989906684582079,0.28884566385918703,0.26708756930660427,1.097038462404725,1.2875494096781823,0.28884566385918703,0.0,0.0,0.7526493743966935,0.03505703403850966,0.5386200280677755,5,False
7,0.23333333333333334,0.3600000000000002,-0.016099374904988417,-0.014695188320225486,0.78279602972499,0.039779240219773124,-0.05010111502201901,-0.14667787557242423,0.2808088180005789,0.23353540114492854,1.1538555640050698,1.2277185743338692,0.2808088180005789,0.0,0.0,0.7699337045336778,0.02443518101420492,0.5050382175327235,4,False
8,0.26666666666666666,0.3800000000000002,-0.021410337305296484,-0.01668282896181962,0.7811772590713724,0.027162585274863316,-0.05086854970751529,-0.11601179954208414,0.27800096910371447,0.22471156647792517,0.8819056272652607,1.140354836000927,0.27800096910371447,0.0,0.0,0.7769203426895204,0.026276987651342808,0.27059103161294273,6,False
9,0.3,0.40000000000000024,-0.025803022317567887,-0.019436869726569394,0.779599493951616,0.011159289473135376,-0.05944832356482197,-0.03164082966056772,0.31015539129227065,0.24940251886046627,0.7374894011769623,1.424453854174059,0.31015539129227065,0.0,0.0,0.7799626842144218,0.031128774712492292,0.7153125653151576,6,False
10,0.3333333333333333,0.42000000000000026,-0.028111170574209043,-0.02207941143242957,0.7793482329584847,0.005914541796780807,-0.06726451005355415,0.008888984107153702,0.343672975141931,0.2088747844508748,0.8432440543039659,1.0296503048869485,0.343672975141931,0.0,0.0,0.7947409687844037,0.03830468931923058,0.3368948326067185,6,False
11,0.36666666666666664,0.4400000000000003,-0.028555245180458003,-0.023693834104693213,0.7798816982045712,0.012867160528479943,-0.068261810673789,0.005091248861618423,0.3393544502793858,0.1928360441561396,0.8491656319457597,0.8560272945383807,0.3393544502793858,0.0,0.0,0.792019283884424,0.038844129200188274,0.07743140266019109,4,False
12,0.4,0.4600000000000003,-0.028099607917423847,-0.023842618656043417,0.7798369689501857,0.014948043936924666,-0.06621624182838973,0.00024183727763820917,0.31275951847909067,0.19417543571187382,0.6923434199637644,0.8673821797712693,0.31275951847909067,0.0,0.0,0.7809157852833065,0.037057333218576044,0.0885061111100759,7,False
13,0.43333333333333335,0.4800000000000003,-0.02765623392994451,-0.022720100910060374,0.7802060150652628,0.015358074643396794,-0.07012242542099793,-0.002771171189986854,0.30544962539586984,0.18502637529267563,0.7241501997053611,0.8471301966190523,0.30544962539586984,0.0,0.0,0.7862241092485938,0.03660956724630637,0.025631522530956546,7,False
14,0.4666666666666667,0.5000000000000003,-0.02905208946631711,-0.020369579385220233,0.7804805276237188,0.009840588363414126,-0.07509562236745872,0.03536176291706779,0.2942480445067512,0.16113375741305297,0.596263598185736,0.6964434839242899,0.2942480445067512,0.0,0.0,0.7550516165033165,0.04370711888711297,0.33452498608067427,6,False
15,0.5,0.5200000000000004,-0.03201160571054541,-0.0162723997494514,0.7803024252403258,-0.004242460888973598,-0.06873193371285825,0.13010767544328547,0.26441658360065756,0.19125013470761346,0.7189462002359754,1.1131498185690025,0.26441658360065756,0.0,0.0,0.6750900574662196,0.11133975570162312,0.8175172683889316,2,False
16,0.5333333333333333,0.5400000000000004,-0.036602251609403925,-0.012228469220639242,0.779239858026898,-0.010710252169917398,-0.04515767417910072,0.1855989659694288,0.32879829695647805,0.18641115363613625,0.7039421479862364,1.096683801521017,0.32879829695647805,0.0,0.0,0.7507566093605204,0.047398622145036484,0.5887838490178268,5,False
17,0.5666666666666667,0.5600000000000004,-0.04070849551303982,-0.009940473674512687,0.7778456266753688,-0.011199328368532383,-0.025849742295975375,0.174493374378556,0.3617361509743891,0.1739371859317217,0.8115434045047671,0.9268053696889824,0.3617361509743891,0.0,0.0,0.7933001614973823,0.04372226331554624,0.25056963533008914,4,False
18,0.6,0.5800000000000004,-0.04347860119276096,-0.008084856356045686,0.7771449524082847,-0.005176518297670771,-0.016422272085425765,0.15912287891587767,0.3448460454087677,0.16751581700641205,0.6212817751127084,0.6749846235230365,0.3448460454087677,0.0,0.0,0.7956076077519276,0.04750196426983445,0.18882504178571693,7,False
19,0.6333333333333333,0.6000000000000004,-0.045672189746306956,-0.006370524583399006,0.7771799313853212,-0.01043670037299097,-0.028848500368655484,0.16897605462010287,0.3182596588026195,0.16277235131167542,0.4811306016246815,0.7480803831404461,0.3182596588026195,0.0,0.0,0.796883710457412,0.04975040585422555,0.06663869305736027,4,False
20,0.6666666666666666,0.6200000000000004,-0.04718441557492479,-0.005788684443212561,0.7771211508310327,-0.01718639326740181,-0.04589646487873328,0.18003346256942407,0.28990088358246346,0.17410183669527787,0.6194653156852433,0.8486931311304203,0.28990088358246346,0.0,0.0,0.790867588651947,0.04918714458039968,0.12450619147606357,6,False
21,0.7,0.6400000000000005,-0.04773292612757188,-0.005768160216814697,0.7767952334338608,-0.015466650847832561,-0.050942835345486416,0.17560249090666719,0.26210814154601514,0.15554401833065093,0.4886567551830407,0.9485740247259316,0.26210814154601514,0.0,0.0,0.781303080621982,0.04818857092266211,0.11276335970719065,6,False
22,0.7333333333333333,0.6600000000000005,-0.0484360167969987,-0.005519828737965364,0.7775193930183095,-0.019560776079834075,-0.05823518206926136,0.15993299497254795,0.25072969385039,0.22956707688395245,0.8331902778200524,1.2573705201675422,0.25072969385039,0.0,0.0,0.779218923251326,0.048637073369812586,0.15042422662793925,2,False
23,0.7666666666666667,0.6800000000000005,-0.04890667876466355,-0.0055502387407147065,0.778923602837446,-0.026904876081778134,-0.06497450457016107,0.13470226324329163,0.28536934443189194,0.25028218304423633,0.8624275654245591,1.2946815154872158,0.28536934443189194,0.0,0.0,0.783751300736392,0.049334164588883254,0.1820985247689734,5,False
24,0.8,0.7000000000000005,-0.04895711871194951,-0.006835383300282793,0.7793861027559101,-0.03276910754857612,-0.07095730844067503,0.11418418627962054,0.27013226538002577,0.20756195799571978,0.7443894363519187,1.223246363598901,0.27013226538002577,0.0,0.0,0.8009312466580749,0.05394515061221743,0.1299554845825419,3,False
25,0.8333333333333334,0.7200000000000005,-0.04822346130049022,-0.008942514895841424,0.778566446068321,-0.02783450053849627,-0.06814150394083703,0.09093050671190525,0.283514603758155,0.18135953836580396,0.6405576217184847,0.8258217856704706,0.283514603758155,0.0,0.0,0.7913257957224281,0.050699490642441856,0.16867990215738562,5,False
26,0.8666666666666667,0.7400000000000005,-0.04751149954693333,-0.011122758683399816,0.7781658107579532,-0.021267543736519737,-0.06562470484322908,0.07351319031468818,0.2992273583377382,0.20184729948884128,0.6715568708907085,0.838584326576677,0.2992273583377382,0.0,0.0,0.7816383971237926,0.04896674974111411,0.12376020234953933,7,False
27,0.9,0.7600000000000006,-0.04764051421062165,-0.014137185757709008,0.7784864130313666,-0.02144645344546573,-0.07531642526802916,0.06781862819120042,0.2794300211905289,0.2078073845398067,0.7199349352039963,0.9688344439600456,0.2794300211905289,0.0,0.0,0.7814272334179807,0.04936677405430474,0.04511257600258773,6,False
28,0.9333333333333333,0.7800000000000006,-0.04908104936511711,-0.017526012697372566,0.7773816924141315,-0.017332409140736894,-0.08919721955061309,0.05453330741477557,0.3108839964275957,0.17196446417088226,0.555802484790264,0.9257723905363681,0.3108839964275957,0.0,0.0,0.7974487468874286,0.05506194268084115,0.08042513624909797,4,False
29,0.9666666666666667,0.8000000000000006,-0.05100261071273329,-0.020534902444684238,0.7758583896463851,-0.008102972818713661,-0.09912290615934023,0.041304698776553725,0.2905057324845952,0.17409192897228146,0.5126694268066074,0.7374948058019085,0.2905057324845952,0.0,0.0,0.8044418911404245,0.06122030626526828,0.1166709589918302,6,False
30,1.0,0.8200000000000006,-0.053222343025535815,-0.021829242936038096,0.7754320794230941,-0.006057702681041951,-0.10345543824662994,0.04144669698781704,0.2526530858061117,0.1694403034171325,0.5782124409569228,0.636687524132151,0.2526530858061117,0.0,0.0,0.7933070887224858,0.059671727844573114,0.1567240042591509,8,False
31,1.0333333333333334,0.8400000000000006,-0.05574543113290238,-0.021577271539716315,0.7753039993234356,0.002118782866285155,-0.10036080188075988,0.017578690882093653,0.24809924069868536,0.20841933744263447,0.7585425105727144,0.7747963099006768,0.24809924069868536,0.0,0.0,0.7874627902997714,0.06049665340434946,0.2512849805757038,6,False
32,1.0666666666666667,0.8600000000000007,-0.058595893055364924,-0.019927065650880423,0.7748597103085075,0.014407947726735482,-0.08779606475481865,-0.029890736497754852,0.3061871273379004,0.3207528542734348,1.0570271362162984,1.4077081513971612,0.3061871273379004,0.0,0.0,0.7839508761046479,0.06200102114430243,0.45720298852069297,5,False
33,1.1,0.8800000000000007,-0.060909787807873525,-0.018081337154623876,0.7742385185923448,0.014359870983035853,-0.07713737073593634,-0.04168826009122289,0.3385004937550175,0.24990248595016573,0.9920039159022731,1.2376375873714394,0.3385004937550175,0.0,0.0,0.7950209952005797,0.0664424908078295,0.23689378364122374,6,False
34,1.1333333333333333,0.9000000000000007,-0.06200348413524417,-0.016438084444350375,0.773299179627581,0.004580381773877265,-0.07364651213953546,-0.02942309295012813,0.33317631277846327,0.17703612099931898,0.8016849240174173,0.78887748965597,0.33317631277846327,0.0,0.0,0.7984824743009562,0.06881795191357348,0.1782698951863235,8,False
35,1.1666666666666667,0.9200000000000007,-0.062276612545167156,-0.015481806141643161,0.7730584711526108,0.009423795915977036,-0.0667512367183147,-0.049112454693984696,0.35108998346313985,0.2327770267615628,1.1726514369768526,1.00018727859197,0.35108998346313985,0.0,0.0,0.7987164838059512,0.06909176249890044,0.2177827747485793,8,False
36,1.2,0.9400000000000007,-0.06268312284688607,-0.01447024404046268,0.7732796896757713,0.019293007191437277,-0.057931186612675795,-0.0951474215389634,0.4122496855144932,0.2939502890666857,1.3664554162839617,1.4496215773974261,0.4122496855144932,0.0,0.0,0.8074224817719048,0.07285536395947873,0.4516822568354239,4,False
37,1.2333333333333334,0.9600000000000007,-0.06388833768738562,-0.013252546776595547,0.7723618873624034,0.038308777511457594,-0.04180175826856567,-0.18741247705508482,0.42464889159490665,0.32924655956330895,1.352537934537061,1.7641220109150721,0.42464889159490665,0.0,0.0,0.7825559002461197,0.06561326918704424,0.8244856421566855,3,False
38,1.2666666666666666,0.9800000000000008,-0.06687798906858042,-0.012047049928099638,0.7691894821786457,0.0642598723983144,-0.022897090898920502,-0.3109164320868593,0.39654051045920463,0.30608223211933316,1.2097732337364364,1.8295077151304853,0.39654051045920463,0.0,0.0,0.7607503149606675,0.06772556385750021,1.0717629674897602,6,False
39,1.3,1.0000000000000007,-0.07113079882836057,-0.010618817385494347,0.7669566930717919,0.08337742797508395,-0.007115685430634328,-0.40192459458842383,0.4154873326315137,0.29557923177977596,1.2108708908974894,1.7321169751387644,0.4154873326315137,0.0,0.0,0.7543679916816595,0.07209533675411815,0.7856395374716969,5,False
40,1.3333333333333333,1.0200000000000002,-0.07469589220625579,-0.008659000184445506,0.764606753454443,0.09754122410006623,0.003713293237848616,-0.44978750746102,0.434153151284811,0.264352690977658,1.2724948227441386,1.6449852875315027,0.434153151284811,0.0,0.0,0.7678861293074666,0.07455720644269152,0.3999662427441757,6,False
41,1.3666666666666667,1.0399999999999998,-0.07721824138210082,-0.006597093878269042,0.7637015224422361,0.10180234509566466,0.012543557947384315,-0.45714732931398316,0.41404297449402194,0.2303628083747356,1.0694249578529709,1.3367291835060935,0.41404297449402194,0.0,0.0,0.7662694827550901,0.07704442776944088,0.18679758890284587,5,False
42,1.4,1.0599999999999994,-0.07975314009183006,-0.004330005275440051,0.7631701003011486,0.11233979235785971,0.013173250913001332,-0.4593556682067376,0.4420990832180305,0.2936636552829954,0.896263539887595,1.5517058527538332,0.4420990832180305,0.0,0.0,0.7174955144443053,0.09168403249186649,0.16639858864188317,1,False
43,1.4333333333333333,1.079999999999999,-0.0807385780988087,-0.003070936777023251,0.7618714693892701,0.11920783765497799,0.0008341907279297882,-0.4317726882892396,0.4746704474344176,0.341453334052461,1.366392948205064,1.534174286556889,0.4746704474344176,0.0,0.0,0.7426744255167078,0.08317239229839912,0.29389809634645836,6,False
44,1.4666666666666666,1.0999999999999985,-0.07995053462694522,-0.0022910174498813546,0.7610741504510304,0.11841659959188165,-0.006496032657407784,-0.39402915583318115,0.4338302195393782,0.3062179869598097,1.0728267998528647,1.563080609854195,0.4338302195393782,0.0,0.0,0.7752444713666485,0.08148699957733777,0.33876803933314464,7,False
45,1.5,1.119999999999998,-0.07832192816253408,-0.0020585640935220036,0.7605223442837734,0.11684888111919853,-0.013362787657322404,-0.35768687951461037,0.4177705478667672,0.27700124774395296,1.0704060997452385,1.2968056985400505,0.4177705478667672,0.0,0.0,0.7882717165980339,0.08348690650229565,0.2999614675611358,6,False
46,1.5333333333333334,1.1399999999999977,-0.07586611396224599,-0.0019514099459912056,0.7596503682616081,0.11271107667484564,-0.018698455330754447,-0.3321326883356989,0.4555341554400606,0.29514581351305597,1.1915921445465203,1.3373550987334497,0.4555341554400606,0.0,0.0,0.786634494651195,0.08106938520499987,0.24589297672379448,5,False
47,1.5666666666666667,1.1599999999999973,-0.07283561075168557,-0.0023147745213238746,0.759906629721863,0.11005037485511798,-0.024121100978843325,-0.3134292238278524,0.5005124541152541,0.3213429112137388,1.1933141440793946,1.402715992765432,0.5005124541152541,0.0,0.0,0.7802012681446572,0.07641569398257146,0.20595014555766747,6,False
48,1.6,1.1799999999999968,-0.06939788429956774,-0.0028292205304933206,0.7599133415679823,0.11053093886549359,-0.026053557448355493,-0.29701973382271196,0.44965078587252827,0.2805348611773387,1.0933279783653131,1.3777205023276222,0.44965078587252827,0.0,0.0,0.7767335191781694,0.07231142842201113,0.146531884305737,6,False
49,1.6333333333333333,1.1999999999999964,-0.06589391891781271,-0.0036512861992576795,0.7613759520396534,0.10306160068848659,-0.03043632297441488,-0.26883406090944684,0.40325750574739644,0.23929253736792397,0.9248387142637136,1.298571901055011,0.40325750574739644,0.0,0.0,0.7627215939940575,0.06681816368596674,0.27869131264893826,8,False
50,1.6666666666666667,1.219999999999996,-0.06347973577824041,-0.004463453216724008,0.76252624263246,0.08690505711269704,-0.03856463918433815,-0.23161268540896968,0.40835303612254364,0.23225569905424576,0.74437614687998,1.0978084127509768,0.40835303612254364,0.0,0.0,0.7528357436096713,0.06481270914501693,0.36905561422678695,6,False
51,1.7,1.2399999999999956,-0.06227468074920636,-0.006296293828376482,0.7633297651816493,0.07501137531710361,-0.03935395175599882,-0.20743251435751095,0.45663086440319584,0.24926340290240573,0.8778055507967336,0.758214792411317,0.45663086440319584,0.0,0.0,0.7733216246671162,0.06358356602879495,0.30129170910610803,7,False
52,1.7333333333333334,1.2599999999999951,-0.061085443536608594,-0.008919303701373994,0.7636415192261107,0.06928548868951834,-0.036163463223449085,-0.2048537295481201,0.43271719262079644,0.22926864352354492,0.7335976659560846,0.6787016779694693,0.43271719262079644,0.0,0.0,0.7670726776809544,0.062097462981064486,0.17389795454025314,5,False
53,1.7666666666666666,1.2799999999999947,-0.059697175651140744,-0.011780634173595322,0.7629638548035098,0.07488484148835652,-0.03390914414498819,-0.2364176004156632,0.40831741023906387,0.1989179345324124,0.6613992154386015,0.816619982338268,0.40831741023906387,0.0,0.0,0.7616391390752125,0.06107069548274376,0.299193179894232,6,False
54,1.8,1.2999999999999943,-0.05791020870411691,-0.014510223392193662,0.7622940587122023,0.08865763069068815,-0.026820262465001698,-0.3120351928597242,0.4513630462782283,0.2464525387917657,0.8057969503489477,1.0328527737452102,0.4513630462782283,0.0,0.0,0.7760672512429151,0.06150907307072241,0.6655952430219091,7,False
55,1.8333333333333333,1.3199999999999938,-0.056457354833297044,-0.01685013534415824,0.7620704699124929,0.09838285012832762,-0.026823980068516648,-0.3927922389866803,0.5139567973046979,0.3183709712037336,1.253811062174492,1.2570424898191634,0.5139567973046979,0.0,0.0,0.7825520884570041,0.062482957216203304,0.6237110080241591,5,False
56,1.8666666666666667,1.3399999999999934,-0.055252544033184095,-0.018732965771363172,0.7618332463820487,0.09823153321606654,-0.035409153119306966,-0.4260158484274713,0.4868350767960313,0.32887313376638083,1.2496195863737447,1.0417358291816476,0.4868350767960313,0.0,0.0,0.7861025865115077,0.06334499847205803,0.25991477125976903,6,False
57,1.9,1.359999999999993,-0.05382704066189639,-0.020481822548998524,0.7614383269358592,0.09420392935145559,-0.04880639908900567,-0.4329243397489791,0.4858824713920979,0.32509947389558286,1.6979076032308422,0.9893506306168146,0.4858824713920979,0.0,0.0,0.7971933000131661,0.0679377329284886,0.07867133798237856,7,False
58,1.9333333333333333,1.3799999999999926,-0.05286579594068875,-0.02264636173934879,0.7617623622284845,0.09756912887527189,-0.05422878376679149,-0.4630522986761758,0.48074159782361436,0.346842032038593,1.9658350785447554,0.8843104209577611,0.48074159782361436,0.0,0.0,0.7820188990106313,0.06094089192829159,0.11845954303091366,7,False
59,1.9666666666666666,1.3999999999999921,-0.052484335337451886,-0.024287819166309663,0.7607215671237436,0.10432567837894578,-0.04857445636818496,-0.526936522784623,0.478801155292386,0.33726772158830787,2.205366185882175,1.063432869239184,0.478801155292386,0.0,0.0,0.775794585787483,0.05952149408289267,0.480146924561415,5,False
60,2.0,1.4199999999999917,-0.05162272835991979,-0.026306041571606927,0.7599379160313465,0.10427485567622227,-0.04430192138468276,-0.5474195267492322,0.4657121551418798,0.3005356000200295,1.8625973077645193,1.3008861948636365,0.4657121551418798,0.0,0.0,0.7987727151223393,0.06966408301552329,0.21382676858547028,7,False
61,2.033333333333333,1.4399999999999913,-0.05050492897797103,-0.02873949147035587,0.7604022014209163,0.10323725990806994,-0.045645012650917735,-0.529393587208543,0.48197762514084824,0.2928483343286726,1.9666163724114987,0.9806859280381337,0.48197762514084824,0.0,0.0,0.8007601154138534,0.07090891161096378,0.3015473014376206,8,False
62,2.066666666666667,1.4599999999999909,-0.04838974709615148,-0.030031513830596157,0.7614768706366223,0.09196535952326512,-0.04870501707494821,-0.4772545758405582,0.5122180683469135,0.2972488634027491,2.057741225613956,1.0099107044106674,0.5122180683469135,0.0,0.0,0.7962819492241844,0.06715555137498046,0.5161815070244816,5,False
63,2.1,1.4799999999999904,-0.04619939762629648,-0.0315419984397374,0.7620252084614015,0.08343913042909813,-0.052592468064395846,-0.42392846247092786,0.4683751403584482,0.25554467010549375,1.8318158894617493,0.8417550444297791,0.4683751403584482,0.0,0.0,0.7826351955894456,0.059909178206125596,0.543946030831763,6,False
64,2.1333333333333333,1.49999999999999,-0.04376505004406055,-0.03333261404475312,0.7626689950987846,0.07201783387561986,-0.052292023626558944,-0.3715203542986163,0.46989419300128976,0.25192639963269614,1.7123390161294947,0.8954783848266956,0.46989419300128976,0.0,0.0,0.7854983194133752,0.059743103811261286,0.46570320824336814,8,False
65,2.1666666666666665,1.5199999999999896,-0.04145908690247154,-0.035622947870876734,0.7629144657432309,0.06350333450689129,-0.052537296253439315,-0.33260908714668347,0.49953094191381986,0.24377317831067463,1.450728654112733,0.9521669071486942,0.49953094191381986,0.0,0.0,0.7910548180868999,0.06138083439608935,0.3734686020565843,6,False
66,2.2,1.5399999999999892,-0.0393125894189146,-0.038107744096816255,0.7624259054582377,0.059064682370848984,-0.055836727671427916,-0.31150495594426625,0.48330346807930313,0.21447328457112916,1.417625936583117,0.8067201258856097,0.48330346807930313,0.0,0.0,0.7946475414356583,0.06353263295693963,0.23517721188251003,8,False
67,2.2333333333333334,1.5599999999999887,-0.03726916875973983,-0.04124550852014683,0.7626390607093075,0.054137509030185244,-0.06138141776987587,-0.30258711260677434,0.4487734870150366,0.1933323990522747,1.2187610912788767,0.7615926373312079,0.4487734870150366,0.0,0.0,0.7839629385686916,0.059302184914500886,0.11722165039552992,6,False
68,2.2666666666666666,1.5799999999999883,-0.03593824608730247,-0.044905626546617484,0.7624703626404539,0.047076523897641366,-0.06837975972456145,-0.29638081496707186,0.4366027665190973,0.2033112479783656,1.030171645275203,0.8037922884786358,0.4366027665190973,0.0,0.0,0.7758492967882961,0.05844916696389774,0.0897498062385879,6,False
69,2.3,1.5999999999999879,-0.03421186697646871,-0.0490712812498066,0.7619746509819383,0.038848623778866116,-0.05796052639746232,-0.2783850446343513,0.4556797826496892,0.23662793359469328,1.0747273059442988,0.983205861905304,0.4556797826496892,0.0,0.0,0.7852643030904121,0.06356702094334492,0.25136385275458584,6,False
70,2.3333333333333335,1.6199999999999875,-0.032952096189596984,-0.05332629442226606,0.7609674609034465,0.035294896664531145,-0.04464853087346569,-0.24685271201123335,0.4741363367675683,0.2338183837487292,1.24346957939315,1.0973971375909801,0.4741363367675683,0.0,0.0,0.7891910296542654,0.06794469914317251,0.3205781668316143,6,False
71,2.3666666666666667,1.639999999999987,-0.033176924139543054,-0.0565828304497713,0.7598018195219196,0.03579180959737342,-0.039206225475803,-0.20876438832021735,0.4299665923230028,0.18527380492404283,0.9213610002264281,0.8436411542677116,0.4299665923230028,0.0,0.0,0.784716399066101,0.06946954994822671,0.3003385736683886,9,False
72,2.4,1.6599999999999866,-0.03458739301257199,-0.05855985086359456,0.7594388903217274,0.03208548935175291,-0.03159849142452711,-0.18339578192960443,0.39924586978309035,0.17276945564405258,0.9448161551185501,0.7938921948074292,0.39924586978309035,0.0,0.0,0.7742627035751115,0.06902630909287692,0.23554755850650064,7,False
73,2.433333333333333,1.6799999999999862,-0.03646418435160131,-0.060190688704378666,0.7581427671481693,0.035237616405550225,-0.02427906631361098,-0.16589892874502324,0.4142674970657807,0.17479779795403805,1.0710796398637625,0.7900030834220206,0.4142674970657807,0.0,0.0,0.7803059026115815,0.07318708306708302,0.18294147047219614,8,False
74,2.466666666666667,1.6999999999999857,-0.03853576241092888,-0.06189475649529216,0.7569718130344266,0.03048487039129926,-0.018161677190551492,-0.14986098119059724,0.42125862919029833,0.17213414096077712,0.8306535601456231,0.7698043561594743,0.42125862919029833,0.0,0.0,0.787624636629007,0.07836413112443773,0.18513148486166484,7,False
75,2.5,1.7199999999999853,-0.04101179041104179,-0.06332580661317039,0.7563168986065256,0.020665247683051564,-0.016480232617660105,-0.08594780035912351,0.4016952988505213,0.196401244012543,1.1862923298799113,0.9340999466512264,0.4016952988505213,0.0,0.0,0.7889082605033061,0.08158424863800341,0.6011705502375138,7,False
76,2.533333333333333,1.739999999999985,-0.04337805767059798,-0.06408504387856712,0.756274091685124,0.010711939086238192,-0.022832124503409882,-0.03569390087307154,0.3776864953366878,0.1913807490728204,0.7819086628598761,0.9536914056116893,0.3776864953366878,0.0,0.0,0.7912418080814919,0.0845555613179066,0.4560326692567879,7,False
77,2.566666666666667,1.7599999999999845,-0.04545530916866938,-0.06408583142568212,0.7554318420545763,-0.0008928365311994215,-0.0402655104651698,-0.025431987338939293,0.35824647225626827,0.16087938629697568,0.568762746144108,0.6514628471668968,0.35824647225626827,0.0,0.0,0.7934752439273742,0.08696720791173336,0.09911911724897349,7,False
78,2.6,1.779999999999984,-0.04640423791657851,-0.06419422730730324,0.7538894012620154,-0.007846151309688649,-0.04033338268487459,-0.01412527607941902,0.3885463139167296,0.18221520640816483,0.8591949878588894,0.9042277519284028,0.3885463139167296,0.0,0.0,0.8014725562545028,0.09208298115115944,0.09922231216796083,6,False
79,2.6333333333333333,1.7999999999999836,-0.04680379680234905,-0.06449410542860323,0.7528509653446668,-0.013355342069852777,-0.028194761529036796,-0.010181418993983577,0.4409202281541708,0.17789399095367492,0.6584414784950396,0.8392516615048606,0.4409202281541708,0.0,0.0,0.7956661440842194,0.09023098499109894,0.17718666480317136,7,False
80,2.6666666666666665,1.8199999999999832,-0.047588801456848316,-0.06426835681542617,0.7515960081594362,-0.018458762660358403,-0.018191950059973754,-0.014466401504026588,0.45837164776259115,0.18925561263423657,1.0900661963612206,0.8537622548403301,0.45837164776259115,0.0,0.0,0.7810874224029865,0.0848891846507395,0.22428013876123418,6,False
81,2.7,1.8399999999999828,-0.05026176057141597,-0.0639331763058608,0.7504136583808796,-0.02380852260231635,-0.01833421126054024,-0.008821478647670852,0.41524446880335336,0.17718576476687553,0.7778061580842545,0.6148742022815946,0.41524446880335336,0.0,0.0,0.7765626795454051,0.08496192536398443,0.17431411459604024,6,False
82,2.7333333333333334,1.8599999999999823,-0.05361412799128483,-0.06298003084709199,0.7500300350752755,-0.027973999013512822,-0.019298564432831743,0.02006705956330081,0.3735461927464099,0.19893434835580662,0.7380138474208898,0.8091611661667553,0.3735461927464099,0.0,0.0,0.77989603506467,0.08761703215183268,0.3009467390085677,5,False
83,2.7666666666666666,1.879999999999982,-0.056314662333339635,-0.06231982097434078,0.7510842793210604,-0.030540996743971306,-0.024669472775575622,0.07429697653658048,0.35777006270646755,0.1563003839660343,0.5289662457579153,0.679866377190711,0.35777006270646755,0.0,0.0,0.7905784438082069,0.0927417810963682,0.5226861154631514,8,False
84,2.8,1.8999999999999815,-0.05793709756489367,-0.06066752642631248,0.7527190842225461,-0.03874247775960434,-0.02116608429443135,0.16858554585778984,0.3393530986397253,0.17073577087738506,0.8107047202671087,0.8752007093936223,0.3393530986397253,0.0,0.0,0.7694718803562618,0.08581511756290142,0.8307492305281845,7,False
85,2.8333333333333335,1.919999999999981,-0.05901764828188395,-0.05794570784956804,0.7537082855274656,-0.05282914822331835,-0.012116454879782086,0.27314807440746813,0.3545783564874172,0.20160038538092429,0.8712920253694694,1.1379506612958639,0.3545783564874172,0.0,0.0,0.7639340028988748,0.08374450181330456,0.905241323076557,4,False
86,2.8666666666666667,1.9399999999999806,-0.05983214296150264,-0.05631833989628558,0.7538394837715907,-0.059347501047297545,-0.012891746741087444,0.3329878120681858,0.36919872738959947,0.16857550481266473,0.5132979066943066,0.840177050172366,0.36919872738959947,0.0,0.0,0.7695765704957479,0.0836976707578422,0.5583510300783671,5,False
87,2.9,1.9599999999999802,-0.05991843964483639,-0.05539886786222195,0.7542757922709253,-0.057507461560097194,-0.013015369755736157,0.3451110944864487,0.3806106528885454,0.15122373262128044,0.539459495270133,0.5581749756514939,0.3806106528885454,0.0,0.0,0.7879155682181389,0.08844345600485108,0.14751710768305693,8,False
88,2.933333333333333,1.9799999999999798,-0.06052957301160154,-0.05426152240172636,0.7552735560353439,-0.050145145680440706,-0.02126021435816365,0.33201308943297936,0.4309889531810852,0.1696924906235806,1.0321232799554096,0.5400809023616704,0.4309889531810852,0.0,0.0,0.7914293434960151,0.08911637025125801,0.18089979183159974,7,False
89,2.966666666666667,1.9999999999999793,-0.06178977484065195,-0.05244296946851826,0.7559417580343326,-0.042586246612830905,-0.03487672540103731,0.3125695668950202,0.42619281250843616,0.17520139714380614,0.9611028974961708,0.6093154780757615,0.42619281250843616,0.0,0.0,0.7929723124006397,0.08916255828678954,0.2176359586409295,6,False
90,3.0,2.019999999999979,-0.06408469452923626,-0.05006635307068366,0.75479674722735,-0.03601381307187858,-0.03710711403022232,0.26746795590349043,0.39741050716029125,0.16502191872903516,0.7356593270359124,0.7059679713341824,0.39741050716029125,0.0,0.0,0.7889144321254643,0.0879777320827601,0.4549948006505135,6,False
91,3.033333333333333,2.0399999999999787,-0.06631097085055583,-0.04778755070497515,0.7533656646292594,-0.02683541896869917,-0.04154387373911982,0.2093607537825927,0.34912630962144103,0.15760905713301218,0.45604233832176794,0.5074039856148961,0.34912630962144103,0.0,0.0,0.7784675462945371,0.085281480509152,0.5912061878339837,7,False
92,3.066666666666667,2.0599999999999783,-0.06936777839020306,-0.0465690506393476,0.7527117484781541,-0.013104283039597861,-0.059250907469877455,0.1576926200504677,0.36277731276609937,0.16820288409405276,0.6447763355874815,0.6830446208790273,0.36277731276609937,0.0,0.0,0.7655200023875487,0.08401067319044776,0.5340227364550775,6,False
93,3.1,2.079999999999978,-0.07218095851803309,-0.04464452338133026,0.7521088551340375,-0.01143997887334782,-0.07276607834524443,0.1502329239661223,0.3685017866191885,0.19961381543290327,0.7592392204238968,0.545308782784247,0.3685017866191885,0.0,0.0,0.7803425777730577,0.08912001605706232,0.11052654454904119,7,False
94,3.1333333333333333,2.0999999999999774,-0.0750096524454163,-0.042117385414866475,0.7520146518745455,-0.019675041313133933,-0.08122207883270774,0.18483740542403185,0.40951065322138247,0.1980374238286688,0.6934016889065906,0.7902105552124538,0.40951065322138247,0.0,0.0,0.7822867910367252,0.09086548287970748,0.3099485206800614,5,False
95,3.1666666666666665,2.119999999999977,-0.07757720739680668,-0.0393243749740407,0.7517912360009061,-0.011693694819604417,-0.08252223589618686,0.1719095490246247,0.45439917082258086,0.21785683086001437,0.6517596034912171,0.8891249056395227,0.45439917082258086,0.0,0.0,0.7754800412938644,0.08990156001656752,0.1582792990742603,7,False
96,3.2,2.1399999999999766,-0.07976325346457201,-0.03606760758440534,0.7530354256442058,-0.007540167339132204,-0.09024181035419106,0.18741768319019594,0.4207942579932733,0.16145798853732285,0.5713641147094624,0.5652830583739724,0.4207942579932733,0.0,0.0,0.7995858223752932,0.09928612470656999,0.18131940370065203,8,False
97,3.2333333333333334,2.159999999999976,-0.08069281509317697,-0.03212671713260933,0.7539350438728575,-0.006813553336916405,-0.09880303013982712,0.19876084425372867,0.3750205694410512,0.18147786418020453,0.503787670901946,0.6524181040319763,0.3750205694410512,0.0,0.0,0.7999804087909129,0.0986260332679071,0.15442295359818742,7,False
98,3.2666666666666666,2.1799999999999757,-0.08111607028554389,-0.028267763546010398,0.7534746644606343,0.0016093165076831503,-0.1022107357025303,0.15928890335154233,0.3703295731491045,0.15041239039005913,0.5466352191788849,0.5849195379009743,0.3703295731491045,0.0,0.0,0.7821684138257948,0.09066322547163146,0.35915137953859944,6,False
99,3.3,2.1999999999999753,-0.08121851860376363,-0.02532420838665097,0.7518029606354805,0.002953738423802526,-0.09842464295373415,0.12325509800653152,0.390952932371542,0.1422958273477469,0.49976872440565356,0.6303709301762993,0.390952932371542,0.0,0.0,0.7830209827299511,0.09061660292874082,0.30749332624508596,6,False
100,3.3333333333333335,2.219999999999975,-0.08175745945610441,-0.023700568333095272,0.7510787585176113,-0.0017540785485239592,-0.09775124776240994,0.12249343856245958,0.4206811161960452,0.14901597813052206,0.552943195063501,0.6364221882865181,0.4206811161960452,0.0,0.0,0.7907128670144086,0.0937094637014871,0.10715002635678521,6,False
101,3.3666666666666667,2.2399999999999745,-0.08296744988692817,-0.022385078024061873,0.7512409548876237,-0.013292534947566355,-0.11381090155414311,0.15953571227502814,0.3672232024741525,0.13832356275346977,0.4904027008080103,0.6651319696868591,0.3672232024741525,0.0,0.0,0.7968796542613305,0.0972452290666331,0.33853763553305377,8,False
102,3.4,2.259999999999974,-0.0829521234429374,-0.020257435089834453,0.7522885390968548,-0.010781068080470113,-0.11821756242743639,0.1687502605981386,0.4285188435331997,0.15304385232291554,0.6602947508049692,0.5378240145952068,0.4285188435331997,0.0,0.0,0.7940663958448045,0.09527975729054719,0.13343931421670394,7,False
103,3.433333333333333,2.2799999999999736,-0.08359218212478484,-0.017484013125615892,0.7521889323895588,-0.003171570635230245,-0.12070126023474581,0.1611642698549745,0.40076383760480655,0.15203178899957684,0.5028964982092863,0.5112246994712861,0.40076383760480655,0.0,0.0,0.7881257287712773,0.09257068878902232,0.14992591064579594,8,False
104,3.466666666666667,2.299999999999973,-0.08447817628772186,-0.01489824356663769,0.752271728253702,0.003084636959709744,-0.1192076584730491,0.14622113246394763,0.35807886860008403,0.16764058825438236,0.592758540568706,0.659311213587472,0.35807886860008403,0.0,0.0,0.7803292995092286,0.09014609750009328,0.23502322787023414,6,False
105,3.5,2.3199999999999728,-0.08573923959826484,-0.012506508630315914,0.7521065000252926,0.016693022681796708,-0.1222496972967181,0.11142187937489643,0.3399050913664913,0.19577983057562037,0.5152570511452581,0.5649408770869826,0.3399050913664913,0.0,0.0,0.7668427209095472,0.08763134434547631,0.39685017594249594,6,False
106,3.533333333333333,2.3399999999999723,-0.08732092721686556,-0.009970753160965054,0.7519398301318179,0.027459149745994494,-0.12981424509246367,0.07293148493821075,0.3212570720423771,0.19317714681478035,0.7192399726373161,0.7257920379856058,0.3212570720423771,0.0,0.0,0.7761526780033793,0.09083472746748843,0.44789708736243583,6,False
107,3.566666666666667,2.359999999999972,-0.08862436197246218,-0.008103311497077275,0.751424103830301,0.03195910435209198,-0.13768964516956272,0.04470768114314947,0.33643792420866053,0.14434311485433776,0.6368193171542992,0.6780672139799314,0.33643792420866053,0.0,0.0,0.8041466000239911,0.10316451812580453,0.2837813921865208,7,False
108,3.6,2.3799999999999715,-0.08936563303818251,-0.0072989360478520155,0.750901568967617,0.02985182831670789,-0.1361958855384603,0.0353609056970451,0.36584471571269467,0.1337536522864971,0.3837330213544865,0.521340109387446,0.36584471571269467,0.0,0.0,0.8058311794898878,0.1049977494637952,0.20109980074202258,6,False
109,3.6333333333333333,2.399999999999971,-0.0897140168531881,-0.006980730725033747,0.7503037529662262,0.04495100396228839,-0.13152011946729378,-0.007496724478315157,0.3710939580228492,0.18732559049590178,0.9216657154043519,0.6159066616374815,0.3710939580228492,0.0,0.0,0.7944034042462641,0.10010511437689132,0.41626472736350784,7,False
110,3.6666666666666665,2.4199999999999706,-0.09085866964993136,-0.0077093554685411445,0.7492123848906083,0.08572025787404633,-0.11806610559820696,-0.12896855034202198,0.37536805764257,0.17729702033544054,0.7997496758560652,0.772710423437167,0.37536805764257,0.0,0.0,0.7678423563430875,0.09265067275344493,1.0583707266091056,5,False
111,3.7,2.43999999999997,-0.09148761178141461,-0.010041688409798247,0.7468810702881031,0.10983122411956157,-0.11706587421184905,-0.19872618577104434,0.36768582829646285,0.17657572596261456,0.6655587476685099,0.6276904721943984,0.36768582829646285,0.0,0.0,0.7797606031437866,0.0974237613468894,0.637561554814406,5,False
112,3.7333333333333334,2.4599999999999698,-0.09094885219562485,-0.011485466089604953,0.745114081386958,0.10157070668485164,-0.1196682181313459,-0.20843050751628744,0.3764996745882114,0.13724193441502316,0.41477097957434644,0.6645197008566719,0.3764996745882114,0.0,0.0,0.7898610695894698,0.10197843822686278,0.17921029735113322,5,False
113,3.7666666666666666,2.4799999999999693,-0.08910909630836085,-0.011745764269827574,0.7437183357631912,0.09235108474162818,-0.11454570443370056,-0.20010120155226838,0.4210832616420904,0.14040684527260297,0.7441753833518707,0.6154212703085681,0.4210832616420904,0.0,0.0,0.790645791596749,0.10174617679020821,0.17571122001009487,5,False
114,3.8,2.499999999999969,-0.08716420124749513,-0.011474999934139467,0.7425907806034897,0.0797316991690782,-0.10371659104811445,-0.191560465100504,0.4133299666587854,0.16660685529063374,0.8778020984048622,0.7254685655137021,0.4133299666587854,0.0,0.0,0.7844495851035882,0.09753274333129602,0.23075233840644274,6,False
115,3.8333333333333335,2.5199999999999685,-0.08682820788704006,-0.011387236184623098,0.7414933822802111,0.06964224156533157,-0.09449086560951508,-0.18165790231350099,0.41466996294064973,0.16693412010521375,0.8605590928299959,0.6908811239480815,0.41466996294064973,0.0,0.0,0.7846193587158441,0.09749649507209979,0.23872907432767995,6,False
116,3.8666666666666667,2.539999999999968,-0.08643055645538,-0.011416789226538387,0.7411417221389792,0.07023187958877264,-0.08610342646292797,-0.16401810568649308,0.44090376513618135,0.19326439020873645,0.8749500843526328,0.8724778978809526,0.44090376513618135,0.0,0.0,0.7890768600762715,0.09959549306876352,0.2339352833202315,5,False
117,3.9,2.5599999999999676,-0.08516149386770402,-0.010422392311795734,0.7410802175465488,0.06116076519229886,-0.08047944356425397,-0.14729996806386814,0.3815869658929202,0.1526802870208151,0.49603539005150743,0.7647385032186276,0.3815869658929202,0.0,0.0,0.7847330493388394,0.09669709293932449,0.28227026931192284,6,False
118,3.933333333333333,2.579999999999967,-0.08284483744053986,-0.009543847665897727,0.7417081868417013,0.04885791626323705,-0.07807422113403346,-0.12361188642047602,0.3756512110346062,0.163874543007864,0.49265969862221287,0.6469507926171447,0.3756512110346062,0.0,0.0,0.7843160826618488,0.09433583736411418,0.31001428634587747,5,False
119,3.966666666666667,2.599999999999967,-0.0796342732800279,-0.009394154423421768,0.7426187977345192,0.036572022464227916,-0.06734323709025726,-0.09137859868028549,0.41173043619595306,0.15366248334346225,0.7697081601687732,0.5994910222811505,0.41173043619595306,0.0,0.0,0.7939456081061461,0.09601648805666341,0.40746203889937777,6,False
120,4.0,2.6199999999999664,-0.07690546407264219,-0.009971768064573247,0.7435151267454293,0.021884449274017927,-0.05911480697948276,-0.036293078850917246,0.37515640780101045,0.1477041632129677,0.4924328473150455,0.4091776527465004,0.37515640780101045,0.0,0.0,0.7853907215500593,0.08877337967774543,0.5896341570850993,6,False
121,4.033333333333333,2.639999999999966,-0.07407422741307694,-0.010450473910312803,0.7442964512521613,0.007625051580224881,-0.05335417944130975,0.005428800172615351,0.38746117917524725,0.15237432855238733,0.4924012598063869,0.5276030813499528,0.38746117917524725,0.0,0.0,0.7831742451852655,0.08504676681963545,0.49511797119187145,8,False
122,4.066666666666666,2.6599999999999655,-0.07164180110685524,-0.01031618216068531,0.7455460148368802,0.007027268239671946,-0.050882293556179695,0.011054129901180283,0.4391505557938961,0.1770339206940946,0.865257249084293,0.4461114692284394,0.4391505557938961,0.0,0.0,0.7847558544808358,0.0829567041581982,0.15390478737878222,7,False
123,4.1,2.679999999999965,-0.0699220793693202,-0.010018276932388598,0.7454448901883015,0.004107394717101444,-0.047251488314580314,0.008417217631565707,0.42641842683248293,0.1786644528234646,1.0544632666367795,0.5353347854476954,0.42641842683248293,0.0,0.0,0.7884848347706144,0.08298179803372681,0.17019603469384706,8,False
124,4.133333333333334,2.6999999999999647,-0.06836860540735212,-0.010848903988388508,0.7451120811293097,-0.0016065182953600202,-0.04177564018409603,0.008045035081963322,0.4245145724473307,0.193441259961378,1.1469924492560328,0.638213889611664,0.4245145724473307,0.0,0.0,0.7884041416428024,0.08190195633528373,0.16683404326338408,7,False
125,4.166666666666667,2.7199999999999642,-0.06665920947188422,-0.01290199570260904,0.7453458204212224,-0.007250277880906474,-0.039811652510458075,0.009327807985249742,0.41682880524727034,0.19751305174335834,1.0803809862227827,0.5790587485527775,0.41682880524727034,0.0,0.0,0.7853685872314989,0.07915712916959379,0.14222001295166548,7,False
126,4.2,2.739999999999964,-0.06475222865739899,-0.015071252264660672,0.745634182389422,-0.009238328991467286,-0.037378416034475545,0.011024858698694235,0.4204096345328622,0.14984156746037475,0.778508316593819,0.4613178734317785,0.4204096345328622,0.0,0.0,0.7925609771256836,0.08170590351538291,0.10160596820105977,8,False
127,4.233333333333333,2.7599999999999634,-0.06294463981405911,-0.016146741154955985,0.7457563293824134,-0.012699525860524499,-0.03812332342481664,0.009162624400404893,0.42630369183511846,0.1504684600407895,0.707123614620502,0.5044193686436811,0.42630369183511846,0.0,0.0,0.7885545246088311,0.07814105157631338,0.0824129853099012,6,False
128,4.266666666666667,2.779999999999963,-0.06127425676727649,-0.01692488798721222,0.7453657876663842,-0.015418051862422788,-0.046339266505683104,-0.002624984028105003,0.42971988163754155,0.1522454746988992,0.8207891564915517,0.5515801809722694,0.42971988163754155,0.0,0.0,0.7788066355383414,0.07209511975146542,0.1497696364633434,7,False
129,4.3,2.7999999999999625,-0.06020852453273421,-0.018195710219394614,0.745833271854226,-0.014125151265018353,-0.05449590816823226,-0.011804818043501366,0.4125666568243712,0.11485533242789335,0.5750961700813245,0.40885543977061745,0.4125666568243712,0.0,0.0,0.7974627888279558,0.08154243053050673,0.11650247992297538,7,False
130,4.333333333333333,2.819999999999962,-0.06013632423234065,-0.019437396592671585,0.7466828591953087,-0.008569556746045672,-0.05864014403767389,-0.01347780134856969,0.38994779000654706,0.12290613853008044,0.4828803840222241,0.3790928621603557,0.38994779000654706,0.0,0.0,0.800928284422773,0.08331381053346722,0.11732455273290174,6,False
131,4.366666666666666,2.8399999999999617,-0.0610736082092953,-0.02016971067028199,0.7469459726229625,-0.00550474776024892,-0.053028524858781095,0.001344604402109308,0.40113382844821516,0.1403424754593897,0.5153158137047636,0.5724958511852679,0.40113382844821516,0.0,0.0,0.7831737965378247,0.07353560196881358,0.2117613480206962,5,False
132,4.4,2.8599999999999612,-0.06232374414220074,-0.020122783570719543,0.7451821826730209,0.0017478126621910993,-0.040379646773385104,-0.015763509916164934,0.3524221705133658,0.16717912050143896,0.9727899220800877,0.5886620965810304,0.3524221705133658,0.0,0.0,0.7833502226867958,0.07526405291973487,0.2883859540316387,7,False
133,4.433333333333334,2.879999999999961,-0.06465024571326491,-0.020198509338377378,0.7441098115402041,0.009490883370686279,-0.035762473193301586,-0.04015079852243449,0.3632897869414943,0.18771515289404905,1.1404723826842051,0.6290058461394581,0.3632897869414943,0.0,0.0,0.7678852085646446,0.07113562869580375,0.33758424822272454,7,False
134,4.466666666666667,2.8999999999999604,-0.06700977324281998,-0.02022182626211135,0.7437750113795121,0.0158739355325661,-0.037542890244988074,-0.05169166899497277,0.3588307838697565,0.16564576828957928,0.7727811750907995,0.6404444642581095,0.3588307838697565,0.0,0.0,0.7380705334634945,0.06972782017004954,0.1965834672973513,7,False
135,4.5,2.91999999999996,-0.06902072923207588,-0.020584306577573604,0.7429181444892539,0.02329152675230424,-0.03841110993383193,-0.07152571620411528,0.3684336625284259,0.1667559107762655,0.7187676727560166,0.5560271341009503,0.3684336625284259,0.0,0.0,0.7597867437262928,0.07342166021902406,0.2629850549893081,7,False
136,4.533333333333333,2.9399999999999595,-0.07100709887643823,-0.021186945392128564,0.7412391592711601,0.041521660483421645,-0.03545667343667489,-0.12096433917468993,0.3836845996631075,0.24702646035299464,0.863920657376483,0.8441256454803452,0.3836845996631075,0.0,0.0,0.7766304220039454,0.08146943311652423,0.5124553629009876,5,False
137,4.566666666666666,2.959999999999959,-0.07260440722752173,-0.020970166633775014,0.7389108156415873,0.06954565436193656,-0.028638691754861657,-0.21363951485112545,0.4053555588132223,0.26341809367661095,1.0878475528137732,1.0115896800181512,0.4053555588132223,0.0,0.0,0.7742745294115073,0.08273362892824301,0.8966161081529302,5,False
138,4.6,2.9799999999999587,-0.0748217658842356,-0.01952176810172261,0.7365105592149223,0.08907364223219782,-0.03011489310161094,-0.284605456840441,0.4650704926514472,0.3019807392321436,1.263786926382664,1.2889224746667916,0.4650704926514472,0.0,0.0,0.7804497409675779,0.0883157627705793,0.6636709894903907,5,False
139,4.633333333333334,2.9999999999999583,-0.07534189272700192,-0.01854521718627615,0.734691267970787,0.09672632946731287,-0.038514048646964165,-0.31097659287867035,0.48639479833113114,0.27508564906147054,1.1567261327614278,1.176932751836331,0.48639479833113114,0.0,0.0,0.7824538053665339,0.09095095054464752,0.24307126016228445,5,False
140,4.666666666666667,3.019999999999958,-0.07506406892991789,-0.017270874468814732,0.7341487474748672,0.0958722572833191,-0.048084271471358124,-0.31322632918408655,0.5318609131276484,0.2842282372964692,0.9960177607098692,1.3194616545286353,0.5318609131276484,0.0,0.0,0.7752567572698305,0.08744985012389826,0.05480737819507083,5,False
141,4.7,3.0399999999999574,-0.07471358737631004,-0.016101327461593706,0.7348195929594958,0.09071872173331601,-0.06058675982179052,-0.3009140175523167,0.5395432530269153,0.25850242753115293,0.8723690340619301,1.319183285048912,0.5395432530269153,0.0,0.0,0.7853462520463815,0.0918384779951657,0.12612430847116254,7,False
142,4.733333333333333,3.059999999999957,-0.07391351168511956,-0.015042368738924151,0.7356498214203723,0.08833104414943459,-0.06597926714842815,-0.27405257424285395,0.556381164328018,0.2340045961397848,0.6957293744652671,1.3473759319191712,0.556381164328018,0.0,0.0,0.7956304403105073,0.09674331761077352,0.25594044696701024,6,False
143,4.766666666666667,3.0799999999999566,-0.07303029970764924,-0.013833348730793407,0.737363151971403,0.0774254599665944,-0.06530946940914381,-0.20547917053234085,0.5574899166687083,0.2245750407229631,0.5755618880167672,1.460327167660385,0.5574899166687083,0.0,0.0,0.79556566324781,0.09484342579699696,0.7009564806452422,7,False
144,4.8,3.099999999999956,-0.0727628272399454,-0.012249196562633322,0.7378437477277074,0.06501170944159756,-0.0605718381748645,-0.16214161918517933,0.5966467206797395,0.2049227387160606,1.0479221504672938,1.1288498060688252,0.5966467206797395,0.0,0.0,0.7937762562636833,0.09265080174520421,0.5510805981373146,8,False
145,4.833333333333333,3.1199999999999557,-0.07336816742368815,-0.011176770764769998,0.7366558625789882,0.05422066638587721,-0.05248654367713324,-0.15051976408530107,0.6218869888754727,0.2093823973208535,1.4738619181530463,1.1902263560713495,0.6218869888754727,0.0,0.0,0.7881044304624266,0.08985120205284243,0.31568383052276916,5,False
146,4.866666666666666,3.1399999999999553,-0.07378772856296083,-0.010379027274885471,0.7348504163888495,0.03757071016421257,-0.047455335679557134,-0.1322170790291584,0.6058595224940281,0.19712264303440705,1.2688369283029937,0.9369768223728178,0.6058595224940281,0.0,0.0,0.7846539565765516,0.08938411551691859,0.2472669488343811,6,False
147,4.9,3.159999999999955,-0.07401705126842524,-0.00954990141101759,0.7335451976666428,0.02093155855180255,-0.049292718299040056,-0.11670183955813766,0.5396724072562086,0.16479619238982557,0.4757969423284244,0.7325390316397393,0.5396724072562086,0.0,0.0,0.7885763894550172,0.09257839473773852,0.19913178368904505,6,False
148,4.933333333333334,3.1799999999999544,-0.074062249061157,-0.008237449680342577,0.7328132651625657,0.0076639247339183375,-0.05780546175160331,-0.10532264143108973,0.5048573260307448,0.1681562146167304,0.4515119709010268,0.5442980142711203,0.5048573260307448,0.0,0.0,0.79086482327396,0.09444745567670673,0.1434919495415742,8,False
149,4.966666666666667,3.199999999999954,-0.0734688765206631,-0.006721933509884151,0.7328547016461259,0.009174119419339474,-0.0545398824677182,-0.10837811608917469,0.5702300725400098,0.19475853085770978,0.9293164273215277,0.5596357983744965,0.5702300725400098,0.0,0.0,0.7874697505931736,0.09193005651523224,0.12215484471817321,5,False
150,5.0,3.2199999999999536,-0.07316112385286169,-0.004343592207236901,0.7325193414289476,0.008726921084759198,-0.05693522659679965,-0.1125612573831982,0.54794283500395,0.1894998378098658,0.8862621983044578,0.547899285529602,0.54794283500395,0.0,0.0,0.789576517705396,0.09285865548274462,0.14426752068983326,7,False
151,5.033333333333333,3.239999999999953,-0.07326034810972604,-0.001382457342685284,0.7325622681276681,0.00460844689580218,-0.060566328282213276,-0.10551006427198416,0.5366134612018594,0.15634519658483806,0.6393619427516867,0.4319156784473225,0.5366134612018594,0.0,0.0,0.7918791579999536,0.09425617012559914,0.17212509205707202,6,False
152,5.066666666666666,3.2599999999999527,-0.07353870341569752,0.0008054718803585654,0.7337600804655952,0.00021012076589438594,-0.062033963493622224,-0.07714363846985735,0.5358312256404861,0.15961991994967797,0.5032887568587961,0.5698463765134443,0.5358312256404861,0.0,0.0,0.7910996096501235,0.09345865712376361,0.3201395371007187,8,False
153,5.1,3.2799999999999523,-0.07333097397775587,0.0020779823334073303,0.7345344861644518,0.005192798764064033,-0.0642967879999199,-0.06869183671356817,0.5752125606802054,0.16817717589553513,0.48134190856416903,0.565626541551797,0.5752125606802054,0.0,0.0,0.7914030314941826,0.09298944274591943,0.1479906023223949,9,False
154,5.133333333333334,3.299999999999952,-0.07333582931513676,0.0028579752391868865,0.735097451433762,0.013680587640910503,-0.06622396148570628,-0.07970756065793347,0.5790554785725078,0.16845250185030322,0.881375534573897,0.4844101912390432,0.5790554785725078,0.0,0.0,0.7877953775814092,0.09038177226665767,0.13229852059455027,7,False
155,5.166666666666667,3.3199999999999514,-0.07357672773845989,0.0031498173873065766,0.734806607513781,0.006965044899679481,-0.06806899116941742,-0.0723605235083692,0.571419801922972,0.16735817935656636,1.1031404635974003,0.6339492669170234,0.571419801922972,0.0,0.0,0.7879789940217209,0.09068012525349607,0.14132362699314535,7,False
156,5.2,3.339999999999951,-0.0740795234432917,0.002821786955802756,0.7345303762856411,0.00843301371570152,-0.06850016115629966,-0.05835460609345566,0.5648094607585472,0.16288555071721197,0.9800176166940151,0.5372510381682764,0.5648094607585472,0.0,0.0,0.7857173754259084,0.0899325771159796,0.1865089217202284,8,False
157,5.233333333333333,3.3599999999999506,-0.07464581509961667,0.0029414605345712483,0.7349634975060125,0.009482437364342795,-0.06590671501832678,-0.04181839962930546,0.5440259045569092,0.15267582162974344,0.5492628345067332,0.4717056853478584,0.5440259045569092,0.0,0.0,0.7810242249790907,0.0877321204929372,0.22303089190721706,7,False
158,5.266666666666667,3.37999999999995,-0.07462811919059323,0.0032169812331378157,0.735526573066836,0.009514797897782127,-0.055371676594725756,-0.022168412722298993,0.5015162255725142,0.15998441888555878,0.5204421056950833,0.5196057256499144,0.5015162255725142,0.0,0.0,0.7762472523093128,0.08520704365664805,0.370855362628316,8,False
159,5.3,3.3999999999999497,-0.07392930859338508,0.0032796371239761533,0.7354967129494748,0.00910995931091484,-0.04453549291357436,-0.020545552715698752,0.5342735485453824,0.14577135839817848,0.5457174127221469,0.5440107855608097,0.5342735485453824,0.0,0.0,0.7897579077045305,0.09188944341596135,0.2618297605033592,8,False
160,5.333333333333333,3.4199999999999493,-0.07362022687796273,0.002531170450592767,0.7355644474350815,0.008588350349991846,-0.03769457126544414,-0.015148972522354004,0.5484584079382125,0.13979098767123924,0.5423192303241815,0.4287148038179649,0.5484584079382125,0.0,0.0,0.7895902655459988,0.09138803287483854,0.16946749293143087,7,False
161,5.366666666666666,3.439999999999949,-0.07392369534949335,0.0022656142424309347,0.736965665302049,-0.0011150157124071413,-0.03386718988771668,0.0440630284526413,0.5325269477395049,0.15267202932126683,0.6307437678233965,0.8047892601649582,0.5325269477395049,0.0,0.0,0.7736526097237424,0.08266838749801642,0.5958916813843194,6,False
162,5.4,3.4599999999999485,-0.07323294179364857,0.0022380159962086935,0.7377472917078237,-0.0018143348082916668,-0.02897268441643208,0.10305377407479246,0.5632708739486233,0.12578142373130957,0.47597955397918623,0.6477507433440063,0.5632708739486233,0.0,0.0,0.7787685753817615,0.08433611079897305,0.6130323407286765,7,False
163,5.433333333333334,3.479999999999948,-0.07212857996966322,0.002370396762177298,0.7378694851203674,-0.00107122082443757,-0.023646620949051317,0.10555498601547168,0.6017396338519644,0.1519393708167059,0.7786066397397826,0.6144218290299412,0.6017396338519644,0.0,0.0,0.7817858266527722,0.08463954105142094,0.22079977258858818,8,False
164,5.466666666666667,3.4999999999999476,-0.07209843680483537,0.0019873149511764445,0.7389600477404311,-0.0013359053951006571,-0.025841652769367646,0.12087151425956291,0.5400637245382937,0.14606822529955005,0.4218228828348836,0.4499439632278258,0.5400637245382937,0.0,0.0,0.7823502156795904,0.08431813126742164,0.20316788073434872,9,False
165,5.5,3.519999999999947,-0.07196833256578909,0.0018008076656128346,0.739642996520868,0.0016855515948953667,-0.033835726970733955,0.11857430035648761,0.5222211788905414,0.13778704687125573,0.4730138257859812,0.3346952612465198,0.5222211788905414,0.0,0.0,0.7911549913786103,0.08867229590112036,0.05503495821111866,8,False
166,5.533333333333333,3.5399999999999467,-0.07142836289334129,0.001563411342532975,0.7398093108545983,0.014520681339562927,-0.035556955611579046,0.09069280728712664,0.5485845802060375,0.143924005470202,0.5678252321032217,0.43808179161939764,0.5485845802060375,0.0,0.0,0.797151061698038,0.09163815916476559,0.2988057127594851,7,False
167,5.566666666666666,3.5599999999999463,-0.07218134921718498,0.0016442448928530363,0.7400212056194627,0.027706683532849222,-0.04218822842632899,0.0747394095761798,0.5453183731265933,0.162814391957653,0.5981625075523143,0.5481430319479599,0.5453183731265933,0.0,0.0,0.7854568608840221,0.08506008646416124,0.18485957798030345,5,False
168,5.6,3.579999999999946,-0.0734377942967396,0.0017805464820358286,0.7389868684448868,0.03392979619394419,-0.0439086815057695,0.05742263361892765,0.5498862763147142,0.12342303455225917,0.5428753003806701,0.42443933423213054,0.5498862763147142,0.0,0.0,0.785619595828058,0.08658550135257849,0.23684325930804484,8,False
169,5.633333333333334,3.5999999999999455,-0.0744989653464724,0.00063915085974312,0.7378071684369577,0.032512117336076195,-0.041002161398703274,0.0442299797309816,0.5619699139101477,0.11608174965907099,0.5177968254252967,0.36659275614899606,0.5619699139101477,0.0,0.0,0.7891106246598921,0.09011463368038697,0.2546566540181148,8,False
170,5.666666666666667,3.619999999999945,-0.0752256908548844,-0.0010684890334992812,0.7373155247422132,0.029339548607740733,-0.037152979512765104,0.0462046238915397,0.5216035596067372,0.1453749266075437,0.5574418363317202,0.25130558560931815,0.5216035596067372,0.0,0.0,0.7966058710451204,0.09559695816720223,0.16483593682748113,8,False
171,5.7,3.6399999999999446,-0.07562643434146868,-0.0027598138413471645,0.7369990843256579,0.029263779515138595,-0.04341548962136005,0.037311816804265006,0.48621390994974534,0.1657129986620304,0.6047980121219758,0.43475525419258515,0.48621390994974534,0.0,0.0,0.793321228980121,0.09424599195335777,0.16741572766842355,7,False
172,5.733333333333333,3.659999999999944,-0.07505535853175233,-0.004858592081333088,0.7366273790144658,0.03012006505218051,-0.0522222689794814,0.01637359947979022,0.4909310749588757,0.13330799887576392,0.6388857837828477,0.4277389874912483,0.4909310749588757,0.0,0.0,0.7908942585145452,0.09288469248747964,0.24579993813528786,9,False
173,5.766666666666667,3.6799999999999438,-0.07398702212077853,-0.007404541805150523,0.7366089458052613,0.025704105816211652,-0.05953460662694546,0.013296113526283196,0.5332968463537382,0.12625413978451955,0.47644113612010636,0.4278205047069188,0.5332968463537382,0.0,0.0,0.7906806136157378,0.09210302030187882,0.03901846805565759,10,False
174,5.8,3.6999999999999433,-0.0736722301831787,-0.010011627726710394,0.7362490239498146,0.029702717968954857,-0.06641597813429516,-0.0011270954260002056,0.5024988986020823,0.12931288489421106,0.47514021064168177,0.2685618157723956,0.5024988986020823,0.0,0.0,0.6998481324706369,0.08273217681041108,0.15729182770258446,9,False
175,5.833333333333333,3.719999999999943,-0.07496413364399396,-0.012408966233190967,0.7353799962967663,0.05172757941644508,-0.0666764571934679,-0.033384929992035656,0.5158281821295208,0.1763466651499233,0.692310247242514,0.4926606103476623,0.5158281821295208,0.0,0.0,0.625392635718871,0.13358642198596232,0.3875659691786944,9,False
176,5.866666666666666,3.7399999999999425,-0.07637065676178481,-0.013555997306959179,0.7338261403867244,0.04986552680542389,-0.06796336227978277,-0.04086237889041071,0.5299761515398181,0.13012236390070764,0.5241131544224298,0.3161882016763197,0.5299761515398181,0.0,0.0,0.7568597283077841,0.08046368116054636,0.2060120347352931,8,False
177,5.9,3.759999999999942,-0.07835464303987218,-0.014567947937046738,0.7328992863418802,0.04996458583435867,-0.060718352738119055,-0.040596748528259764,0.561642708539546,0.1261341393431511,0.566915896601409,0.2933981748465355,0.561642708539546,0.0,0.0,0.7834559600925957,0.09381055500325831,0.22951290380468273,7,False
178,5.933333333333334,3.7799999999999416,-0.08032534966313716,-0.014939777073508685,0.7325897333086424,0.06205733314437301,-0.05089674237477104,-0.04230396154660569,0.5198592743188395,0.11886655079175634,0.4531153298385957,0.374549299585781,0.5198592743188395,0.0,0.0,0.7791047452485079,0.09360696531704779,0.20213725531694704,8,False
179,5.966666666666667,3.799999999999941,-0.08176554900447497,-0.013621529936740165,0.7327257288493849,0.0696019986192952,-0.05179555353304108,-0.045010634302169485,0.5082994747068961,0.12795625142402003,0.4850844306487568,0.22014338096057798,0.5082994747068961,0.0,0.0,0.7939926847992005,0.10299146775742557,0.08038496736350811,8,False
