frame,video_time_s,sim_time_s,root_x,root_y,root_z,root_roll,root_pitch,root_yaw,joint_target_abs_mean,joint_error_abs_mean,joint_error_abs_max,joint_velocity_abs_mean,ctrl_abs_mean,root_target_z,root_position_error_m,root_orientation_error_rad,contact_count,fall_proxy
0,0.0,0.2200000000000001,0.01384315166690862,0.001108622167043256,0.7835143399662567,0.018628499924889286,-0.06257617463772269,0.04760957385385863,0.34667414421986403,0.04568310893809082,0.3084352230989743,0.19663882009699318,0.34667414421986403,0.799267590045929,0.020667551222394297,0.010815031955868212,8,False
1,0.03333333333333333,0.24000000000000013,0.014971446878724445,0.0015975536928246972,0.7827356371025893,0.013496089259170932,-0.043007626012004356,0.014818465168510984,0.24883581447447167,0.22163428826068762,0.8298682646748646,1.5469644577816672,0.24883581447447167,0.7736662030220032,0.017657994116708334,0.28350839782323434,5,False
2,0.06666666666666667,0.2600000000000001,0.013512506980107527,0.002750287849085013,0.7808012064923183,0.024574491302177672,-0.017654901299056475,-0.08531995832245018,0.34975324249986944,0.261801216637819,1.3110459153977039,2.2274232484897443,0.34975324249986944,0.7665624022483826,0.02073548871215319,0.8443009321032237,2,False
3,0.1,0.28000000000000014,0.012317426092226956,0.003188850018983239,0.7766964699314225,0.028248271416580883,0.0033771103091652143,-0.1017238680494504,0.3352762745886013,0.22332122749955255,1.0677216317933043,1.7257801374660304,0.3352762745886013,0.8179628252983093,0.04212082291070633,0.30358258680073186,2,False
4,0.13333333333333333,0.30000000000000016,0.013287929273516578,0.002882440544669663,0.7728928650746241,0.025840460998466586,-0.010469760134572114,-0.08999942803807036,0.40077793093173414,0.17380951407465386,0.6831670291255958,1.0066361261511274,0.40077793093173414,0.7946969866752625,0.02451290568271648,0.10598418122748153,2,False
5,0.16666666666666666,0.3200000000000002,0.015639826175523723,0.001472767683082809,0.7692018805141636,0.032417597005204815,-0.013659015912747747,-0.08705306203251374,0.37059471636593083,0.17533066258779395,1.0105102629639797,0.986390122920173,0.37059471636593083,0.7856760025024414,0.021937379737836007,0.08171210690236508,6,False
6,0.2,0.3400000000000002,0.01896149886964354,-0.0002810973577302372,0.7681095103189944,0.03627124835531814,0.0060187725427058485,-0.07080044785646791,0.3783863129030014,0.2011908430271672,0.7960586865403014,1.214383133780529,0.3783863129030014,0.7862216234207153,0.02564317947331416,0.21275756191755352,7,False
7,0.23333333333333334,0.3600000000000002,0.020571196652256662,-0.0004740385033959208,0.7671598220126291,0.02490652309413358,0.026294284111525623,-0.16093349032022275,0.29459869314049336,0.16173000393904496,0.6370407314280555,1.2467006095830513,0.29459869314049336,0.7713003754615784,0.020694785460697668,0.788126519550919,5,False
8,0.26666666666666666,0.3800000000000002,0.02152256691116752,-0.0009314660215300041,0.7664792075607553,0.008299641190044777,0.04169898081629704,-0.23974030240197874,0.29459869314049336,0.14890393994947643,0.55945376095598,1.1787823096913024,0.29459869314049336,0.7713003754615784,0.02178606889380586,0.7085502135182162,5,False
9,0.3,0.40000000000000024,0.02271212803382055,-0.00183669603459217,0.7656765248617872,-0.007084365132916683,0.05528610969094014,-0.31489149775881253,0.2926663790733136,0.133411687655428,0.48537783624938724,1.0413910978657737,0.2926663790733136,0.7708408236503601,0.023008225579667547,0.6569176539745645,5,False
10,0.3333333333333333,0.42000000000000026,0.023926129333089418,-0.00322153255216857,0.7644548805925852,-0.019267261688117432,0.06757649606938099,-0.3867066502723182,0.28980230935046386,0.12075287287815009,0.41403281012253,0.9140853242339537,0.28980230935046386,0.7705671787261963,0.024510641824345286,0.6101815191751263,3,False
11,0.36666666666666664,0.4400000000000003,0.02477166430394928,-0.004656057165212383,0.762596306135034,-0.03262646901778662,0.07841419323008042,-0.4518807488533372,0.28980230935046386,0.11008661481960422,0.38660010693542984,0.7980924026606602,0.28980230935046386,0.7705671787261963,0.02605208588321177,0.5440142925128096,4,False
12,0.4,0.4600000000000003,0.025391535301577627,-0.006272599633468205,0.7605247587080296,-0.04473346225062207,0.0879553435193258,-0.5133730654814452,0.2860900204757164,0.09818808874859386,0.3831671702999478,0.7551422711867621,0.2860900204757164,0.770274817943573,0.027539304892644712,0.5078964205232144,5,False
13,0.43333333333333335,0.4800000000000003,0.025811648214691185,-0.008036343738203364,0.7589129571210942,-0.05503691536664766,0.09676642534852507,-0.5706701720572327,0.281953623197202,0.08707291158323616,0.3858666813712783,0.7044207419839917,0.281953623197202,0.7699729800224304,0.028867064825336873,0.4763278169934059,4,False
14,0.4666666666666667,0.5000000000000003,0.02595984560470901,-0.009610235106114584,0.7574334897985708,-0.06495920828269477,0.10444428814268933,-0.6225953920244988,0.281953623197202,0.07974134153522745,0.37954954405705627,0.666708600143268,0.281953623197202,0.7699729800224304,0.030133084776336045,0.42481380582944644,5,False
15,0.5,0.5200000000000004,0.025961060631937153,-0.010902846519539686,0.7561625673770392,-0.07299828912258578,0.11123430043618177,-0.6726395489354441,0.2768099015771315,0.07628146788618655,0.3865945644572475,0.608870626545143,0.2768099015771315,0.7694618105888367,0.030919738169065163,0.39923768054578307,5,False
16,0.5333333333333333,0.5400000000000004,0.02592077693188607,-0.011926473501355924,0.7551433045396293,-0.08092718965751552,0.11779175482746441,-0.7199554553808567,0.2716866747058671,0.07695282425438536,0.3947077073669515,0.5307348643050541,0.2716866747058671,0.7688744068145752,0.03150096740520786,0.37558714874837024,4,False
17,0.5666666666666667,0.5600000000000004,0.025737792245621158,-0.012790510480547745,0.7541732787830141,-0.08768170650785777,0.12368947428210804,-0.7622325699455285,0.2716866747058671,0.07798625681754648,0.394689732060927,0.47168893603776985,0.2716866747058671,0.7688744068145752,0.032154857760831025,0.33436774195876307,6,False
18,0.6,0.5800000000000004,0.0254759347891087,-0.013666079915656448,0.7534769971731534,-0.09334130711923697,0.12955437643122722,-0.8015995036509956,0.2666044296568324,0.08319459158215863,0.40365686991341987,0.4246046939313532,0.2666044296568324,0.768134593963623,0.03230557131789084,0.3167007357918871,4,False
19,0.6333333333333333,0.6000000000000004,0.025141144242400104,-0.014487342691311186,0.753005402882573,-0.09791747706803003,0.1346212284251037,-0.8384948999688588,0.2615480948689169,0.09070162311598857,0.41079632256013804,0.40985101200584023,0.2615480948689169,0.7673659920692444,0.03231649365209168,0.2995219171508745,5,False
20,0.6666666666666666,0.6200000000000004,0.02362358552846005,-0.01666242869649466,0.7534152058848527,-0.10145236666414294,0.14799194308430702,-0.7555289258588348,0.3973475205230302,0.2515759579686454,1.2598209822282107,1.2415450520757614,0.3973475205230302,0.7734779715538025,0.03521037262855148,0.7398862084530182,3,False
21,0.7,0.6400000000000005,0.022749786422620166,-0.01928748016651038,0.7546524456446823,-0.09021015871177283,0.16569740545917672,-0.6761737591144905,0.4034615141973863,0.29371390350206417,1.326429269131753,1.4428124273797693,0.4034615141973863,0.782861590385437,0.04113073833540838,0.708833267953521,5,False
22,0.7333333333333333,0.6600000000000005,0.02214198422412725,-0.020875619622226213,0.7569644915566118,-0.07526410051175492,0.1683914971828806,-0.6147455937269612,0.3149353009086616,0.21100872756340594,1.2420961477597028,1.1986506631869407,0.3149353009086616,0.785527229309082,0.042015960504836504,0.5704697951954008,5,False
23,0.7666666666666667,0.6800000000000005,0.021964114468654906,-0.021669769820028606,0.7585720130426593,-0.06173538211398048,0.169593986209896,-0.5578301280948309,0.3149353009086616,0.20128501069598692,1.1462110612529783,1.1766679526578758,0.3149353009086616,0.785527229309082,0.04116320424023559,0.5129504627068994,4,False
24,0.8,0.7000000000000005,0.022108215650239123,-0.021580140049792335,0.7591463955882269,-0.05241307028528641,0.17059699544520635,-0.508416305170583,0.31082479695082993,0.18164238136735034,0.9903412921939568,1.019957512819684,0.31082479695082993,0.7849310040473938,0.04037525813262013,0.4605373274979738,5,False
25,0.8333333333333334,0.7200000000000005,0.02234901763214251,-0.02075548065823363,0.7599658729077509,-0.04656510129691946,0.17191906648324187,-0.4657365552260206,0.3061376205276184,0.16449729547954703,0.8306507266434753,0.9041231972564854,0.3061376205276184,0.7843490242958069,0.03929062898898545,0.4157243296718298,4,False
26,0.8666666666666667,0.7400000000000005,0.02235012845545032,-0.020075094694752847,0.7609664298586624,-0.03675134084071141,0.17092504193398375,-0.42791789102365946,0.3061376205276184,0.15401300930703102,0.7289525373574792,0.80515821707796,0.3061376205276184,0.7843490242958069,0.038361639506178845,0.3775626407159408,6,False
27,0.9,0.7600000000000006,0.02265017484979677,-0.019498837032712282,0.7626556358046774,-0.026969640686414095,0.1689579271790139,-0.3954070432599748,0.2988647120796016,0.13645388775707906,0.5783209706819176,0.7483388513049284,0.2988647120796016,0.7838960289955139,0.036900730394364124,0.3434212431210034,5,False
28,0.9333333333333333,0.7800000000000006,0.02333448374750921,-0.019302835929522377,0.7638173547084385,-0.01670951573086532,0.16700481137547804,-0.36522326282944256,0.2907927579503378,0.12063008686538072,0.43420385441341625,0.6306272340806998,0.2907927579503378,0.7834697961807251,0.036156929956358136,0.31201697333037276,7,False
29,0.9666666666666667,0.8000000000000006,0.024485788830691364,-0.019147147216579667,0.7648527706288516,-0.008960751168873314,0.16594665744055742,-0.33893999838691413,0.2907927579503378,0.11226584545586843,0.40454869033810387,0.5667630042978699,0.2907927579503378,0.7834697961807251,0.036088540372644334,0.28572412170203976,6,False
30,1.0,0.8200000000000006,0.02592545364064821,-0.01918797124346864,0.7655489193677516,-0.0021615544846852962,0.1649203392731186,-0.3150110962033475,0.2810445166963699,0.10555409770236437,0.41801729913786473,0.5010400637253168,0.2810445166963699,0.7830972075462341,0.03652188446679098,0.26108812796392544,7,False
31,1.0333333333333334,0.8400000000000006,0.02762646345168882,-0.01931194041586584,0.7660911268725532,0.0029261353761296975,0.16509635366114006,-0.2931586891043615,0.27083564111320624,0.10570178162437459,0.4279110474941747,0.5116376651379396,0.27083564111320624,0.7827097773551941,0.037271103702756284,0.23871039345399742,5,False
32,1.0666666666666667,0.8600000000000007,0.029397433358579878,-0.01972121982888704,0.7660964925513514,0.008792938098651946,0.16484013868794847,-0.27270094682830365,0.27083564111320624,0.09845853959089135,0.43636470590268694,0.45024636629322373,0.27083564111320624,0.7827097773551941,0.0387265029824521,0.21849272368525902,7,False
33,1.1,0.8800000000000007,0.03136268852414197,-0.020019625862278297,0.7662050479732803,0.011918939892487424,0.16528262757616397,-0.2546412349914552,0.2635520662437996,0.09933223210669352,0.44307024305535,0.5014258813109786,0.2635520662437996,0.7823150157928467,0.04012884707855418,0.1996073785018045,7,False
34,1.1333333333333333,0.9000000000000007,0.033413351530965064,-0.020276805596024603,0.7660609163961045,0.013614452816642305,0.16627767724217743,-0.23734573628674566,0.25993452502960535,0.1027246054218402,0.44809234449660357,0.5258876710463851,0.25993452502960535,0.7816286087036133,0.04161747595159501,0.18200794354489838,6,False
35,1.1666666666666667,0.9200000000000007,0.03544739581585444,-0.02079172371014161,0.7655915898927123,0.017567630184248596,0.16644827114678087,-0.22124209230119407,0.25993452502960535,0.09404279711645964,0.4547159372254909,0.49720066814823755,0.25993452502960535,0.7816286087036133,0.04361454389118225,0.16690492272050553,7,False
36,1.2,0.9400000000000007,0.03761258066030029,-0.021110488978432568,0.765291316967204,0.018833307372855674,0.16704689843470263,-0.20725580174516206,0.25648728655330066,0.09492092890170653,0.46034126944554743,0.5810661700847134,0.25648728655330066,0.7808011770248413,0.04532675969790245,0.15232079971682216,7,False
37,1.2333333333333334,0.9600000000000007,0.0392950692795444,-0.02189089070868064,0.7654487917293527,0.017606165884799373,0.14903714895970877,-0.17800437048343998,0.3927280540449609,0.23255417295858977,0.9021891231044086,1.164891177691257,0.3927280540449609,0.789027214050293,0.05034701569106711,0.31467542866278086,6,False
38,1.2666666666666666,0.9800000000000008,0.04146098836594743,-0.022634556613153906,0.766051867703377,0.01897335259424092,0.13198722970108615,-0.1548824334752634,0.39702875766620155,0.2277591263651362,0.7693233661842569,1.0632237060175758,0.39702875766620155,0.7947520017623901,0.05472749779162594,0.25593118647857344,2,False
39,1.3,1.0000000000000007,0.04421835640166993,-0.023052813525021715,0.7649412193403181,0.007994533009298165,0.14275723224895515,-0.1850712773298834,0.2904983991114744,0.25047851615198063,0.854125213234867,1.220958858396709,0.2904983991114744,0.7734907865524292,0.04997412041942284,0.2942053605269026,6,False
40,1.3333333333333333,1.0200000000000002,0.045943117242620825,-0.02300167496639546,0.7639813338461984,0.012239193749858043,0.1534042207532344,-0.18995508089796614,0.36144168707060403,0.23710179731145026,0.9893417331792529,1.3735214652085377,0.36144168707060403,0.7687820196151733,0.05125063211334498,0.143359680101853,5,False
41,1.3666666666666667,1.0399999999999998,0.048542952260008466,-0.022407569163810166,0.7617332835256337,0.0007617928441373835,0.1520909503280322,-0.18239452432461026,0.28399826265100775,0.17111992793500583,0.7482051542923307,0.9997361865616198,0.28399826265100775,0.7715858221054077,0.05368560990654076,0.16232651311703217,6,False
42,1.4,1.0599999999999994,0.05118167154678402,-0.02193900465613095,0.7587237826856421,-0.012851337343089908,0.14360128082044546,-0.1775382577351516,0.2849479249903354,0.15617393303591848,0.7051089328329858,1.0260163327885152,0.2849479249903354,0.7707449793815613,0.05628272714966089,0.15054432530561265,6,False
43,1.4333333333333333,1.079999999999999,0.05341810055008894,-0.021557220335769334,0.7555719791225499,-0.02526549155205413,0.1345258610830027,-0.17437098766081136,0.2865287555574343,0.1431754729211902,0.6390511417265575,0.9723570343974163,0.2865287555574343,0.7698630094528198,0.05872353252504891,0.13854362021990374,8,False
44,1.4666666666666666,1.0999999999999985,0.05545144671681428,-0.02131359092898181,0.7527286238600872,-0.03593686599165584,0.12673602586494556,-0.17263873405703348,0.2865287555574343,0.1323716541042645,0.5576044579361943,0.9228574369202641,0.2865287555574343,0.7698630094528198,0.0612130917312961,0.12929006512886693,8,False
45,1.5,1.119999999999998,0.05726757345442643,-0.020863616383028888,0.7495086825231868,-0.04756196038506004,0.11998640387915202,-0.17025322832985665,0.2883283658402747,0.12000305680538716,0.46812460709308756,0.846620034129078,0.2883283658402747,0.7688999772071838,0.0633693392604084,0.12151546989881976,6,False
46,1.5333333333333334,1.1399999999999977,0.0587405760452956,-0.020329261542661417,0.7463037847543914,-0.057661474484270274,0.11418766092421472,-0.1692325239140045,0.2901877475067459,0.1094512722134133,0.37425797163865576,0.8232966396321967,0.2901877475067459,0.7679005861282349,0.06527932472693576,0.11555200752202187,7,False
47,1.5666666666666667,1.1599999999999973,0.06013977306645331,-0.019828948339126216,0.7434041104754467,-0.06656446793640912,0.1099708459086037,-0.16821543084469492,0.2901877475067459,0.09963939396071976,0.30765257077167296,0.7566834141578156,0.2901877475067459,0.7679005861282349,0.06738789033019092,0.11232524666671612,6,False
48,1.6,1.1799999999999968,0.0612852448189886,-0.019429427532516204,0.7405771424318472,-0.07332494328472325,0.10616431297088182,-0.16829664542522974,0.2921666693713131,0.09034870869306946,0.3058505752833445,0.6632949659909938,0.2921666693713131,0.7668284177780151,0.06896355888184741,0.10944527442741371,8,False
49,1.6333333333333333,1.1999999999999964,0.06220166402257454,-0.018977218616134318,0.7377984934817763,-0.08064301426415388,0.10218819890144391,-0.16899321737931833,0.2942505194323844,0.08188353779771944,0.3042027905642011,0.6176897245998937,0.2942505194323844,0.7656605839729309,0.07033073509414593,0.10676909307295944,8,False
50,1.6666666666666667,1.219999999999996,0.06306160600718742,-0.018422275868885354,0.7351884399967695,-0.08874285648448547,0.09893819882871505,-0.16947366035707262,0.2942505194323844,0.07357344172039568,0.30355279926541545,0.5544384550046977,0.2942505194323844,0.7656605839729309,0.07199112259342721,0.10570002651707235,6,False
51,1.7,1.2399999999999956,0.0636889065194856,-0.01770197159259052,0.7324721027845709,-0.09672113679671457,0.09564561613534886,-0.17008930093876856,0.2963868258199815,0.0688536210758807,0.31531175150843804,0.5059398819543527,0.2963868258199815,0.7644450068473816,0.07307731620519461,0.10516978006670169,6,False
52,1.7333333333333334,1.2599999999999951,0.06400662797203076,-0.01703002211820138,0.7300713741938937,-0.10308017935318763,0.09281579832881144,-0.1714783797080655,0.29865385829631624,0.07217446985679672,0.3471945554700374,0.4763255472836429,0.29865385829631624,0.7633488178253174,0.07385603284045979,0.10534318513921982,6,False
53,1.7666666666666666,1.2799999999999947,0.06428225806124917,-0.016760189149338404,0.728011938621115,-0.10878456624947276,0.08990093257561035,-0.1740006496539204,0.29865385829631624,0.073572947038443,0.3693232424140819,0.35234596297261805,0.29865385829631624,0.7633488178253174,0.07495257549568726,0.10469477163284942,9,False
54,1.8,1.2999999999999943,0.0644036667285397,-0.016818254247535854,0.7260264447096427,-0.11218182285068345,0.08648979505610956,-0.17630671505651221,0.3006824615957408,0.07605393530865728,0.40342657400192394,0.28648659647439956,0.3006824615957408,0.7627230286598206,0.07576889555692636,0.10357297132162127,8,False
55,1.8333333333333333,1.3199999999999938,0.06417751999832853,-0.016335875150128833,0.7241007043855979,-0.11562911939421214,0.08266460151275103,-0.17851084846277104,0.3022342288288577,0.07765095923688817,0.4359197521074154,0.25109908942820214,0.3022342288288577,0.7630379796028137,0.07667801443868709,0.10205686587964222,8,False
56,1.8666666666666667,1.3399999999999934,0.0640283417294964,-0.015699420252618113,0.7221891277197466,-0.12014132810199891,0.07957946774232966,-0.18068553533080023,0.3022342288288577,0.07474526126091499,0.41415340610741724,0.2792889641815123,0.3022342288288577,0.7630379796028137,0.07735236802853236,0.10097964177691861,7,False
57,1.9,1.359999999999993,0.06377133248774021,-0.015136326825682767,0.7203617440647336,-0.12366277985412838,0.07642802326540309,-0.1826879097409495,0.3029909597003254,0.07565025992804565,0.43301084935276346,0.25999057433426126,0.3029909597003254,0.762812614440918,0.0779455983590012,0.10044190564710805,6,False
58,1.9333333333333333,1.3799999999999926,0.0640868177953775,-0.01744308396657902,0.7204918400797113,-0.10721577603849235,0.09648935986754477,-0.08544638993175176,0.31594107090495527,0.3336239762762674,1.3917514650908187,1.7817913307246291,0.31594107090495527,0.7806270122528076,0.08957079711131326,0.844125251858015,6,False
59,1.9666666666666666,1.3999999999999921,0.06400810319482893,-0.018860711998306308,0.7258737394207979,-0.08446297648895233,0.08615084503328345,-0.0719350628975051,0.36415796420247903,0.32853672548625307,1.2872222993226927,1.6039601021266758,0.36415796420247903,0.8000102043151855,0.10071582613148476,0.18770500390517642,7,False
60,2.0,1.4199999999999917,0.06566262730026445,-0.019964159699392768,0.7327358203681485,-0.06644475326337974,0.08471677853658309,-0.06091629072520308,0.3641362412318844,0.3009576923713748,1.2006372981466487,1.5793613044065087,0.3641362412318844,0.8000209927558899,0.09695247487486537,0.17087954099054972,8,False
61,2.033333333333333,1.4399999999999913,0.0678728651070433,-0.020792996501902788,0.7394264948459442,-0.04997871250156663,0.08344419286040487,-0.052361193555858346,0.3641362412318844,0.27275110203972014,1.0986173330933509,1.5405995793226364,0.3641362412318844,0.8000209927558899,0.0939290676565802,0.15807488865372396,6,False
62,2.066666666666667,1.4599999999999909,0.06936426679703747,-0.021176060195911808,0.7448324202442791,-0.03590309734039636,0.08060969154059645,-0.045782001054507554,0.3641133426833127,0.24507594552773848,0.9854659926561471,1.4154765478513185,0.3641133426833127,0.8000329732894897,0.09169436642172292,0.14694759852417527,7,False
63,2.1,1.4799999999999904,0.06990256585335433,-0.021100331159397967,0.7492926033068756,-0.02516881372761221,0.07745188591507889,-0.03979928894014021,0.3640755660558954,0.21927766553522648,0.865653751178114,1.297405254263088,0.3640755660558954,0.8000450134277344,0.08948239162235906,0.1377958730129618,7,False
64,2.1333333333333333,1.49999999999999,0.06979059792085104,-0.020755120168117144,0.7530106341690868,-0.016464019670808794,0.07466000466946243,-0.03457859587856278,0.3640755660558954,0.19533912934023925,0.7523529967756049,1.1805281003477106,0.3640755660558954,0.8000450134277344,0.08724186597613431,0.1304779724348118,8,False
65,2.1666666666666665,1.5199999999999896,0.06925200658369494,-0.02025538761489204,0.7561489052611456,-0.009268792554388535,0.07192215421862426,-0.030059383943902274,0.36400805715599965,0.1732998119665029,0.6490136633260979,1.075076193477005,0.36400805715599965,0.8000569939613342,0.08501720697025715,0.12455525668366155,8,False
66,2.2,1.5399999999999892,0.06837927068466028,-0.019668475315313103,0.75879287014275,-0.00331932566206794,0.0689224615140729,-0.02611404745103495,0.3639302456125232,0.15386889413263108,0.5525960377767988,0.9615078281451248,0.3639302456125232,0.8000689744949341,0.08281092803491667,0.11926753763955628,8,False
67,2.2333333333333334,1.5599999999999887,0.06635875355179216,-0.023709477361689425,0.7603773839924337,0.0222168079319651,0.08953389243049731,0.23357573881822374,0.3084419601163345,0.44813457485236996,1.309561153790302,2.92099303504138,0.3084419601163345,0.7465230226516724,0.07200531480332892,2.178024168096162,1,False
68,2.2666666666666666,1.5799999999999883,0.06442778310530026,-0.023015832626252657,0.761005286429843,0.027388722866210673,0.09444786392761483,0.203815830702648,0.3446138623563958,0.23394431587515946,0.7144380610306633,1.3293799747195,0.3446138623563958,0.7964540123939514,0.07742116069049934,0.17362394069960696,2,False
69,2.3,1.5999999999999879,0.06260644997030178,-0.020976316294242184,0.7595565373709928,0.02553141866233564,0.10222390238613326,0.18628133352672427,0.34655333300731306,0.21097260674393564,0.6415146837748028,1.2769755617062095,0.34655333300731306,0.7964419722557068,0.0759631096486092,0.1614292439740168,3,False
70,2.3333333333333335,1.6199999999999875,0.060065004247338495,-0.0191486606980089,0.7579736408765577,0.02817488749717913,0.1083839034316075,0.17104414564654846,0.34655333300731306,0.192018342888923,0.5717643347385266,1.1187674519220423,0.34655333300731306,0.7964419722557068,0.07441007213686478,0.14914951407582078,5,False
71,2.3666666666666667,1.639999999999987,0.05718549414047893,-0.017726340047082793,0.7581824538723904,0.03295564106254616,0.11398251941171127,0.15746094473463756,0.3484601163112655,0.17485369445121834,0.5126980549025335,0.9474416512311453,0.3484601163112655,0.7964311838150024,0.07181071814438207,0.13990617964675012,5,False
72,2.4,1.6599999999999866,0.054212521549188285,-0.016403675500054525,0.7590597220708664,0.03628007986744963,0.11918775213468527,0.14598471596219106,0.3503015357679848,0.15859006207610143,0.4954834245993194,0.8888989688465142,0.3503015357679848,0.7964227795600891,0.06862194299750421,0.13306471556796134,3,False
73,2.433333333333333,1.6799999999999862,0.05130936446424217,-0.015447710430055547,0.7596413615725172,0.04065820680092316,0.11585441540519119,0.12689834435880093,0.37262261692627235,0.1755938886035357,0.5803841095043631,1.082471148072917,0.37262261692627235,0.7892907857894897,0.06191076113785448,0.17865418677090925,6,False
74,2.466666666666667,1.6999999999999857,0.04867823780736189,-0.014237127725060328,0.7605547191087618,0.046767645053001676,0.11144964715824661,0.10253280140686663,0.2778836258662993,0.24473115772877704,0.9619247123870451,1.1602827391004307,0.2778836258662993,0.7969363927841187,0.0631253832851017,0.23477472562215898,7,False
75,2.5,1.7199999999999853,0.046497586433115,-0.012491157503198623,0.7612631182133577,0.050735296765741185,0.10621014173959935,0.0828337918009209,0.2814671985387545,0.22440769441198255,0.9448478641590985,1.2051231865329617,0.2814671985387545,0.7968565821647644,0.06044677337463363,0.21816575193890528,6,False
76,2.533333333333333,1.739999999999985,0.04463571453336715,-0.010517542839865682,0.7616478095403784,0.054712480950109534,0.10061091000117911,0.06579131508991083,0.2814671985387545,0.20439753499406518,0.8672904996164135,1.1711225129156484,0.2814671985387545,0.7968565821647644,0.05830121563362132,0.20193793931792292,5,False
77,2.566666666666667,1.7599999999999845,0.04282259149320207,-0.008428134092386519,0.7618188993613255,0.0587351242879317,0.09513927778977443,0.04991433976689832,0.28379555934526285,0.18943239270684967,0.7997227528288928,1.1063005884496997,0.28379555934526285,0.7965375781059265,0.056214965678408106,0.18967591329507008,3,False
78,2.6,1.779999999999984,0.04090381180898379,-0.006355654462794796,0.7617704586178912,0.06268548948276141,0.08968561257244685,0.03527693202994852,0.28549630635674916,0.17598870344380507,0.7304144956723277,1.0564045321890416,0.28549630635674916,0.7960990071296692,0.05419428700052991,0.17884136460915098,4,False
79,2.6333333333333333,1.7999999999999836,0.038856574127203274,-0.004370574843230309,0.761569853420117,0.0667439097467939,0.08421548062976483,0.022208456531452255,0.28549630635674916,0.15864370120478816,0.6241579969349665,0.9974288009966198,0.28549630635674916,0.7960990071296692,0.052566281281225674,0.16690730377952553,5,False
80,2.6666666666666665,1.8199999999999832,0.03690628644174089,-0.002498425176411547,0.7612630736448223,0.0711299690423355,0.08211053803011693,0.010030855817638296,0.2842939724856666,0.14689906735158678,0.5445061378605949,0.9344034186349323,0.2842939724856666,0.7955440282821655,0.050706391989591024,0.16036626555535688,6,False
81,2.7,1.8399999999999828,0.035461686497700595,-0.0007202955428549577,0.7607962024889482,0.07543627572641437,0.08196145005331326,-0.0012419553216042446,0.28232710971497,0.13701715168927409,0.4607806852776182,0.8951266700879901,0.28232710971497,0.7949873805046082,0.04942336052099323,0.15713493072842158,6,False
82,2.7333333333333334,1.8599999999999823,0.03423540601743529,0.0008790764886365057,0.7602753218329806,0.07937580312168199,0.08044990738373586,-0.011464890019862402,0.28232710971497,0.12178499779993389,0.3901639419327688,0.839010969654548,0.28232710971497,0.7949873805046082,0.04887804243040779,0.15182376555199328,6,False
83,2.7666666666666666,1.879999999999982,0.03290584713385775,0.002297714575032003,0.759759899864629,0.08289640806767803,0.07774686112036458,-0.021362602961146705,0.28153418251794987,0.1135595960260031,0.40030130375672174,0.7711966255790486,0.28153418251794987,0.7944275736808777,0.04798594261263782,0.14757309918964598,6,False
84,2.8,1.8999999999999815,0.03141269805122131,0.0035052434378516407,0.7592761625807768,0.08606337016415916,0.07451876780334375,-0.030685356033549244,0.2838147066067904,0.1069499932360923,0.4034452599539937,0.6960420305121907,0.2838147066067904,0.7938802242279053,0.04702034098076512,0.14244949546210645,6,False
85,2.8333333333333335,1.919999999999981,0.029851794369893322,0.004475605619662355,0.7588721187093465,0.08894802670856118,0.0710121431893569,-0.039001415742757374,0.2838147066067904,0.09749283382736469,0.4019073379376658,0.6169113544873295,0.2838147066067904,0.7938802242279053,0.04638944499864087,0.13730597810032757,6,False
86,2.8666666666666667,1.9399999999999806,0.028207619801621515,0.005253627898535801,0.7585172224556458,0.09148118374680621,0.06729344042393104,-0.0468553237086085,0.28593082912266254,0.09422032181637013,0.40121863498167626,0.5566245201351496,0.28593082912266254,0.7933390140533447,0.04529484766589559,0.13256351435161012,5,False
87,2.9,1.9599999999999802,0.026773231970848084,0.005099599926367717,0.7581815106217946,0.09257966509475266,0.06341342851709864,-0.05565930557540516,0.285854277152825,0.09043183432639222,0.3927375073373234,0.46948219142612646,0.285854277152825,0.7931110262870789,0.044448363265866375,0.126431085245907,8,False
88,2.933333333333333,1.9799999999999798,0.025612767967719514,0.004449931465090122,0.7578942411807245,0.09410260448997101,0.05929613455537768,-0.06162669466577606,0.285854277152825,0.08741253077441585,0.38900945473564524,0.3500212871294664,0.285854277152825,0.7931110262870789,0.04390131289069127,0.12191248379277167,8,False
89,2.966666666666667,1.9999999999999793,0.024355165430115077,0.0042758023534760345,0.7575594118009734,0.09665965664050545,0.05573387522758501,-0.06696336032544913,0.2852432166611583,0.08761825872123216,0.37912379644767014,0.3620127392610382,0.2852432166611583,0.7932878136634827,0.04355962798571824,0.11768454166786979,10,False
90,3.0,2.019999999999979,0.02304934360800672,0.004590039754406024,0.7572046746212577,0.09950134580515531,0.05255729834239752,-0.07163748762417535,0.28356312897762864,0.08352896570286895,0.3664779555537538,0.2698075697536427,0.28356312897762864,0.7942742109298706,0.043984013369323435,0.11444671005980576,8,False
91,3.033333333333333,2.0399999999999787,0.02182458331819714,0.004849774070157826,0.7569355412072463,0.1016794764492452,0.04923167677834346,-0.07539889711410681,0.28356312897762864,0.08018107667637016,0.36509064411745007,0.2026023939162061,0.28356312897762864,0.7942742109298706,0.043610895653714704,0.11265113584288959,8,False
92,3.066666666666667,2.0599999999999783,0.02076745863753477,0.004932476292590631,0.7567066191394258,0.1036337645173413,0.04633725020437034,-0.07797427602743405,0.28078805571743126,0.07616476658984302,0.35630946490495874,0.167526148405817,0.28078805571743126,0.7947897911071777,0.04372521549340228,0.10974471116677631,7,False
93,3.1,2.079999999999978,0.019888011341871806,0.004839192162539357,0.7564788541748421,0.1055318029938613,0.043924697921627405,-0.07961850255335515,0.2781998938880861,0.0758841843894761,0.35044426056565053,0.16422752802070048,0.2781998938880861,0.7950699925422668,0.04373009819178866,0.10751851688556513,7,False
94,3.1333333333333333,2.0999999999999774,0.019133456318874014,0.004576210785193663,0.7562281068232402,0.10740660060452115,0.04194919357922812,-0.08125579277139681,0.2781998938880861,0.07425458703932768,0.35228167089721746,0.14708908818985234,0.2781998938880861,0.7950699925422668,0.04356925844894184,0.10720306491845247,7,False
95,3.1666666666666665,2.119999999999977,0.01855403666613237,0.004186863286220118,0.7559884725249686,0.10908649075106565,0.04045144748999065,-0.08199118574694189,0.2776236007600252,0.07679184568351796,0.34909681663124986,0.16404623493190004,0.2776236007600252,0.7950063943862915,0.043420201445477494,0.10559114016124338,7,False
96,3.2,2.1399999999999766,0.018125468312443962,0.003714578742117632,0.7557683519718983,0.11063769834382822,0.03941444961505451,-0.08219645672048514,0.27803896144353624,0.07968292110072434,0.3474920806898439,0.20144886065105339,0.27803896144353624,0.7947971820831299,0.04319455574769571,0.10413061798007921,7,False
97,3.2333333333333334,2.159999999999976,0.017757081472874615,0.003160064918142488,0.7555310273903717,0.11219469961887718,0.03879852741772125,-0.08267919877283357,0.27803896144353624,0.07768648285847196,0.3544001366133954,0.18269877707502735,0.27803896144353624,0.7947971820831299,0.04320153139771103,0.10474986989199113,8,False
98,3.2666666666666666,2.1799999999999757,0.017522328252422528,0.0025545250208890095,0.7553046473976063,0.11361163546617001,0.0386465593841747,-0.08252166502877413,0.2785648567810783,0.07974577362985555,0.35389514362194396,0.207864798353874,0.2785648567810783,0.7942968010902405,0.04280220163901413,0.10341505560291675,7,False
99,3.3,2.1999999999999753,0.01740808092244413,0.0019361344074573165,0.7550863835873409,0.11491127664625521,0.03885710765588272,-0.08216901398432476,0.27905203552980873,0.08029987284006099,0.3558877612574728,0.227738580601142,0.27905203552980873,0.7931643724441528,0.04187959193409714,0.10188400126355864,7,False
100,3.3333333333333335,2.219999999999975,0.017310967631121683,0.0013072388768785369,0.7548433120892396,0.11626256152599196,0.03934227468758551,-0.08219715042470063,0.27905203552980873,0.07815179406763037,0.36594153343927216,0.203576182817472,0.27905203552980873,0.7931643724441528,0.04202725861264952,0.10312237182923478,7,False
101,3.3666666666666667,2.2399999999999745,0.01732412791795028,0.0006845913721034618,0.7546062576106349,0.11752639054989551,0.04019248998994076,-0.08179823749633251,0.2792986551107004,0.0784207819172236,0.36914119326309935,0.2176501327373476,0.2792986551107004,0.7917159795761108,0.04090400069722413,0.10182642279961807,7,False
102,3.4,2.259999999999974,0.017424816512172703,8.90142261021236e-05,0.7543714005234194,0.1186835948877681,0.04122681851081778,-0.08158406823653444,0.278919351447759,0.07809632271983553,0.37507170964404324,0.23153676282759886,0.278919351447759,0.7905094027519226,0.04005436751831703,0.10081345965849292,7,False
103,3.433333333333333,2.2799999999999736,0.01752588809157482,-0.00047721311685794865,0.7541188347250537,0.11986520688786124,0.04237169916502799,-0.0816677008287245,0.278919351447759,0.07594954639526656,0.3853846827723131,0.20569050266024377,0.278919351447759,0.7905094027519226,0.04032307769576819,0.1024245073525983,7,False
104,3.466666666666667,2.299999999999973,0.01769843307487771,-0.00098080409837969,0.7539298299788146,0.12062405643086002,0.04363616396854436,-0.0814833273002721,0.2782533062172347,0.07552999629876321,0.38692594420022774,0.20317653739062924,0.2782533062172347,0.7896507978439331,0.03985454973423691,0.10143792683156218,10,False
105,3.5,2.3199999999999728,0.018073324354296497,-0.0013121447817779827,0.7540596268150336,0.1196537478877627,0.044499980368234854,-0.08045593368662646,0.27736408032219984,0.07325517768953439,0.35715533404481414,0.22540534029346995,0.27736408032219984,0.7894881963729858,0.039741668012066286,0.0982917687451943,8,False
106,3.533333333333333,2.3399999999999723,0.018777733254413523,-0.0015570012308292905,0.7543229225206917,0.11759753488718576,0.04470914996007323,-0.07894197681282089,0.27736408032219984,0.07135856235941887,0.33965177923059153,0.16511118096218233,0.27736408032219984,0.7894881963729858,0.03987940881179627,0.09720640638112643,9,False
107,3.566666666666667,2.359999999999972,0.019776722850139233,-0.0016234613913249719,0.7548174429183853,0.1141950410786713,0.045441722716221204,-0.07755171732368041,0.27553414685073596,0.07053375942190439,0.3314685239173033,0.15085480165009144,0.27553414685073596,0.7895343899726868,0.03996822406173848,0.09291893342411725,7,False
108,3.6,2.3799999999999715,0.02084666554392783,-0.0015976987082235875,0.7552030070997272,0.11095882611640948,0.04675509363356288,-0.07704646786857618,0.27317082969640416,0.07039020382447528,0.33427691433337126,0.15705892852265724,0.27317082969640416,0.7896850109100342,0.04025595229412086,0.08951636578996973,7,False
109,3.6333333333333333,2.399999999999971,0.02182295397457814,-0.0014462969039292213,0.7555482005859857,0.10779269746507004,0.048076632235058224,-0.07650043668403861,0.27317082969640416,0.07001534445857976,0.3403875996233029,0.13092452469409355,0.27317082969640416,0.7896850109100342,0.04048966251177312,0.08832375560404031,8,False
110,3.6666666666666665,2.4199999999999706,0.022775476031344593,-0.0011685379890836328,0.7558725573661835,0.10458427429368569,0.04982213119217776,-0.07637516705553288,0.27146083167914686,0.07144297997401766,0.34345410605139637,0.11536497994551688,0.27146083167914686,0.7896826267242432,0.040711081239950396,0.08581273210077227,9,False
111,3.7,2.43999999999997,0.023719428854932667,-0.0008571775051468072,0.7560667649209022,0.10144389822742242,0.051947713778759765,-0.0768444575407131,0.2700401988554874,0.07287428028270575,0.34336006426067667,0.11642508981449078,0.2700401988554874,0.7896128296852112,0.04098858429485596,0.08385591657524168,10,False
112,3.7333333333333334,2.4599999999999698,0.024706435029571948,-0.0005406471571294669,0.7561635196559249,0.09881381465509444,0.05400873022758036,-0.07718819907463183,0.2700401988554874,0.07190890547291298,0.34215123087339805,0.10596538431968613,0.2700401988554874,0.7896128296852112,0.04145430600312015,0.08374833120764996,10,False
113,3.7666666666666666,2.4799999999999693,0.02563065271576242,-0.0001683262882050526,0.7561372305084006,0.09610113463877687,0.05618757931104824,-0.07812493524310485,0.2690857686423536,0.07292909967783429,0.3388015131799137,0.12720068820434263,0.2690857686423536,0.7894082069396973,0.04184726220491489,0.08220410218818418,10,False
114,3.8,2.499999999999969,0.0264665789295222,0.00019334386271541333,0.7559650667455131,0.0932092783128835,0.05882756529895905,-0.0794341669747844,0.26841771761597744,0.07519639153817083,0.3348589461910396,0.14941556442029388,0.26841771761597744,0.7891911864280701,0.0423099328108391,0.08055384431239522,9,False
115,3.8333333333333335,2.5199999999999685,0.02732636388846015,0.0005357503904194938,0.7557587507574983,0.0906945993878205,0.061482117301158275,-0.08047072155025914,0.26841771761597744,0.07362001973506263,0.3337520755747344,0.1426072358454865,0.26841771761597744,0.7891911864280701,0.043005088468656874,0.08102517000361736,8,False
116,3.8666666666666667,2.539999999999968,0.028105806596355348,0.0008947216637159834,0.755463763671654,0.0878136557120165,0.06433180441897704,-0.08178752110758267,0.2679392041413692,0.07621416498935209,0.3306690207374511,0.15798118629519392,0.2679392041413692,0.788968026638031,0.04355477164700106,0.0794475151331254,9,False
117,3.9,2.5599999999999676,0.028729826640834892,0.0012407516249038368,0.7550256888957589,0.08438231262485184,0.06768432941476636,-0.08300417882155588,0.2682151864925078,0.07890151190175819,0.32751241848385493,0.18514138290392343,0.2682151864925078,0.78886479139328,0.044220183193402755,0.0774374552951787,8,False
118,3.933333333333333,2.579999999999967,0.029344376390208232,0.0015665115085350732,0.7545750998337081,0.08136096583844046,0.07106231217156314,-0.08398004988180065,0.2682151864925078,0.07707833275556163,0.3282084831384692,0.17068530734728923,0.2682151864925078,0.78886479139328,0.044970041302501526,0.07837409888378204,9,False
119,3.966666666666667,2.599999999999967,0.029847373059615913,0.0018948512691721402,0.7540272973172638,0.07769922633620709,0.07462167743717113,-0.08486717224185654,0.26878885349965304,0.08015016005022345,0.32571495105049897,0.1931904830543238,0.26878885349965304,0.7890976071357727,0.045900861717116194,0.07665670117274588,9,False
120,4.0,2.6199999999999664,0.030154288607927203,0.002216853690091946,0.7533170737512781,0.07332535422565227,0.0786207394058484,-0.08551324051143691,0.26975638817610414,0.08357395592703204,0.32316946201497176,0.22315564925369158,0.26975638817610414,0.7900024056434631,0.04734960060911165,0.07514978398576981,8,False
121,4.033333333333333,2.639999999999966,0.03045589685038805,0.002500133385138397,0.752601602960254,0.06943420666106329,0.08257816960717027,-0.08604002605119586,0.26975638817610414,0.08105785628254959,0.32478343363574735,0.20366920857734797,0.26975638817610414,0.7900024056434631,0.04810868344383116,0.07656264668768051,7,False
122,4.066666666666666,2.6599999999999655,0.030629309670256344,0.002795004489769159,0.7517855948456431,0.06478270862738131,0.0865673027483853,-0.08625852978660835,0.2705979986951269,0.08516882726976499,0.32244905429163284,0.22780988020816736,0.2705979986951269,0.7901291847229004,0.0489641686967838,0.07530794933752415,7,False
123,4.1,2.679999999999965,0.0305963382096813,0.0030767146312324412,0.7508042577758192,0.059459718776450794,0.09089747996793897,-0.08620090966299189,0.2713766551480211,0.08981047220807953,0.3202399212424861,0.2670057564343392,0.2713766551480211,0.7898669838905334,0.04952011732967019,0.07417577216055522,7,False
124,4.133333333333334,2.6999999999999647,0.030557573397200246,0.0033226581350521965,0.7498120526905641,0.0546034511137486,0.09511534880044545,-0.08614608838412295,0.2713766551480211,0.08677146490310249,0.32261508339040357,0.24430441946648765,0.2713766551480211,0.7898669838905334,0.05029739336018902,0.0761666092797687,7,False
125,4.166666666666667,2.7199999999999642,0.030399621588624574,0.00354733781783918,0.7488365074075173,0.0496116837238343,0.09921753930236431,-0.08574762690030543,0.27202182292039023,0.09133874369721577,0.34393856376887005,0.27418234388543355,0.27202182292039023,0.7890738248825073,0.050385492631349,0.07529758776162869,5,False
126,4.2,2.739999999999964,0.030098378697451834,0.0037308749964315704,0.7478732202417444,0.0446448235260162,0.10353485005372334,-0.08520185338489918,0.2725118463537816,0.09509413604721957,0.3707886292911245,0.3018736469681298,0.2725118463537816,0.7882068157196045,0.050317435865777346,0.07455437340673338,5,False
127,4.233333333333333,2.7599999999999634,0.02986257110476752,0.0038883105231742156,0.7469790959750053,0.04020131690353394,0.10765193196761033,-0.08495939260705992,0.2725118463537816,0.0913118282792709,0.3769213215914133,0.2691228894301822,0.2725118463537816,0.7882068157196045,0.05090742195655533,0.07732446561022954,5,False
128,4.266666666666667,2.779999999999963,0.029562167979084744,0.004026563077166432,0.7461414752471328,0.0358384753650017,0.1114747912845391,-0.08427231226509875,0.2726916017267725,0.09454065240324294,0.4007449027714678,0.28308232800937055,0.2726916017267725,0.7871922254562378,0.05062483636727916,0.07644883483631601,5,False
129,4.3,2.7999999999999625,0.02918296686118716,0.00414073338146828,0.7453412541010838,0.03159532260540747,0.11536331542752937,-0.08340542155596838,0.2728737373996911,0.09624032456083333,0.41737931356200336,0.2943663603816121,0.2728737373996911,0.7860972285270691,0.05019080576778788,0.07604158899920371,5,False
130,4.333333333333333,2.819999999999962,0.02888697641129661,0.004248628636730833,0.7446083657022728,0.02780424979983495,0.11899507491333922,-0.08287192638346604,0.2728737373996911,0.09194809318463273,0.41728446481763304,0.261322042058691,0.2728737373996911,0.7860972285270691,0.050623315391494283,0.07913710192394101,5,False
131,4.366666666666666,2.8399999999999617,0.02856659223625321,0.004363805146085702,0.7439103536874866,0.024015700349025483,0.12231298962444478,-0.08192339028984613,0.2730570710585292,0.09354605240752101,0.4280996257394692,0.27339718404732205,0.2730570710585292,0.784961998462677,0.05010582661808721,0.07868832759585245,5,False
132,4.4,2.8599999999999612,0.028237400985179996,0.004499438082862982,0.7432176752796498,0.020221435139555058,0.12566540764109727,-0.08113534677437419,0.2732412469059486,0.0933272147839368,0.4214530775593485,0.27432523065357184,0.2732412469059486,0.78399658203125,0.0497053965797104,0.07865809160642487,5,False
133,4.433333333333334,2.879999999999961,0.027987200396013854,0.004651733301219248,0.7425640639928099,0.016767256765931732,0.12874682271493718,-0.08051393555530713,0.2732412469059486,0.08907523527815059,0.4177805575998894,0.24373421634874684,0.2732412469059486,0.78399658203125,0.050111496419456,0.08165997479343105,5,False
134,4.466666666666667,2.8999999999999604,0.027763105624670544,0.004848463593790597,0.7419177331462753,0.013241917194207108,0.13165693722795663,-0.07997079054365817,0.27328802439673194,0.08848343900837902,0.40135540857019586,0.2391262018165116,0.27328802439673194,0.7833195924758911,0.04997592215141501,0.08144083034463692,5,False
135,4.5,2.91999999999996,0.027567816999705348,0.005109135378224764,0.741246331478458,0.00964394453176987,0.13468460383757302,-0.07979767114927493,0.27306000873093206,0.08643370660850322,0.3674091901856456,0.2288093794174474,0.27306000873093206,0.7832193970680237,0.05035320531834939,0.08156490427850156,5,False
136,4.533333333333333,2.9399999999999595,0.02741321446708789,0.005406444256453586,0.7405847116664512,0.006260362866329224,0.1375259529223673,-0.07955655157445536,0.27306000873093206,0.08325328879155763,0.3662036485692884,0.19824440786029654,0.27306000873093206,0.7832193970680237,0.05085002539185524,0.0845219878711132,5,False
137,4.566666666666666,2.959999999999959,0.027311807746701368,0.005767891758453052,0.7399571897792775,0.0030791162212987994,0.1405158549029587,-0.07973067262330165,0.2717073795803148,0.08102997401055624,0.33725899008539156,0.1848719827673155,0.2717073795803148,0.7830420136451721,0.051209387982495434,0.08428591304045342,5,False
138,4.6,2.9799999999999587,0.027255127328262563,0.006206297591481348,0.7393757429822608,0.00012148007743266542,0.1438344348805477,-0.08022949871852922,0.26979245136267155,0.0790511151059591,0.32816143481294635,0.1756409907936252,0.26979245136267155,0.7828260064125061,0.05153939822828586,0.08425545822514906,5,False
139,4.633333333333334,2.9999999999999583,0.027185848025330105,0.006689392326051956,0.7388307598117635,-0.0027150999679193214,0.14703504750172158,-0.08050389468003462,0.26979245136267155,0.07744251020980221,0.32882667390320364,0.15609592230241856,0.26979245136267155,0.7828260064125061,0.052030317865183126,0.0876407371698902,5,False
140,4.666666666666667,3.019999999999958,0.027156386438539716,0.00721386641839565,0.738382520196567,-0.004985331727492299,0.15061456346291374,-0.08131886817816099,0.26649575650989044,0.07821879109252751,0.33083323300817036,0.15372276105587143,0.26649575650989044,0.7824965715408325,0.05219941844887264,0.08776879432826493,5,False
141,4.7,3.0399999999999574,0.027156410045557966,0.007790708936205119,0.7380633882771427,-0.006784976816050261,0.15460971236331472,-0.08249913418732192,0.263825078647391,0.079545809553739,0.3323440686524387,0.17631206713947217,0.263825078647391,0.781974196434021,0.052134117355127636,0.08834676997135157,5,False
142,4.733333333333333,3.059999999999957,0.027077956195125322,0.008394991396702217,0.7377973817911568,-0.008609093044756983,0.15841951999182782,-0.08332124150379773,0.263825078647391,0.07800031953375348,0.33183988513901597,0.15895716553168093,0.263825078647391,0.781974196434021,0.0524275407735972,0.09202628752308184,6,False
143,4.766666666666667,3.0799999999999566,0.02699715080609594,0.008961794048155971,0.7376621914879645,-0.009604669375964407,0.16261819122455998,-0.08443358758058966,0.2604657161402805,0.07997713907135368,0.33466432853480044,0.17675905821247365,0.2604657161402805,0.781065821647644,0.0518635367360199,0.09289811084881772,6,False
144,4.8,3.099999999999956,0.026901921849502106,0.009507477040561886,0.7376655742414882,-0.010046641956803664,0.16704605607656173,-0.08598012816596934,0.25773857868324707,0.08261947501251647,0.3484514867848685,0.20229600958813562,0.25773857868324707,0.7801777720451355,0.05119610379298042,0.09450988054944905,5,False
145,4.833333333333333,3.1199999999999557,0.02667885800296892,0.01007326748119187,0.7376908347336499,-0.010660597247838148,0.17111552960236162,-0.08708775663259129,0.25773857868324707,0.08084344939282119,0.3590665313849868,0.1796505464579677,0.25773857868324707,0.7801777720451355,0.051182691891518,0.09803265287480332,6,False
146,4.866666666666666,3.1399999999999553,0.026407316261865342,0.010637111557288694,0.7377577455200149,-0.010816092485122265,0.1752866074908891,-0.0888790477748743,0.25532755326953366,0.08387294636064305,0.3706392338474176,0.19225070484621878,0.25532755326953366,0.7792999744415283,0.0503852710542464,0.09956500253682446,5,False
147,4.9,3.159999999999955,0.026044922452998793,0.011248961146297693,0.7378131632609268,-0.010849234941482594,0.17933948464356814,-0.09122059092875763,0.25670499987257966,0.08516198080446785,0.3730423412447006,0.20010045346335797,0.25670499987257966,0.7789484262466431,0.049996005501775624,0.1018905759497425,5,False
148,4.933333333333334,3.1799999999999544,0.025555383501455968,0.011833463155991649,0.7379564409487934,-0.010291924586434041,0.18299551939330477,-0.09309194070376661,0.25670499987257966,0.08342613818330141,0.37981714751154605,0.1576949299306899,0.25670499987257966,0.7789484262466431,0.0498491614486266,0.1045713921294295,7,False
149,4.966666666666667,3.199999999999954,0.025154079816709068,0.012335247309901442,0.7384697923151404,-0.00838237425877487,0.18641226907687394,-0.09642161352457063,0.2583405981964335,0.08383717755387057,0.3551726307314884,0.22482722351843543,0.2583405981964335,0.778571605682373,0.04901165887883415,0.10544239403252859,8,False
150,5.0,3.2199999999999536,0.024992616038382445,0.012757569160845918,0.739089901580223,-0.005288751421271032,0.18932403091521535,-0.10021107937021052,0.260375259524404,0.08386338371673917,0.3346964444311239,0.18491049655405187,0.260375259524404,0.7781444191932678,0.048223155010191164,0.10502451147296839,8,False
151,5.033333333333333,3.239999999999953,0.024998690362061416,0.01309767383890719,0.7399109964404854,-0.001782319657466406,0.19226320398764485,-0.10330059691617045,0.260375259524404,0.08190104400562069,0.3298643928053193,0.15101280451544413,0.260375259524404,0.7781444191932678,0.04766461244222777,0.10570494336418963,7,False
152,5.066666666666666,3.2599999999999527,0.024951658168958474,0.013436375408649757,0.7406188100941429,0.0014102866428424953,0.1951241289002713,-0.10639537884824714,0.2628422105395845,0.08195594661453207,0.3313421528128059,0.1700770015446336,0.2628422105395845,0.7774968147277832,0.04659578743529526,0.10466263709007412,6,False
153,5.1,3.2799999999999523,0.02466969960490593,0.013759262827539025,0.741096199394536,0.004491035250526574,0.19794183693893508,-0.10912481622225376,0.2655253097463142,0.08165999767690757,0.3345633462559131,0.15348387691858323,0.2655253097463142,0.7767390012741089,0.04559216009473226,0.10346145249047259,7,False
154,5.133333333333334,3.299999999999952,0.024290617221762588,0.014039569580858776,0.7415227673197881,0.007366495899658492,0.20085405258973912,-0.11163829906557969,0.2655253097463142,0.07998932885272009,0.337171588600254,0.13248673419349902,0.2655253097463142,0.7767390012741089,0.04513688690322987,0.10485186941007905,8,False
155,5.166666666666667,3.3199999999999514,0.02387412647870861,0.014296883933160748,0.741838475389121,0.010019905519165175,0.20374107544877387,-0.11424888495301459,0.26847322397576323,0.07921124051290991,0.3338349939642933,0.1314761947775504,0.26847322397576323,0.7759721875190735,0.04412925034769726,0.10456509299032021,8,False
156,5.2,3.339999999999951,0.023411867128356245,0.014549178670927117,0.741996152061406,0.012408693782121023,0.20656637271871392,-0.11701092932144637,0.2713355380913307,0.07821287807501846,0.32904316798323274,0.13839729237483447,0.2713355380913307,0.7752438187599182,0.043251464177176666,0.10442402267866127,7,False
157,5.233333333333333,3.3599999999999506,0.022776345695815884,0.015022349008264931,0.7420314391716307,-0.008317273323796674,0.2218135437808596,-0.1219448611451544,0.31607805744841183,0.22348560574204016,0.7578414273683918,1.4104210558410453,0.31607805744841183,0.7678532004356384,0.0377037516513793,0.10856882175438404,6,False
158,5.266666666666667,3.37999999999995,0.02183761617889124,0.014114005158402082,0.7429075335614375,-0.01875094990044945,0.2156784322065922,-0.10266014114901433,0.3869961976105797,0.3612944284023065,1.558884754965243,1.7726687148508107,0.3869961976105797,0.7724575996398926,0.039706868526164465,0.1992293509312887,7,False
159,5.3,3.3999999999999497,0.023598278692604058,0.012481540089905692,0.746053621829026,-0.01584372803211786,0.20822623797326603,-0.09428388835303848,0.3514512582252541,0.2985241631378338,1.2484274448079837,1.3524477078857062,0.3514512582252541,0.7945663928985596,0.05592321558420277,0.2488128343347222,5,False
160,5.333333333333333,3.4199999999999493,0.026174271513355447,0.010664547455130798,0.7498229546730198,-0.010279698555020334,0.19316558691494368,-0.0866632634736115,0.3514512582252541,0.2728237423191091,1.176391071537374,1.3745948988038565,0.3514512582252541,0.7945663928985596,0.05356981121944563,0.23399404576026833,7,False
161,5.366666666666666,3.439999999999949,0.02843694110565618,0.008939252033014064,0.7537174472011712,-0.005356162523205455,0.17693044754245857,-0.08084923541416801,0.3510377627098933,0.24686301677789685,1.0845903415706393,1.342212678917238,0.3510377627098933,0.7945579886436462,0.05108964608390131,0.21685696480773806,6,False
162,5.4,3.4599999999999485,0.030444681502199776,0.00735461924259029,0.7563437235329014,-0.0015121738331296296,0.16133715198632304,-0.07676536820304115,0.3505551272136127,0.21984500339217347,0.9796784852805257,1.2865676054289596,0.3505551272136127,0.7945556044578552,0.04964302430181546,0.200712584808022,8,False
163,5.433333333333334,3.479999999999948,0.03241476116542674,0.005801989476793924,0.758585407778811,0.0017963373277821346,0.14818279636664491,-0.0726791756737764,0.3505551272136127,0.19639818071081064,0.8690730719883711,1.155056452998337,0.3505551272136127,0.7945556044578552,0.04888088062053326,0.18629014836648114,7,False
164,5.466666666666667,3.4999999999999476,0.03436552878444871,0.004379104107471105,0.7603183086006582,0.0038424573611122387,0.13723378766379718,-0.06951867209732976,0.3500994401983917,0.17436282918207383,0.7576305845783654,1.0602418518478918,0.3500994401983917,0.7945550084114075,0.04867165432530054,0.17483087755677099,6,False
165,5.5,3.519999999999947,0.036141743726747694,0.0029716914188042424,0.7617244918731814,0.006061531051139131,0.12762652485734527,-0.06659779950556609,0.3496976241003722,0.1546814795037456,0.6503706287234637,0.9364694398316664,0.3496976241003722,0.7945579886436462,0.04885091148424002,0.16481995319005094,7,False
166,5.533333333333333,3.5399999999999467,0.03782963505716576,0.0016219927837697482,0.7629262577477568,0.008252656533529372,0.11910854577748485,-0.06406888702546311,0.3496976241003722,0.13755808386692742,0.5503827737726572,0.8330528734560884,0.3496976241003722,0.7945579886436462,0.04921160959056738,0.15582298731550454,8,False
167,5.566666666666666,3.5599999999999463,0.039425344085135046,0.0003754924972429153,0.7638498981096671,0.010114131811355426,0.11123799175191286,-0.06202063751875389,0.34940398802402717,0.12280428946193038,0.5116456889458769,0.7269008506690554,0.34940398802402717,0.7945637702941895,0.049802076664167444,0.14779190210546767,6,False
168,5.6,3.579999999999946,0.041142286618742835,-0.0005248193445659825,0.7628098988329813,0.015572179524027167,0.12119606571185942,-0.08289549940316705,0.31277508741838794,0.22998944671171873,0.8611306876753126,1.0779694281800665,0.31277508741838794,0.7457028031349182,0.04437272472012277,0.16669943008558427,3,False
169,5.633333333333334,3.5999999999999455,0.04276810247074653,-0.0017721795468953073,0.7601098779245085,0.029911172917089102,0.11745118500098374,-0.053005544682173084,0.2706621650221019,0.22694537483601215,0.8374009265346272,1.0866880593625785,0.2706621650221019,0.7736064195632935,0.044235053790059396,0.2694490674372633,6,False
170,5.666666666666667,3.619999999999945,0.04481650690181508,-0.0032731046405364726,0.7573492871260997,0.04607895639010426,0.1130600009897347,-0.023594208424254658,0.27446706297582596,0.21042697366126853,0.8214692447365999,1.126290685748425,0.27446706297582596,0.7726839780807495,0.04675789441537809,0.2748234992522219,5,False
171,5.7,3.6399999999999446,0.046767898589894615,-0.004949920471765475,0.7549136865415041,0.06253260152471651,0.10784793812869325,0.0038066103691133646,0.27446706297582596,0.1938448773657808,0.7708844010650396,1.0542961224615206,0.27446706297582596,0.7726839780807495,0.049589668423664385,0.24764711462607508,5,False
172,5.733333333333333,3.659999999999944,0.04860728303208946,-0.006479339051367315,0.7527027071448643,0.0774488454819628,0.10305612784712327,0.03253850216523371,0.2784212065924858,0.1807849167849507,0.7022225562527944,1.0431475492890758,0.2784212065924858,0.7716519832611084,0.05193852656565768,0.25369753478552515,4,False
173,5.766666666666667,3.6799999999999438,0.04997549941436831,-0.007964660475331632,0.7503454185471276,0.09235739434684434,0.09882852125773851,0.061564899682567856,0.28153651149879244,0.1662248486599951,0.6134648716904183,0.9860199121282247,0.28153651149879244,0.7703775763511658,0.05391103605995716,0.2592373196564681,6,False
174,5.8,3.6999999999999433,0.0506693707200295,-0.00928585591289798,0.7483523617876164,0.10479429810839964,0.09495633498903679,0.08693178784535906,0.28153651149879244,0.15076877504032982,0.5200106729287889,0.961839543596049,0.28153651149879244,0.7703775763511658,0.05569786607264423,0.23589388461047775,5,False
175,5.833333333333333,3.719999999999943,0.05071282539821968,-0.01037354653335834,0.7465597628702199,0.11391054097798918,0.09194521117566955,0.11344383726398237,0.2845459381953396,0.1394827172040156,0.4224415102399811,0.9691447329663796,0.2845459381953396,0.769029974937439,0.05625596848685895,0.24462634186628476,6,False
176,5.866666666666666,3.7399999999999425,0.05017763240999295,-0.011562600209868053,0.7450026051788283,0.12362640126302474,0.08939384521065784,0.14117419072555365,0.28734361084884613,0.12969059441737682,0.34381218796012214,0.9119093468245756,0.28734361084884613,0.7675359845161438,0.05617314832676339,0.2522098313425988,5,False
177,5.9,3.759999999999942,0.04911330535624303,-0.01277396305893639,0.7437653584061922,0.13310493401737347,0.08818139981413818,0.1658524043437107,0.28734361084884613,0.11636231832065974,0.33657752425622767,0.8805109839792136,0.28734361084884613,0.7675359845161438,0.056096166871749016,0.23101975243772574,3,False
178,5.933333333333334,3.7799999999999416,0.04765450485252164,-0.013990398906380569,0.7428323903140689,0.14059107314661978,0.08664309773121188,0.19186935654491327,0.29101206445745353,0.10789454997874941,0.3536087411738077,0.7751600274789773,0.29101206445745353,0.7658067941665649,0.0548823926179154,0.24108148518314979,5,False
179,5.966666666666667,3.799999999999941,0.04606523493738421,-0.015071600223358801,0.7424447680207842,0.14581849525821358,0.08538046076306641,0.21918907845122493,0.29511589608315764,0.10215218070163196,0.3737570174374475,0.7485672712644904,0.29511589608315764,0.7639600038528442,0.05331240939621731,0.24877617859565954,7,False
180,6.0,3.8199999999999408,0.04441900156336894,-0.015830364427864393,0.7424328730119771,0.1482583396166038,0.08527396902979419,0.24373359607917222,0.29511589608315764,0.09819204843617764,0.3970794729972808,0.7338588544279789,0.29511589608315764,0.7639600038528442,0.05210391832025863,0.2272208903640372,3,False
181,6.033333333333333,3.8399999999999403,0.042808753681026865,-0.016322903025068582,0.7424192071321662,0.14914913367932917,0.084499564761875,0.2695478722092055,0.2973514372675583,0.09965881587441128,0.4172555277156195,0.6185736045671756,0.2973514372675583,0.762349009513855,0.050227769339798965,0.23455127388091518,4,False
182,6.066666666666666,3.85999999999994,0.04100935493449402,-0.01738578605388711,0.7425351689448424,0.1505212439055575,0.08483064352419617,0.29973653810726936,0.2985916536718864,0.10176640756567547,0.4350825636868437,0.4392130667605178,0.2985916536718864,0.7610859870910645,0.04861402603181378,0.23940164383906637,7,False
183,6.1,3.8799999999999395,0.03934630254464548,-0.018421813355096215,0.742796152289347,0.15170077272344598,0.08753986697272748,0.3255671034712266,0.2985916536718864,0.10127831564464823,0.4506434203801519,0.4462867648681556,0.2985916536718864,0.7610859870910645,0.04727546702439321,0.21613879152953416,5,False
184,6.133333333333334,3.899999999999939,0.03881218579039928,-0.02030571968407596,0.7419127280291601,0.1498816925143181,0.08951188385785275,0.4091304424403078,0.26721412277427214,0.12528659307949105,0.5050267567586697,0.7562738867047318,0.26721412277427214,0.7825098037719727,0.059353688174904516,0.6683170889306853,3,False
